,Code,Show Name,Location,Scene,geocodedLocation,latitude,longitude
0,/title/tt0479647/,"Bon Cop, Bad Cop","Ottawa, Ontario, Canada",,"Ottawa, Eastern Ontario, Ontario, K1P 1J1, Canada",45.421106,-75.690308
1,/title/tt0479647/,"Bon Cop, Bad Cop","Vancouver, British Columbia, Canada",,"Vancouver, Metro Vancouver Regional District, British Columbia, Canada",49.2608724,-123.1139529
2,/title/tt0479647/,"Bon Cop, Bad Cop","Québec, Canada",,"Québec, Canada",52.4760892,-71.8258668
3,/title/tt1259014/,L'instinct de mort,"L'Escala, Girona, Catalonia, Spain",,"l'Escala, Alt Empordà, Girona, Catalunya, España",42.113535,3.1387422
4,/title/tt1259014/,L'instinct de mort,"Monument Valley, Utah, USA",,"Monument, Disera Boulevard, Magna, Salt Lake County, Utah, 84044, United States of America",40.7143227,-112.1045506
5,/title/tt1259014/,L'instinct de mort,"Montréal, Québec, Canada",,"Montréal, Agglomération de Montréal, Montréal (06), Québec, Canada",45.4972159,-73.6103642
6,/title/tt0112389/,The Princess and the Cobbler,"London, England, UK",,"London, Greater London, England, United Kingdom",51.5073219,-0.1276474
7,/title/tt0119630/,Masterminds,"Hatley Castle, Royal Roads, Colwood, British Columbia, Canada",,,,
8,/title/tt0119630/,Masterminds,"Shepperton Studios, Shepperton, Surrey, England, UK",(studio)                        ,,,
9,/title/tt0070030/,Emperor of the North Pole,"Cottage Grove, Oregon, USA",,"Cottage Grove, Lane County, Oregon, United States of America",43.7974729,-123.0588963
10,/title/tt0081467/,Het eiland van de nieuwe monsters,"Neptune's Grotto, Capo Cassia, Alghero, Sardinia, Italy",(cave with stalactites)                        ,,,
11,/title/tt0081467/,Het eiland van de nieuwe monsters,"Bronson Caves, Bronson Canyon, Griffith Park - 4730 Crystal Springs Drive, Los Angeles, California, USA",(round caves in opening scenes-US version)                        ,,,
12,/title/tt0081467/,Het eiland van de nieuwe monsters,Iceland,,Ísland,64.9841821,-18.1059013
13,/title/tt0081467/,Het eiland van de nieuwe monsters,"Grotte del Bue Marino, Dorgali, Nuoro, Italy",(caves seen from sea)                        ,,,
14,/title/tt0081467/,Het eiland van de nieuwe monsters,"R.P.A. Studios, Rome, Lazio, Italy",,,,
15,/title/tt0073018/,French Connection II,"Marseille, Bouches-du-Rhône, France",,"Marseille, Bouches-du-Rhône, Provence-Alpes-Côte d'Azur, France métropolitaine, 13000, France",43.2961743,5.3699525
16,/title/tt0073018/,French Connection II,"Quai du Port, Marseille, Bouches-du-Rhône, France",(Dockside climax)                        ,"Quai du Port, Hôtel de Ville, 2e Arrondissement, Marseille, Bouches-du-Rhône, Provence-Alpes-Côte d'Azur, France métropolitaine, 13002, France",43.2962825,5.3714693
17,/title/tt0073018/,French Connection II,"Rue des Catalans, Marseille, Bouches-du-Rhône, France",(Doyle watches the beach volley)                        ,"Rue des Catalans, Le Pharo, 7e Arrondissement, Marseille, Bouches-du-Rhône, Provence-Alpes-Côte d'Azur, France métropolitaine, 13007, France",43.2900976,5.3559447
18,/title/tt0073018/,French Connection II,"Cours de Belsunce, Marseille, Bouches-du-Rhône, France",(Jacques enters record shop in the gallery along Rue Bir Hakeim)                        ,"Cours Belsunce, Belsunce, 1er Arrondissement, Marseille, Bouches-du-Rhône, Provence-Alpes-Côte d'Azur, France métropolitaine, 13001, France",43.2979523,5.3767937
19,/title/tt0073018/,French Connection II,"Rue d'Aix, Marseille 1, Marseille, Bouches-du-Rhône, France",(policemen leave the car and enter the small streets)                        ,"Rue d'Aix, Belsunce, 1er Arrondissement, Marseille, Bouches-du-Rhône, Provence-Alpes-Côte d'Azur, France métropolitaine, 13001, France",43.3012886,5.3750527
20,/title/tt0073018/,French Connection II,"Rue Fontaine d'Arménie, Marseille, Bouches-du-Rhône, France","(Doyle follows Charnier, who takes the tram on Rue Colbert)                        ","Rue Fontaine d'Arménie, Belsunce, 1er Arrondissement, Marseille, Bouches-du-Rhône, Provence-Alpes-Côte d'Azur, France métropolitaine, 13001, France",43.2988907,5.3753035
21,/title/tt0073018/,French Connection II,"Avenue De L'Amiral Ganteaume, Cassis, Bouches-du-Rhône, France",(Charnier's house)                        ,"Avenue de l'Amiral Ganteaume, La Grande Bastide, Cassis, Marseille, Bouches-du-Rhône, Provence-Alpes-Côte d'Azur, France métropolitaine, 13260, France",43.2146206,5.5355868
22,/title/tt0073018/,French Connection II,"Rue de la Gaité, Paris 14, Paris, France","(bar Florida where Doyle gets drunk: 9 rue de la Gaité, later named bar Tournesol)                        ","Bobino, 14-20, Rue de la Gaîté, Quartier du Montparnasse, Paris 14e Arrondissement, Paris, Île-de-France, France métropolitaine, 75014, France",48.839865,2.323069
23,/title/tt0073018/,French Connection II,"Palais des Arts - Place Auguste et François Carli, Marseille, Bouches-du-Rhône, France","(police headquarters, where Doyle arrives as policemen search through fish)                        ",,,
24,/title/tt1801045/,Cowboy Ninja Viking,"Vancouver, British Columbia, Canada",,"Vancouver, Metro Vancouver Regional District, British Columbia, Canada",49.2608724,-123.1139529
25,/title/tt4059460/,Hard Night Falling,"Rome, Lazio, Italy",(location)                        ,"Roma Capitale, Lazio, Italia",41.85223935,12.631036615953583
26,/title/tt3804114/,Halo: Nightfall,"Belfast, County Antrim, Northern Ireland, UK",,"Belfast, County Antrim, Northern Ireland, BT1 5GS, United Kingdom",54.5964411,-5.9302761
27,/title/tt3804114/,Halo: Nightfall,"Northern Ireland, UK",,"Northern Ireland, United Kingdom",54.6294982,-6.7654416
28,/title/tt6409762/,Big Legend,"Lewis River Falls- Gifford Pinchot National Forest, Washington State, USA",(Water Falls Scene)                        ,,,
29,/title/tt0896585/,Yeti: Curse of the Snow Demon,"Vancouver, British Columbia, Canada",,"Vancouver, Metro Vancouver Regional District, British Columbia, Canada",49.2608724,-123.1139529
30,/title/tt0082247/,Death Hunt,"Sandia Mountains, New Mexico, USA",,"Sandia Mountains Historical Marker, Tierra Monte Subdivision, Bernalillo County, New Mexico, United States of America",35.2089321,-106.4478015
31,/title/tt0082247/,Death Hunt,"Cibola National Forest, New Mexico, USA",,"Cibola National Forest, Socorro County, New Mexico, United States of America",34.291892649999994,-107.43760816621929
32,/title/tt0082247/,Death Hunt,"Albuquerque, New Mexico, USA",,"Albuquerque, Bernalillo County, New Mexico, United States of America",35.0841034,-106.6509851
33,/title/tt0082247/,Death Hunt,"Alberta, Canada",,"Alberta, Canada",55.001251,-115.002136
34,/title/tt0082247/,Death Hunt,"New Mexico, USA",,"New Mexico, United States of America",34.5708167,-105.993007
35,/title/tt4949290/,Killing Salazar,"Castel Film Studios, Bucharest, Romania",,,,
36,/title/tt4949290/,Killing Salazar,Romania,,România,45.9852129,24.6859225
37,/title/tt3345472/,Kiseijuu,"Osaka, Japan",,"大阪府, 日本 (Japan)",34.6198813,135.490357
38,/title/tt3345472/,Kiseijuu,"Ibaraki, Japan",,"茨城県, 日本 (Japan)",36.2869536,140.4703384
39,/title/tt3345472/,Kiseijuu,"Shizuoka, Japan",,"静岡市, 静岡県, 420-8602, 日本 (Japan)",34.979149,138.38299
40,/title/tt3345472/,Kiseijuu,"Shiga, Japan",,"志賀, 321, 志賀町, 大津市, 滋賀県, 〒520-0528, 日本 (Japan)",35.2018175,135.9245546
41,/title/tt3345472/,Kiseijuu,"Fukuoka City, Fukuoka, Japan",,"福岡市, 福岡県, 日本 (Japan)",33.5898988,130.4017509
42,/title/tt0026174/,Captain Blood,"Three Arch Bay, California, USA",,"Three Arch Bay, Laguna Beach, Orange County, California, 92629, United States of America",33.4908606,-117.7322758
43,/title/tt0026174/,Captain Blood,"Palm Canyon, California, USA",,"Palm Canyon, South Palm Canyon Drive, Palm Springs, Riverside County, California, United States of America",33.7359824,-116.53762944621067
44,/title/tt0026174/,Captain Blood,"Stage 18, Warner Brothers Burbank Studios - 4000 Warner Boulevard, Burbank, California, USA",,,,
45,/title/tt0026174/,Captain Blood,"Stage 12, Warner Brothers Burbank Studios - 4000 Warner Boulevard, Burbank, California, USA",,,,
46,/title/tt0026174/,Captain Blood,"Stage 27, Warner Brothers Burbank Studios - 4000 Warner Boulevard, Burbank, California, USA",,,,
47,/title/tt0026174/,Captain Blood,"Stage 7, Warner Brothers Burbank Studios - 4000 Warner Boulevard, Burbank, California, USA",,,,
48,/title/tt0275947/,Avenging Angelo,"Castellammare del Golfo, Trapani, Sicily, Italy",,"Castellammare del Golfo, Trapani, Sicilia, 91014, Italia",38.018846,12.885837
49,/title/tt0275947/,Avenging Angelo,"New York City, New York, USA",(aerial unit)                        ,"New York, United States of America",40.7127281,-74.0060152
50,/title/tt0109552/,Darkman II: The Return of Durant,"Toronto, Ontario, Canada",,"Toronto, Peel, Golden Horseshoe, Ontario, Canada",43.6534817,-79.3839347
51,/title/tt4146622/,Rampage: President Down,"Ridge Studios, Maple Ridge, British Columbia, Canada",(studio)                        ,,,
52,/title/tt4146622/,Rampage: President Down,Canada,,Canada,61.0666922,-107.9917071
53,/title/tt8332454/,Shooting Heroin,"Clearfield, Pennsylvania, USA",(on location)                        ,"Clearfield County, Pennsylvania, United States of America",40.9908706,-78.4457422
54,/title/tt8332454/,Shooting Heroin,"Morrisdale, Pennsylvania, USA",(on location)                        ,"Morrisdale, Morris Township, Clearfield County, Pennsylvania, 16821, United States of America",40.948946,-78.2252911
55,/title/tt8332454/,Shooting Heroin,"Philipsburg, Pennsylvania, USA",,"Philipsburg, Centre County, Pennsylvania, United States of America",40.8964465,-78.2205688
56,/title/tt4401006/,Eat Locals,"Hertfordshire, England, UK",(on location)                        ,"Hertfordshire, East of England, England, United Kingdom",51.840052299999996,-0.09785519224523963
57,/title/tt2617456/,Superman: Unbound,"Chicago Illinois, USA",(Metropolis)                        ,"Chicago, Cook County, Illinois, United States of America",41.8755616,-87.6244212
58,/title/tt0105636/,Trespass,"Fulton Bag and Cotton Mill, Cabbagetown, Atlanta, Georgia, USA",(the derelict buildings where much of the movie is set)                        ,,,
59,/title/tt0105636/,Trespass,"Tennessee Brewery, 484 Tennessee Street, Memphis, Tennessee, USA",(main interior of balconies and lobby)                        ,"The Tennessee Brewery, 495, Tennessee Street, Cotton Row Historic District, Foote Homes, Memphis, Shelby County, Tennessee, 38103, United States of America",35.1341588,-90.06293350896463
60,/title/tt6437228/,The Wheel,"Melbourne, Victoria, Australia",,"Melbourne, City of Melbourne, Victoria, 3000, Australia",-37.8142176,144.9631608
61,/title/tt0091671/,The Offspring,"Dalton, Georgia, USA",,"Dalton, Whitfield County, Georgia, United States of America",34.7691867,-84.9702475
62,/title/tt1286146/,Full Love,"Bangkok, Thailand",(2008 principal photography)                        ,"กรุงเทพมหานคร, เขตพระนคร, กรุงเทพมหานคร, 10200, ประเทศไทย",13.7542529,100.493087
63,/title/tt1286146/,Full Love,Thailand,(2008 principal photography)                        ,ประเทศไทย,14.8971921,100.83273
64,/title/tt0340477/,Helen of Troy,Malta,,Malta,35.8885993,14.4476911
65,/title/tt0058814/,Honey West,"CBS Studio Center - 4024 Radford Avenue, Studio City, Los Angeles, California, USA",(studio)                        ,,,
66,/title/tt9426290/,Queen Sono,"Nairobi, Kenya",,"Nairobi, Kenya",-1.2832533,36.8172449
67,/title/tt9426290/,Queen Sono,"Lagos, Nigeria",,"Lagos, Lagos Island, Lagos, 100242, Nigeria",6.4550575,3.3941795
68,/title/tt9426290/,Queen Sono,"Harare, Zimbabwe",,"Harare, Harare Province, 04-263, Zimbabwe",-17.831773,31.045686
69,/title/tt0356614/,Foolproof,"Toronto, Ontario, Canada",,"Toronto, Peel, Golden Horseshoe, Ontario, Canada",43.6534817,-79.3839347
70,/title/tt0080707/,The Exterminator,"Indian Dunes - 28700 Henry Mayo Drive, Valencia, California, USA",(Vietnam sequence)                        ,,,
71,/title/tt0292610/,No Good Deed,"Montréal, Québec, Canada",,"Montréal, Agglomération de Montréal, Montréal (06), Québec, Canada",45.4972159,-73.6103642
72,/title/tt0099327/,A Cry in the Wild,"Quincy, California, USA",,"Quincy, Nugget Lane, Cedar Mill, Quincy, Plumas County, California, 95971, United States of America",39.9309945,-120.95357394728885
73,/title/tt4974778/,Feral,"Hollywood, Los Angeles, California, USA",,"Hollywood, Los Angeles, Los Angeles County, California, 90028-8127, United States of America",34.0980031,-118.329523
74,/title/tt0041163/,Battleground,"Fort Lewis, Washington, USA",(tank sequence)                        ,"Fort Lewis, Pierce County, Washington, 98431, United States of America",47.1086912,-122.5549795
75,/title/tt0041163/,Battleground,"California, USA",,"California, United States of America",36.7014631,-118.7559974
76,/title/tt0095241/,Gor,Mauritius,,Mauritius,-20.2759451,57.5703566
77,/title/tt0073600/,Race with the Devil,"San Antonio, Texas, USA",,"San Antonio, Bexar County, Texas, United States of America",29.4246002,-98.4951405
78,/title/tt0073600/,Race with the Devil,"Castroville, Texas, USA",(first town after satanic ritual)                        ,"Castroville, Medina County, Texas, United States of America",29.3565001,-98.8788844
79,/title/tt0073600/,Race with the Devil,"Tarpley, Texas, USA",(Sacrifice Scene)                        ,"Tarpley, Bandera County, Texas, 78883, United States of America",29.6571703,-99.2764299
80,Code,Show Name,Location,Scene,"Location, Tucker County, West Virginia, United States of America",39.2138905,-79.6371124
81,/title/tt1483803/,Stargate: Children of the Gods,"Vancouver, British Columbia, Canada",,"Vancouver, Metro Vancouver Regional District, British Columbia, Canada",49.2608724,-123.1139529
82,/title/tt2904608/,Turks & Caicos,Turks and Caicos Islands,,Turks and Caicos Islands,21.7214683,-71.6201783
83,/title/tt0060121/,Arabesque,"Crumlin Viaduct, Crumlin, Caerphilly, Wales, UK",,"Crumlin Viaduct, Gladstone Road, Crumlin, Caerphilly, Cymru / Wales, NP11 5EP, United Kingdom",51.6804504,-3.1395601
84,/title/tt0060121/,Arabesque,"Gatwick Airport, Crawley, West Sussex, England, UK",,"Gatwick Airport, Station Approach Road, Crawley, West Sussex, South East, England, RH6 0RD, United Kingdom",51.1567237,-0.1610188
85,/title/tt0060121/,Arabesque,"Trafalgar Square, St James's, London, England, UK",,"Trafalgar Square, St. James's, Covent Garden, City of Westminster, London, Greater London, England, WC2, United Kingdom",51.508037,-0.12804941070724718
86,/title/tt0060121/,Arabesque,"Oxford, Oxfordshire, England, UK",,"Oxford, Oxfordshire, South East, England, United Kingdom",51.7520131,-1.2578499
87,/title/tt0060121/,Arabesque,"Waterloo Station, Waterloo, London, England, UK",,"Pure, Waterloo Road, South Bank, Lambeth, London Borough of Lambeth, London, Greater London, England, SE1 7LY, United Kingdom",51.50372505,-0.11370885797203917
88,/title/tt0060121/,Arabesque,"Newport Pagnell, Buckinghamshire, England, UK",(Horse chase)                        ,"Newport Pagnell, Milton Keynes, South East, England, MK16 8AB, United Kingdom",52.0863864,-0.7237341
89,/title/tt0060121/,Arabesque,"Tyringham Hall, Newport Pagnell, Buckinghamshire, England, UK",(Mansion)                        ,,,
90,/title/tt6264938/,Kesari,"Spiti, India",,"Spiti, Lahul and Spiti, Himachal Pradesh, India",32.370901,78.08534855996182
91,/title/tt0040876/,De 3 musketeers,"Corriganville, Ray Corrigan Ranch, Simi Valley, California, USA",,,,
92,/title/tt0040876/,De 3 musketeers,"Rowland V. Lee Ranch - Fallbrook Avenue, Canoga Park, Los Angeles, California, USA",,,,
93,/title/tt0040876/,De 3 musketeers,"European Street, Metro-Goldwyn-Mayer Studios - 10202 W. Washington Blvd., Culver City, California, USA",,,,
94,/title/tt0805668/,Traveler,"Burnaby, British Columbia, Canada",,"Burnaby, Metro Vancouver Regional District, British Columbia, Canada",49.2433804,-122.9725459
95,/title/tt0805668/,Traveler,"Langley Speedway, Langley, British Columbia, Canada",,"Langley Speedway, Deer Trail, Fern Ridge, Township of Langley, Metro Vancouver Regional District, British Columbia, Canada",49.0189694,-122.64878682840862
96,/title/tt0805668/,Traveler,"University of British Columbia, Robson Square Campus - 800 Robson Street, Vancouver, British Columbia, Canada",,,,
97,/title/tt0857376/,Gabriel,"Heddon Greta, New South Wales, Australia",,"Heddon Greta, Cessnock City Council, New South Wales, 2321, Australia",-32.8034947,151.5106161
98,/title/tt0111173/,Shopping,"Trellick Tower, Golborne Road, Notting Hill, London, England, UK",,,,
99,/title/tt0111173/,Shopping,"Lakeside Shopping Centre, Thurrock, Essex, England, UK",(Retailand shopping centre)                        ,,,
100,/title/tt0448114/,Shadow Man,"Bucharest, Romania",,"Municipiul București, România",44.4361414,26.1027202
101,/title/tt0448114/,Shadow Man,"Castel Film Studios, Bucharest, Romania",,,,
102,/title/tt1149361/,Micmacs à tire-larigot,"Meudon, Hauts-de-Seine, France",(orphanage)                        ,"Meudon, Boulogne-Billancourt, Hauts-de-Seine, Île-de-France, France métropolitaine, France",48.8126688,2.2385432
103,/title/tt1149361/,Micmacs à tire-larigot,"Parc des Princes - 24 Rue du Commandant du Guilbaud, Paris 16, Paris, France",(soccer match)                        ,,,
104,/title/tt1149361/,Micmacs à tire-larigot,"Paris Charles de Gaulle Airport, Roissy-en-France, Val-d'Oise, France",,,,
105,/title/tt1149361/,Micmacs à tire-larigot,"Paris, France",,"Paris, Île-de-France, France métropolitaine, France",48.8566969,2.3514616
106,/title/tt1149361/,Micmacs à tire-larigot,"Charenton-le-Pont, Val-de-Marne, France",(human cannonball scene)                        ,"Charenton-le-Pont, Nogent-sur-Marne, Val-de-Marne, Île-de-France, France métropolitaine, 94220, France",48.8198479,2.4159508
107,/title/tt1149361/,Micmacs à tire-larigot,"Colombes, Hauts-de-Seine, France",,"Colombes, Arrondissement de Nanterre, Hauts-de-Seine, Île-de-France, France métropolitaine, 92700, France",48.922788,2.2543577
108,/title/tt1393000/,Wrong Turn at Tahoe,"Spokane, Washington, USA",,"Spokane, Spokane County, Washington, United States of America",47.6579425,-117.4212265
109,/title/tt0063060/,Hellfighters,"Conroe, Texas, USA",,"Conroe, Montgomery County, Texas, United States of America",30.3118769,-95.4560512
110,/title/tt0063060/,Hellfighters,"Gillette, Wyoming, USA",,"Gillette, Campbell County, Wyoming, United States of America",44.290635,-105.501876
111,/title/tt0063060/,Hellfighters,"William P. Hobby Airport - 7800 Airport Boulevard, Houston, Texas, USA",,,,
112,/title/tt0063060/,Hellfighters,"Stage 32, Universal Studios - 100 Universal City Plaza, Universal City, California, USA",,,,
113,/title/tt0063060/,Hellfighters,"Baytown, Texas, USA",(Hotel scene when there is an explosion.)                        ,"Baytown, Harris County, Texas, United States of America",29.7355047,-94.9774274
114,/title/tt10726604/,Nappeun nyeoseogdeul: Deo mubi,"Seoul, South Korea",,"서울, 대한민국",37.5666791,126.9782914
115,/title/tt3465074/,88,"Niagara Falls, Ontario, Canada",,"Niagara Falls, Niagara Region, Golden Horseshoe, Ontario, Canada",43.100983,-79.115295
116,/title/tt5767628/,Kill 'Em All,"Biloxi, Mississippi, USA",,"Biloxi, Harrison County, Mississippi, United States of America",30.374673,-88.84594333482862
117,/title/tt6678874/,Incoming,"Belgrade, Serbia",,"Београд, Град Београд, Централна Србија, 11000, Србија (Serbia)",44.8178131,20.4568974
118,/title/tt2186848/,Landmine Goes Click,Georgia,,"Georgia, United States of America",32.3293809,-83.1137366
119,/title/tt2186848/,Landmine Goes Click,"Birtvisi, Georgia",,"ბირთვისი (Birtvisi), თეთრიწყაროს რაიონი, ქვემო ქართლი, Georgia / საქართველო",41.6069845,44.5399009
120,/title/tt2186848/,Landmine Goes Click,"Sajavakho, Georgia",(interiors)                        ,"საჯავახო, სამტრედიის რაიონი, იმერეთი, Georgia / საქართველო",42.1039789,42.2981833
121,/title/tt3859980/,Mohenjo Daro,Africa,,Africa,11.5024338,17.7578122
122,/title/tt3859980/,Mohenjo Daro,"Bhuj, Gujarat, India",(Bhuj)                        ,"Bhuj, Bhuj Taluka, Kutch District, Gujarat, 370001, India",23.2472446,69.668339
123,/title/tt4943218/,The Worthy,"Bucharest, Romania",,"Municipiul București, România",44.4361414,26.1027202
124,/title/tt3698118/,Gangnam 1970,"Seoul, South Korea",,"서울, 대한민국",37.5666791,126.9782914
125,/title/tt0181836/,The Specials,"California, USA",,"California, United States of America",36.7014631,-118.7559974
126,/title/tt0181836/,The Specials,"Los Angeles, California, USA",,"Los Angeles, Los Angeles County, California, United States of America",34.0536909,-118.2427666
127,/title/tt0181836/,The Specials,"San Pedro, Los Angeles, California, USA",,"San Pedro, Los Angeles, Los Angeles County, California, 90731, United States of America",33.7358518,-118.2922934
128,/title/tt0079336/,The In-Laws,"Englewood, New Jersey, USA",,"Englewood, Bergen County, New Jersey, 07361, United States of America",40.8928771,-73.9726381
129,/title/tt0079336/,The In-Laws,"Santa Catalina Island, Channel Islands, California, USA","(airport scenes, exteriors)                        ",,,
130,/title/tt0079336/,The In-Laws,"Warner Brothers Burbank Studios - 4000 Warner Boulevard, Burbank, California, USA",(studio) (as The Burbank Studios)                        ,,,
131,/title/tt0079336/,The In-Laws,"Los Angeles, California, USA",(Opening scenes with armoured truck)                        ,"Los Angeles, Los Angeles County, California, United States of America",34.0536909,-118.2427666
132,/title/tt1343703/,Brestskaya krepost,"Brest, Belarus",,"Брест, Брестская область, Беларусь",52.093751,23.6851851
133,/title/tt1656192/,Forces spéciales,"Pamir Mountains, Tajikistan",,"Pamir Mountains, Ноҳияи Тавилдара, Ноҳияҳои тобеи ҷумҳурӣ, Tajikistan",38.93,72.02
134,/title/tt1656192/,Forces spéciales,"Dushanbe, Tajikistan",,"Душанбе, Tajikistan",38.5425835,68.81521423589763
135,/title/tt1656192/,Forces spéciales,"Paris, France",,"Paris, Île-de-France, France métropolitaine, France",48.8566969,2.3514616
136,/title/tt0301454/,Inspector Gadget 2,"Queensland University of Technology, Brisbane, Queensland, Australia",,"Queensland University of Technology, Kelvin Grove Road, Kelvin Grove, Brisbane City, Queensland, 4059, Australia",-27.4561036,153.01387368150728
137,/title/tt0301454/,Inspector Gadget 2,"Brisbane, Queensland, Australia",,"Brisbane City, Queensland, Australia",-27.4689682,153.0234991
138,/title/tt0301454/,Inspector Gadget 2,"Kangaroo Point, Brisbane, Queensland, Australia",,"Kangaroo Point, Brisbane City, Queensland, Australia",-27.4736234,153.0364287
139,/title/tt0301454/,Inspector Gadget 2,"Toowong, Brisbane, Queensland, Australia",,"Toowong, Brisbane City, Queensland, 4066, Australia",-27.4857407,152.9915943
140,/title/tt2461132/,Happy New Year,"Atlantis The Palm, Palm Jumeirah, Dubai, United Arab Emirates",,,,
141,/title/tt2461132/,Happy New Year,"Mehboob Studios, Mumbai, Maharashtra, India",,"Mehboob Studio, Mount Carmel Road, Mount Mary, Bandra West, Zone 3, Mumbai, Mumbai Suburban, Maharashtra, 400050, India",19.0524573,72.8247562
142,/title/tt0027623/,Flash Gordon,"Stage 28, Universal Studios - 100 Universal City Plaza, Universal City, California, USA",,,,
143,/title/tt0027623/,Flash Gordon,"Bronson Caves, Bronson Canyon, Griffith Park - 4730 Crystal Springs Drive, Los Angeles, California, USA",,,,
144,/title/tt1641841/,Skin Trade,"Bangkok, Thailand",,"กรุงเทพมหานคร, เขตพระนคร, กรุงเทพมหานคร, 10200, ประเทศไทย",13.7542529,100.493087
145,/title/tt1641841/,Skin Trade,Thailand,,ประเทศไทย,14.8971921,100.83273
146,/title/tt0070825/,De jakhalzen van het westen,"Durango, Mexico",,"Durango, México",24.833333,-104.833333
147,/title/tt0070825/,De jakhalzen van het westen,"Parral, Chihuahua, Mexico",,"Parral, Ciudad Juárez, Juárez, Chihuahua, 32625, México",31.7044778,-106.44261
148,/title/tt0070825/,De jakhalzen van het westen,"Pinacate and Grand Desert of Altar, Sonora, Mexico",,,,
149,/title/tt0070825/,De jakhalzen van het westen,"Otinapa, Durango, Mexico",,"Otinapa, Municipio de Durango, Durango, México",24.0534579,-105.00998
150,/title/tt0070825/,De jakhalzen van het westen,"La Goma, Durango, Mexico",,"La Goma, Lerdo, Durango, México",25.4845015,-103.6885612
151,/title/tt0070825/,De jakhalzen van het westen,"Yuma, Arizona, USA",,"Yuma, Yuma County, Arizona, 85364, United States of America",32.6926588,-114.6276157
152,/title/tt0070825/,De jakhalzen van het westen,"Bavispe River, Sonora, Mexico",,"Bavispe, Sonora, México",30.64958635,-109.07011790903056
153,/title/tt0070825/,De jakhalzen van het westen,"Huachinera, Sonora, Mexico",,"Huachinera, Sonora, México",30.14735625,-108.92071349686547
154,Code,Show Name,Location,Scene,"Location, Tucker County, West Virginia, United States of America",39.2138905,-79.6371124
155,/title/tt0072732/,Brannigan,"RAC Club, Pall Mall, St. James's, London, England, UK",(Larkin goes swimming and is later abducted by Charlie Kane and Drexel)                        ,,,
156,/title/tt0072732/,Brannigan,"Beckton Gasworks, Beckton, London, England, UK",(finale)                        ,,,
157,/title/tt0072732/,Brannigan,"Piccadilly Circus, Piccadilly, London, England, UK",(Charlie Kane and Drexel watch as Fields posts the ransom money)                        ,"Piccadilly Circus, St. James's, Fitzrovia, City of Westminster, London, Greater London, England, SW1Y 4QE, United Kingdom",51.5098192,-0.1345484
158,/title/tt0072732/,Brannigan,"Dorchester Hotel, Park Lane, Mayfair, London, England, UK",(Larkin leaves his hotel and walks through Green Park)                        ,"The Dorchester, 53, Park Lane, Mayfair, City of Westminster, London, Greater London, England, W1K 1QA, United Kingdom",51.5072956,-0.15236344724427384
159,/title/tt0072732/,Brannigan,"St. Pancras Station, St. Pancras, London, England, UK",(Fields changes cars)                        ,"Boots, Pancras Road, London Borough of Camden, London, Greater London, England, N1C 4QL, United Kingdom",51.5327386,-0.1264236
160,/title/tt0072732/,Brannigan,"Tower Bridge, London, England, UK",(car jumps over bridge)                        ,"Tower Bridge, Wapping, London Borough of Tower Hamlets, London, Greater London, England, SE1 2LY, United Kingdom",51.5054985,-0.0753581
161,/title/tt0072732/,Brannigan,"O'Hare International Airport, Chicago, Illinois, USA",,,,
162,/title/tt0072732/,Brannigan,"Battersea, London, England, UK",,"Battersea, London Borough of Wandsworth, London, Greater London, England, SW11 3HW, United Kingdom",51.4707933,-0.172214
163,/title/tt0072732/,Brannigan,"Lambeth, London, England, UK",,"Lambeth, London Borough of Lambeth, London, Greater London, England, SE1 7GD, United Kingdom",51.5013012,-0.117287
164,/title/tt0072732/,Brannigan,"Mayfair, London, England, UK",,"Mayfair, City of Westminster, London, Greater London, England, W1K 3DN, United Kingdom",51.5110872,-0.147058
165,/title/tt0072732/,Brannigan,"Pall Mall, St. James's, London, England, UK",,"Pall Mall, St. James's, Covent Garden, City of Westminster, London, Greater London, England, SW1Y 5AY, United Kingdom",51.5077509,-0.1309304
166,/title/tt0072732/,Brannigan,"Soho, London, England, UK",,"Soho, City of Westminster, London, Greater London, England, United Kingdom",51.5131628,-0.1311754
167,/title/tt0078937/,Captain America,"Universal Studios - 100 Universal City Plaza, Universal City, California, USA",(studio)                        ,,,
168,/title/tt2893780/,Convict,"Parramatta, Sydney, New South Wales, Australia",,"Parramatta, Argyle Street, Parramatta, Sydney, City of Parramatta Council, New South Wales, 2150, Australia",-33.8175113,151.0054009
169,/title/tt2996684/,Animal,"City of Manchester, Connecticut, USA",(Ending Credits)                        ,,,
170,/title/tt2025526/,Choi-jong-byeong-gi hwal,South Korea,,대한민국,36.638392,127.6961188
171,/title/tt2117905/,Lake Placid: The Final Chapter,"Sofia City, Bulgaria",(interview) (Yancy Butler's blog. Robert Englung interview)                        ,"София-град, България",42.65445295,23.331545681917778
172,/title/tt1368116/,Merantau,"Jakarta, Indonesia",,"Daerah Khusus Ibukota Jakarta, Indonesia",-6.1753942,106.827183
173,/title/tt4427800/,Walkaway Joe,"Laplace, Louisiana, USA",(location)                        ,"LaPlace, St. John the Baptist Parish, Louisiana, 70068, United States of America",30.0665907,-90.4800848
174,/title/tt8408218/,The Mercenary,"Paramount Ranch - 2813 Cornell Road, Agoura, California, USA",(Town & other areas of ranch used)                        ,,,
175,/title/tt0062886/,The Devil's Brigade,"Camp Williams National Guard Base, Lehi, Utah, USA",,,,
176,/title/tt0062886/,The Devil's Brigade,"Santa Elia Fiume Rapido, Italy",,,,
177,/title/tt0062886/,The Devil's Brigade,"Jordan River, Lehi, Utah, USA",,"Jordan River, Lehi, Utah County, Utah, 84043, United States of America",40.3790259,-111.9085312
178,/title/tt0114433/,Shootfighter II,"Miami, Florida, USA",,"Miami, Miami-Dade County, Florida, United States of America",25.7742658,-80.1936589
179,/title/tt4587366/,Eliminators,"London, England, UK",,"London, Greater London, England, United Kingdom",51.5073219,-0.1276474
180,/title/tt4587366/,Eliminators,"Smithfield Market, Holborn, London, England, UK",(Externals)                        ,,,
181,/title/tt4587366/,Eliminators,"1 London Bridge Street, London, England, UK",(Social Services offices - internals and externals)                        ,"London Bridge Street, Borough, Southwark, London Borough of Southwark, London, Greater London, England, SE1 9SE, United Kingdom",51.5056805,-0.0888318
182,/title/tt4587366/,Eliminators,"Emirates Royal Docks Station, Royal Victoria Dock, London, England, UK",(Thomas exits the cable car)                        ,,,
183,/title/tt8060774/,L'intervention,"Erfoud, Morocco",,"Erfoud ⴰⵔⴼⵓⴷ أرفود, Pachalik de Arfoud, Province d'Errachidia إقليم الرشيدية, Drâa-Tafilalet ⴷⴰⵔⵄⴰ-ⵜⴰⴼⵉⵍⴰⵍⵜ درعة تافيلالت, 52200, Maroc",31.4324061,-4.2342572
184,/title/tt8060774/,L'intervention,"Essaouira, Morocco",,"Essaouira ⵚⵚⵡⵉⵕⴰ الصويرة, Pachalik d'Essaouira باشوية الصويرة, Province Essaouira ⵍⵉⵇⵍⵉⵎ ⵏ ⵚⵡⵉⵔⴰ إقليم الصويرة‎, Marrakech-Safi ⵎⵕⵕⴰⴽⵛ-ⴰⵙⴼⵉ مراكش-أسفي, 44100, Maroc",31.5118281,-9.7620903
185,/title/tt8060774/,L'intervention,"Kenitra, Morocco",,"Kénitra ⵇⵏⵉⵟⵔⴰ القنيطرة, Pachalik de Kenitra باشوية القنيطرة, Province de Kenitra إقليم القنيطرة, Rabat-Salé-Kénitra ⵔⴱⴰⵟ-ⵙⵍⴰ-ⵇⵏⵉⵟⵔⴰ الرباط-سلا-القنيطرة, 14003, Maroc",34.26457,-6.570169
186,/title/tt0033717/,High Sierra,"Mount Whitney, California, USA",(finale - chase)                        ,"Mount Whitney, Inyo County, California, United States of America",36.5785905,-118.2921377
187,/title/tt0033717/,High Sierra,"Arrowhead Springs Hotel - 24918 Arrowhead Springs Road, San Bernardino, California, USA",,,,
188,/title/tt0033717/,High Sierra,"Big Bear Lake, Big Bear Valley, San Bernardino National Forest, California, USA",,,,
189,/title/tt0033717/,High Sierra,"Lake Arrowhead, San Bernardino National Forest, California, USA",,,,
190,/title/tt0033717/,High Sierra,"Cedar Lake, Big Bear Valley, San Bernardino National Forest, California, USA",,,,
191,/title/tt0033717/,High Sierra,"Stage 21, Warner Brothers Burbank Studios - 4000 Warner Boulevard, Burbank, California, USA",,,,
192,/title/tt0033717/,High Sierra,"Stage 28, Warner Brothers Burbank Studios - 4000 Warner Boulevard, Burbank, California, USA",,,,
193,/title/tt1446147/,Cat Run,"PFI Studios, Belgrade, Serbia",(studio)                        ,,,
194,/title/tt0473024/,Crossover,"Detroit, Michigan, USA",,"Detroit, Wayne County, Michigan, United States of America",42.3315509,-83.0466403
195,/title/tt12906784/,Shark Season,"St. Petersburg, Florida, USA",,"St. Petersburg, Pinellas County, Florida, United States of America",27.7703796,-82.6695085
196,/title/tt0090693/,Band of the Hand,"Miami, Florida, USA",,"Miami, Miami-Dade County, Florida, United States of America",25.7742658,-80.1936589
197,/title/tt0090693/,Band of the Hand,"Everglades, Florida, USA",,"Everglades, Gaylord Way, Osceola County, Florida, 34741, United States of America",28.34378545,-81.52640634031965
198,/title/tt2855648/,Madras Cafe,Sri Lanka,,ශ්‍රී ලංකාව இலங்கை,7.5554942,80.7137847
199,/title/tt2855648/,Madras Cafe,South Africa,,South Africa,-28.8166236,24.991639
200,/title/tt5868826/,La peste,"Coria del Río, Seville, Andalucía, Spain",,"Coria del Río, Sevilla, Andalucía, 41100, España",37.2892112,-6.0535287
201,/title/tt5868826/,La peste,"Garrovillas de Alconétar, Cáceres, Extremadura, Spain",,"Garrovillas de Alconétar, Tajo-Salor, Cáceres, Extremadura, España",39.7131229,-6.5494671
202,/title/tt5868826/,La peste,"Huelva, Huelva, Andalucía, Spain",,"Huelva, Comarca Metropolitana de Huelva, Huelva, Andalucía, España",37.2575874,-6.9484945
203,/title/tt5868826/,La peste,"Carmona, Seville, Andalucía, Spain",,"Carmona, Sevilla, Andalucía, 41410, España",37.4717882,-5.641291
204,/title/tt5868826/,La peste,"Alcalá de Guadaira, Seville, Andalucía, Spain",,"Alcalá de Guadaíra, Sevilla, Andalucía, 41500, España",37.3397709,-5.8408396
205,/title/tt5868826/,La peste,"Mairena del Alcor, Seville, Andalucía, Spain",,"Mairena del Alcor, Sevilla, Andalucía, 41510, España",37.3731974,-5.7474665
206,/title/tt5868826/,La peste,"Cala del Mal Paso, Cuevas del Almanzora, Almería, Andalucía, Spain",(beach scenes)                        ,,,
207,/title/tt5868826/,La peste,"Utrera, Seville, Andalucía, Spain",,"Utrera, Sevilla, Andalucía, 41710, España",37.1824646,-5.7817506
208,/title/tt5868826/,La peste,"Bollullos de la Mitación, Seville, Andalucía, Spain",,"Bollullos de la Mitación, Sevilla, Andalucía, 41110, España",37.3399004,-6.1376821
209,/title/tt5868826/,La peste,"Cuevas del Almanzora, Almería, Andalucía, Spain",,"Cuevas del Almanzora, Almería, Andalucía, España",37.2961366,-1.8807223
210,/title/tt2719784/,Gang Related,"Los Angeles, California, USA",,"Los Angeles, Los Angeles County, California, United States of America",34.0536909,-118.2427666
211,/title/tt5431082/,Underverden,"Gemini Residence, Islands Brygge, Copenhagen, Denmark",(Zaid's apartment)                        ,,,
212,/title/tt5431082/,Underverden,"Copenhagen, Denmark",,"København, Københavns Kommune, Region Hovedstaden, 1357, Danmark",55.6867243,12.5700724
213,/title/tt5431082/,Underverden,"Danske Bank Vesterport, Vesterbro, Copenhagen, Denmark",(bank)                        ,,,
214,/title/tt2599716/,Police Story - Back for Law,"Beijing, China",,"北京市, 东城区, 北京市, 100010, China 中国",39.906217,116.3912757
215,/title/tt6628322/,Shang hai bao lei,"Shanghai, China",(location)                        ,"上海市, China 中国",31.2322758,121.4692071
216,/title/tt0128889/,Pensacola: Wings of Gold,"Marine Corps Air Station Miramar, San Diego, California, USA",,"Marine Corps Air Station Miramar, SD Aqueduct Service Road, SD Aquaduct access point, Tierrasanta, San Diego, San Diego County, California, 92124, United States of America",32.8660243,-117.0929795
217,/title/tt8917542/,La línea invisible,"Artikutza, Goizueta, Guipúzcoa, País Vasco, Spain",,,,
218,/title/tt8917542/,La línea invisible,"Berastegi, Gipuzkoa, Basque Country, Spain",,"Berastegi, Tolosaldea, Gipuzkoa, Euskadi, 20492, España",43.1241497,-1.9791586
219,/title/tt8917542/,La línea invisible,"Bidania, Guipúzcoa, País Vasco, Spain",,"Bidania-Goiatz, Tolosaldea, Gipuzkoa, Euskadi, 20496, España",43.1406008,-2.160723
220,/title/tt8917542/,La línea invisible,"Donostia-San Sebastián, Guipúzcoa, País Vasco, Spain",,"Donostia/San Sebastián, Donostialdea, Gipuzkoa, Euskadi, España",43.3224219,-1.9838889
221,/title/tt8917542/,La línea invisible,"Pasaia, Guipúzcoa, País Vasco, Spain",,"Pasaia, Donostialdea, Gipuzkoa, Euskadi, 20110, España",43.3239952,-1.9200587
222,/title/tt8917542/,La línea invisible,"Deba, Gipuzkoa, Basque Country, Spain",,"Deba, Leintz Gatzaga, Debagoiena, Gipuzkoa, Euskadi, 20530, España",42.9784438,-2.5675689
223,/title/tt8917542/,La línea invisible,"Irun, Gipuzkoa, Basque Country, Spain",,"Irun, Bidasoa Beherea / Bajo Bidasoa, Gipuzkoa, Euskadi, España",43.3383176,-1.7888095
224,/title/tt8917542/,La línea invisible,"Lumbier, Navarra, Spain",,"Lumbier, Navarra - Nafarroa, 31440, España",42.64971235,-1.2623511604614372
225,/title/tt8917542/,La línea invisible,"Elorrio, Vizcaya, País Vasco, Spain",,"Elorrio, Durangaldea, Bizkaia, Euskadi, 48230, España",43.1304644,-2.5426453
226,/title/tt8917542/,La línea invisible,"Oiartzun, Guipúzcoa, País Vasco, Spain",,"Oiartzun, Donostialdea, Gipuzkoa, Euskadi, 20180, España",43.2984861,-1.8596587
227,/title/tt8917542/,La línea invisible,"Leitza, Navarra, Spain",,"Leitza, Navarra - Nafarroa, 31880, España",43.0806959,-1.9163064
228,/title/tt8917542/,La línea invisible,"Beizama, Gipuzkoa, Basque Country, Spain",,"Beizama, Urola-Kosta, Gipuzkoa, Euskadi, 20739, España",43.1340799,-2.2005399
229,/title/tt8917542/,La línea invisible,"Usurbil, Gipuzkoa, Basque Country, Spain",,"Usurbil, Donostialdea, Gipuzkoa, Euskadi, 20170, España",43.2703088,-2.0502559
230,/title/tt8917542/,La línea invisible,"Tolosa, Guipúzcoa, País Vasco, Spain",,"Tolosa, Tolosaldea, Gipuzkoa, Euskadi, 20400, España",43.1386097,-2.0723558
231,/title/tt0094764/,The Salute of the Jugger,"Coober Pedy, South Australia, Australia",(and environs)                        ,"The District Council of Coober Pedy, South Australia, Australia",-29.01639205,134.75696701291264
232,/title/tt0094764/,The Salute of the Jugger,"The Breakaways, Coober Pedy, South Australia, Australia",(Juggers travel across the desert)                        ,"Breakaways Lookout, Coober Pedy, Pastoral Unincorporated Area, South Australia, 5723, Australia",-28.8459656,134.7075485
233,/title/tt0094764/,The Salute of the Jugger,"Outback, South Australia, Australia",,"The Outback Highway, Lyndhurst, Pastoral Unincorporated Area, South Australia, 5731, Australia",-30.2876384,138.3494104
234,/title/tt0094764/,The Salute of the Jugger,"Central Australia, Australia",,Australia,-24.7761086,134.755
235,/title/tt0094764/,The Salute of the Jugger,"Lunar Plains, Coober Pedy, South Australia, Australia",,,,
236,/title/tt5559528/,Maanagaram,"Chennai, Tamil Nadu, India",,"சென்னை - Chennai, சென்னை மாவட்டம், Tamil Nadu, India",13.0801721,80.2838331
237,/title/tt0120317/,That Darn Cat,"Augusta, Georgia, USA",,"Augusta, Richmond County, Georgia, United States of America",33.4709714,-81.9748429
238,/title/tt0120317/,That Darn Cat,"Aiken, South Carolina, USA",,"Aiken, Aiken County, South Carolina, United States of America",33.5598586,-81.721952
239,/title/tt0120317/,That Darn Cat,"North Augusta, South Carolina, USA",,"North Augusta, Aiken County, South Carolina, 29841, United States of America",33.520849999999996,-81.96696923114902
240,/title/tt0118436/,Power Rangers Turbo,"Brandeis-Bardin Institute - 1101 Pepper Tree Lane, Simi Valley, California, USA","(Command Center, exteriors)                        ",,,
241,/title/tt0118436/,Power Rangers Turbo,"Los Angeles, California, USA",,"Los Angeles, Los Angeles County, California, United States of America",34.0536909,-118.2427666
242,/title/tt0118436/,Power Rangers Turbo,"Valencia, California, USA",,"Valencia, Santa Clarita, Los Angeles County, California, 91355, United States of America",34.413819,-118.5610378
243,Code,Show Name,Location,Scene,"Location, Tucker County, West Virginia, United States of America",39.2138905,-79.6371124
244,/title/tt0101226/,Sweating Bullets,"Pretoria, South Africa",,"Pretoria, City of Tshwane Metropolitan Municipality, Gauteng, 0001, South Africa",-25.7459374,28.1879444
245,/title/tt0101226/,Sweating Bullets,"Maritim Hotel, Mauritius",,"Maritim Hotel, B41, Morcellement Balaclava, Pamplemousses, 21731, Mauritius",-20.0868167,57.5166453
246,/title/tt0101226/,Sweating Bullets,"Toronto, Ontario, Canada",(Various Locations)                        ,"Toronto, Peel, Golden Horseshoe, Ontario, Canada",43.6534817,-79.3839347
247,/title/tt0089847/,The Protector,"Hong Kong, China",,"香港島 Hong Kong Island, 香港 Hong Kong, China 中国",22.2793278,114.1628131
248,/title/tt0361192/,Hunter,"San Diego, California, USA",,"San Diego, San Diego County, California, United States of America",32.7174209,-117.1627714
249,/title/tt0312189/,Power Rangers Ninja Storm,"Sacred Heart College, Lower Hutt, Wellington, New Zealand",,"Sacred Heart College, 65, Laings Road, Woburn, Lower Hutt, Lower Hutt City, Wellington, 5010, New Zealand",-41.214557600000006,174.906874810428
250,/title/tt6846128/,Empire of the Sharks,"Hout Bay, Western Cape, South Africa",,"Hout Bay, City of Cape Town, Western Cape, South Africa",-34.043093,18.355645
251,/title/tt6846128/,Empire of the Sharks,South Africa,(Cape Town)                        ,South Africa,-28.8166236,24.991639
252,/title/tt0079882/,Seven,"Honolulu, Hawaii, USA",(additional location)                        ,"Honolulu, Honolulu County, Hawaii, United States of America",21.304547,-157.8556764
253,/title/tt0079882/,Seven,"Kauai, Hawaii, USA",(additional location)                        ,"Kauaʻi, Kauaʻi County, Hawaii, United States of America",22.050466550000003,-159.55876775017003
254,/title/tt0079882/,Seven,"Westwood, California, USA",(Orange Julius)                        ,"Westwood, Los Angeles, Los Angeles County, California, 90024-3990, United States of America",34.0561207,-118.4306347
255,/title/tt0079882/,Seven,"Hawaii, USA",,"Hawaii, United States of America",19.58726775,-155.42688965312746
256,/title/tt0906665/,Sukiyaki Western Django,"Tsuruoka City, Yamagata, Japan",,"鶴岡市, 山形県, 日本 (Japan)",38.7272187,139.8266292
257,/title/tt2083379/,A Dark Truth,Dominican Republic,,República Dominicana,19.0974031,-70.3028026
258,/title/tt2083379/,A Dark Truth,"Yonge Street, Toronto, Ontario, Canada",(street scenes)                        ,"Yonge Street, Don Valley West, North York, Toronto, Peel, Golden Horseshoe, Ontario, M2P 2E3, Canada",43.7468505,-79.4072633
259,/title/tt2083379/,A Dark Truth,"Dundas Street, Toronto, Ontario, Canada",(street scenes)                        ,"Dundas Street, Yonge Street, Toronto Centre, Old Toronto, Toronto, Peel, Golden Horseshoe, Ontario, M5B 1R8, Canada",43.6565404,-79.3810812
260,/title/tt2083379/,A Dark Truth,"Elm Street, Sudbury, Ontario, Canada",(street scenes)                        ,"Elm Street, Greater Sudbury, Sudbury District, Northeastern Ontario, Ontario, P0M 1H0, Canada",46.7022141,-80.9104869
261,/title/tt0104073/,Deep Cover,"Los Angeles, California, USA",,"Los Angeles, Los Angeles County, California, United States of America",34.0536909,-118.2427666
262,/title/tt0409904/,Day Watch,"Kiev, Ukraine",,"Київ, Україна",50.4500336,30.5241361
263,/title/tt0409904/,Day Watch,Kazakhstan,,Қазақстан,47.2286086,65.2093197
264,/title/tt0409904/,Day Watch,Russia,,Россия,64.6863136,97.7453061
265,/title/tt0409904/,Day Watch,"Almaty, Kazakhstan",,"Алматы, Бостандыкский район, Алматы, 050013, Kazakhstan",43.2363924,76.9457275
266,/title/tt0409904/,Day Watch,"Politekhnicheskaya Metro Station, St. Petersburg, Russia",(subway scene)                        ,,,
267,/title/tt0110093/,I Love Trouble,"Madison, Wisconsin, USA",,"Madison, Dane, Wisconsin, United States of America",43.074761,-89.3837613
268,/title/tt0110093/,I Love Trouble,"Chicago, Illinois, USA",,"Chicago, Cook County, Illinois, United States of America",41.8755616,-87.6244212
269,/title/tt0110093/,I Love Trouble,"Uptown Theatre - 4814-4816 N. Broadway Avenue, Uptown, Chicago, Illinois, USA",,,,
270,/title/tt0086798/,Shaka Zulu,South Africa,,South Africa,-28.8166236,24.991639
271,/title/tt6839538/,Juda,Israel,,ישראל,31.5313113,34.8667654
272,/title/tt0094516/,My Secret Identity,"Toronto, Ontario, Canada",,"Toronto, Peel, Golden Horseshoe, Ontario, Canada",43.6534817,-79.3839347
273,/title/tt0102293/,Lik wong,"Hong Kong, China",,"香港島 Hong Kong Island, 香港 Hong Kong, China 中国",22.2793278,114.1628131
274,/title/tt5464234/,Kill Switch,"Dam, Amsterdam, Netherlands",,"Dam, Centrum, Amsterdam, Noord-Holland, Nederland, 1012NP, Nederland",52.37324315,4.892514790930079
275,/title/tt5464234/,Kill Switch,"Blauwbrug, Amsterdam, Netherlands",,"Blauwbrug, Centrum, Amsterdam, Noord-Holland, Nederland, 1017AH, Nederland",52.36635955,4.9008807174749744
276,/title/tt5464234/,Kill Switch,"Vrije Universiteit, Amsterdam, Netherlands",,"Vrije Universiteit, Campusplein, Zuidas Knowledge District, Amsterdam, Noord-Holland, Nederland",52.33396225,4.865196500737312
277,/title/tt5464234/,Kill Switch,"Madurastraat, Amsterdam, Netherlands",,"Madurastraat, Indische Buurt, Amsterdam, Noord-Holland, Nederland, 1094GR, Nederland",52.3643217,4.9353121
278,/title/tt5464234/,Kill Switch,"Rietlandpark, Amsterdam, Netherlands",,"Rietlandpark, Oostelijk Havengebied, Amsterdam, Noord-Holland, Nederland",52.37317045,4.934994273432611
279,/title/tt5464234/,Kill Switch,"Haringbuisdijk, IJburg, Amsterdam, The Netherlands",,"Haringbuisdijk, IJburg, Amsterdam, Noord-Holland, Nederland, 1086ZJ, Nederland",52.3638134,4.9825168
280,/title/tt0159193/,Shin kidô senki Gundam W,"Lompoc, California, USA",,"Lompoc, Santa Barbara County, California, 93436, United States of America",34.6391501,-120.4579409
281,/title/tt0071866/,Mr. Majestyk,"La Junta, Colorado, USA",,"La Junta, Otero County, Colorado, 81050, United States of America",37.9850091,-103.5438321
282,/title/tt0071866/,Mr. Majestyk,"Rocky Ford, Colorado, USA",,"Rocky Ford, Otero County, Colorado, 81067, United States of America",38.052508,-103.7202274
283,/title/tt0071866/,Mr. Majestyk,"Canon City, Colorado, USA",,"Cañon City, Fremont County, Colorado, 81212, United States of America",38.4423644,-105.2224947
284,/title/tt0287871/,Power Rangers Wild Force,"Los Angeles, California, USA",,"Los Angeles, Los Angeles County, California, United States of America",34.0536909,-118.2427666
285,/title/tt0098369/,Speed Zone,"Montréal, Québec, Canada",,"Montréal, Agglomération de Montréal, Montréal (06), Québec, Canada",45.4972159,-73.6103642
286,/title/tt0098369/,Speed Zone,"Tucson, Arizona, USA",(the Bakersfield roadblock scene)                        ,"Tucson, Pima County, Arizona, United States of America",32.2228765,-110.9748477
287,/title/tt0098369/,Speed Zone,"Lachute, Québec, Canada","(Exterior, Hotel)                        ","Lachute, Argenteuil, Laurentides, Québec, Canada",45.6560478,-74.3401388
288,/title/tt10230502/,La Unidad,"A Coruña, A Coruña, Galicia, Spain",,"A Coruña, Galicia / Galiza, 15001, España",43.3712091,-8.3958768
289,/title/tt10230502/,La Unidad,"Vigo, Pontevedra, Galicia, Spain",,"Vigo, Pontevedra, Galicia / Galiza, 36203, España",42.2376602,-8.7247205
290,/title/tt10230502/,La Unidad,"Sanxenxo, Pontevedra, Galicia, Spain",,"Sanxenxo, O Salnés, Pontevedra, Galicia / Galiza, España",42.4214886,-8.8301082
291,/title/tt10230502/,La Unidad,"Melilla, Spain",,"Melilla, 52001, España",35.2919028,-2.9407146
292,/title/tt10230502/,La Unidad,"La Jonquera, Girona, Catalonia, Spain",,"la Jonquera, Alt Empordà, Girona, Catalunya, España",42.4207991,2.8728485
293,/title/tt10230502/,La Unidad,"Benalmádena, Málaga, Andalucía, Spain",,"Benalmádena, Costa del Sol Occidental, Málaga, Andalucía, España",36.594519,-4.572284
294,/title/tt10230502/,La Unidad,"Perpignan, Pyrénées-Orientales, France",,"Perpignan, Pyrénées-Orientales, Occitanie, France métropolitaine, France",42.6985304,2.8953121
295,/title/tt1362058/,Cockneys vs Zombies,"Leven Road, Poplar, London, England, UK",(street scenes)                        ,"Leven Road, Blackwall, London Borough of Tower Hamlets, London, Greater London, England, E14 0GQ, United Kingdom",51.5149193,-0.0032539
296,/title/tt1362058/,Cockneys vs Zombies,"East London, London, England, UK",(additional location)                        ,"E, Bombay Street, South Bermondsey, Bermondsey, London Borough of Southwark, London, Greater London, England, SE16, United Kingdom",51.49364075,-0.061909112071185685
297,/title/tt0077864/,Lo chiamavano Bulldozer,"Marina di Pisa, Pisa, Tuscany, Italy",,"Marina di Pisa, Pisa, Toscana, 56128, Italia",43.6724218,10.2727668
298,/title/tt0120724/,Knock Off,"Hong Kong, China",,"香港島 Hong Kong Island, 香港 Hong Kong, China 中国",22.2793278,114.1628131
299,/title/tt0422091/,Dhoom,"Navi Mumbai, Maharashtra, India",,"Navi Mumbai, Thane, Maharashtra, 400706, India",19.0308262,73.0198537
300,/title/tt0422091/,Dhoom,"Bandra Lake, Bandra, Mumbai, Maharashtra, India",,"Bandra, Gurunanak Marg (Turner Road), Bandra West, Zone 3, Mumbai, Mumbai Suburban, Maharashtra, 40051, India",19.0549792,72.8402203
301,/title/tt0422091/,Dhoom,"Film City, Goregaon, Mumbai, Maharashtra, India",,"Dadasaheb Phalke Chitranagari, Goregaon Mulund Link Road, T Ward, Zone 6, Mumbai, Mumbai Suburban, Maharashtra, 400082, India",19.1587785,72.89173887052404
302,/title/tt0422091/,Dhoom,"Marine Drive, Mumbai, Maharashtra, India",,"Marine Drive, D Ward, Zone 1, Mumbai, Mumbai City, Maharashtra, 400020, India",18.9414868,72.8238464
303,/title/tt0770806/,The Contractor,"Sofia, Bulgaria",,"София, Столична, София-град, България",42.6978634,23.3221789
304,/title/tt0770806/,The Contractor,Bulgaria,,Бългaрия,42.6073975,25.4856617
305,/title/tt0084750/,Sword of the Valiant: The Legend of Sir Gawain and the Green Knight,"St Michael's Mount, Mount's Bay, Cornwall, England, UK",(King Arthur's Castle exteriors)                        ,,,
306,/title/tt0084750/,Sword of the Valiant: The Legend of Sir Gawain and the Green Knight,"Roche Rock, Roche, Cornwall, England, UK",(hermit's chapel)                        ,"Roche Rock, St Michaels Way, Roche, Cornwall, South West England, England, PL26 8FG, United Kingdom",50.4021681,-4.828291
307,/title/tt0084750/,Sword of the Valiant: The Legend of Sir Gawain and the Green Knight,"Cardiff Castle, Cardiff, South Glamorgan, Wales, UK",(King Arthur's Castle exteriors close-up)                        ,,,
308,/title/tt0084750/,Sword of the Valiant: The Legend of Sir Gawain and the Green Knight,"Château de Pierrefonds, Pierrefonds, Oise, France",(Lyonesse)                        ,"Château de Pierrefonds, Rue Viollet le Duc, Saint-Ladre, PierreFonds, Compiègne, Oise, Hauts-de-France, France métropolitaine, 60350, France",49.34696735,2.9797367135535255
309,/title/tt0084750/,Sword of the Valiant: The Legend of Sir Gawain and the Green Knight,Ireland,,Éire / Ireland,52.865196,-7.9794599
310,/title/tt7520568/,The Hyperions,"Santa Clarita, California, USA",,"Santa Clarita, Los Angeles County, California, United States of America",34.3916641,-118.542586
311,/title/tt0110200/,Jing wu ying xiong,"Hong Kong, China",,"香港島 Hong Kong Island, 香港 Hong Kong, China 中国",22.2793278,114.1628131
312,/title/tt0105824/,Wind,"The Elms, 367 Bellevue Avenue, Newport, Rhode Island, USA",(Morgan Weld's mansion)                        ,,,
313,/title/tt0105824/,Wind,"Green River, Utah, USA",,"Green River, Emery County, Utah, 84525, United States of America",38.9952294,-110.161725
314,/title/tt0105824/,Wind,"Newport, Rhode Island, USA",,"Newport, Newport County, Rhode Island, 02840, United States of America",41.4899827,-71.3137707
315,/title/tt0105824/,Wind,"Wendover, Nevada, USA",,"Wendover, Tooele County, Utah, 84083, United States of America",40.7374014,-114.0304541
316,/title/tt0763840/,Home of the Brave,Morocco,,Maroc / ⵍⵎⵖⵔⵉⴱ / المغرب,31.1728205,-7.3362482
317,/title/tt3305308/,Trespass Against Us,"Livingstone Walk & Crawley Drive Subway, Grovehill",(Yellow Car Chase)                        ,,,
318,/title/tt3305308/,Trespass Against Us,Highfield 14,(yellow Car Chase)                        ,"Highfield, Pollington, East Riding of Yorkshire, Yorkshire and the Humber, England, DN14 0AY, United Kingdom",53.6790123,-1.0684781
319,/title/tt2969656/,Gam-si-ja-deul,"Seoul, South Korea",,"서울, 대한민국",37.5666791,126.9782914
320,Code,Show Name,Location,Scene,"Location, Tucker County, West Virginia, United States of America",39.2138905,-79.6371124
321,/title/tt9203190/,Skyfire,Malaysia,,Malaysia,4.5693754,102.2656823
322,/title/tt0066830/,The Big Doll House,Philippines,,Philippines,12.7503486,122.7312101
323,/title/tt0442674/,The Godfather,"Brooklyn, New York City, New York, USA",,"Brooklyn, Kings County, New York, United States of America",40.6501038,-73.9495823
324,/title/tt0442674/,The Godfather,"Little Italy, Manhattan, New York City, New York, USA",,"Little Italy, Manhattan Community Board 2, Manhattan, New York County, New York, 10012-3332, United States of America",40.7192728,-73.9982152
325,/title/tt0442674/,The Godfather,"Midtown, Manhattan, New York City, New York, USA",,"Midtown, Manhattan Community Board 5, Manhattan, New York County, New York, United States of America",40.7601085,-73.97816329087175
326,/title/tt0442674/,The Godfather,"New York City, New York, USA",,"New York, United States of America",40.7127281,-74.0060152
327,/title/tt0068408/,Conquest of the Planet of the Apes,"University of California, Irvine, California, USA",(city exteriors)                        ,"University of California, Irvine, California Avenue, University of California, Irvine, Irvine, Orange County, California, 92612, United States of America",33.6431901,-117.84016493553044
328,/title/tt0068408/,Conquest of the Planet of the Apes,"Westfield Century City - 10250 Santa Monica Blvd, Los Angeles, California, USA",,"Westfield Century City, 10250, Santa Monica Boulevard, Century City, Los Angeles, Los Angeles County, California, 90067, United States of America",34.058752600000005,-118.41920410027791
329,/title/tt0126816/,Blackjack,"Toronto, Ontario, Canada",,"Toronto, Peel, Golden Horseshoe, Ontario, Canada",43.6534817,-79.3839347
330,/title/tt0086058/,The Osterman Weekend,"Toronto, Ontario, Canada",,"Toronto, Peel, Golden Horseshoe, Ontario, Canada",43.6534817,-79.3839347
331,/title/tt0086058/,The Osterman Weekend,"New York, USA",,"New York, United States of America",40.7127281,-74.0060152
332,/title/tt1815708/,Freelancers,"New York City, New York, USA",,"New York, United States of America",40.7127281,-74.0060152
333,/title/tt1815708/,Freelancers,"Crosby St, Manhattan, New York City, New York, USA",(street scenes)                        ,"Crosby Street, NoHo, Manhattan Community Board 2, Manhattan, New York County, New York, 10012, United States of America",40.7251668,-73.9959002
334,/title/tt1815708/,Freelancers,"Manhattan Ave & Freeman St, Brooklyn, New York City, New York, USA",(street scenes)                        ,,,
335,/title/tt1815708/,Freelancers,"Guy R Brewer Blvd, Queens, New York City, New York, USA",(street scenes)                        ,"Guy R. Brewer Boulevard, Queens, Queens County, New York, 11434, United States of America",40.6784491,-73.7795602
336,/title/tt1815708/,Freelancers,"Hillside Ave, Queens, New York City, New York, USA",(street scenes)                        ,"Hillside Avenue, Queens, Queens County, New York, 11427, United States of America",40.71544,-73.772637
337,/title/tt1815708/,Freelancers,"South Rd & 160th St, Queens, New York City, New York, USA",(street scenes)                        ,,,
338,/title/tt1815708/,Freelancers,"949 Destrehan Avenue, Harvey, Louisiana, USA",,"949, Destrehan Avenue, Garden District, Harvey, Jefferson Parish, Louisiana, 70058, United States of America",29.898775595959595,-90.08129871717172
339,/title/tt0091069/,Fortress,"Bairnsdale, Victoria, Australia",,"Bairnsdale, Shire of East Gippsland, Victoria, 3875, Australia",-37.8254509,147.6304752
340,/title/tt0091069/,Fortress,"Victoria, Australia",,"Victoria, Australia",-36.5986096,144.6780052
341,/title/tt5648036/,Ji zhi zhui ji,"Shanghai, China",(location)                        ,"上海市, China 中国",31.2322758,121.4692071
342,/title/tt3169770/,El desconocido,"Plaza de Vigo, A Coruña, Galicia, Spain",(Police Helicopter scene)                        ,"Praza de Vigo, Santa Lucía, Juan Flórez, A Coruña, Galicia / Galiza, España",43.36262635,-8.406769141525482
343,/title/tt3169770/,El desconocido,"Rúa Emilia Pardo Bazán, 24 A Coruña, Galicia, Spain",(Square surrounded by police)                        ,"24, Rúa Emilia Pardo Bazán, Santa Lucía, Juan Flórez, A Coruña, Galicia / Galiza, 15005, España",43.3624916,-8.4071568
344,/title/tt0403016/,Supercross,"San Bernardino, California, USA",(Glen Helen Regional Park)                        ,"San Bernardino County, California, United States of America",34.8253019,-116.0833144
345,/title/tt0403016/,Supercross,"Las Vegas, Nevada, USA",,"Las Vegas, Clark County, Nevada, United States of America",36.1672559,-115.1485163
346,/title/tt3292154/,Sharktopus vs. Whalewolf,"Santo Domingo, Dominican Republic",,"Santo Domingo de Guzmán, Distrito Nacional, República Dominicana",18.4801972,-69.942111
347,/title/tt0498318/,Aquaman,"Homestead, Florida, USA",,"Homestead, Miami-Dade County, Florida, 33030, United States of America",25.4718946,-80.4759905
348,/title/tt0498318/,Aquaman,"Coconut Grove, Miami, Florida, USA",,"Coconut Grove, 2880, Southwest 28th Lane, Dinner Key, Ocean View Heights, Miami, Miami-Dade County, Florida, 33133, United States of America",25.7398164,-80.2388468
349,/title/tt0117880/,T2 3-D: Battle Across Time,"Ren-Mar Studios - 846 N. Cahuenga Blvd., Hollywood, Los Angeles, California, USA",,,,
350,/title/tt1867093/,The Samaritan,"Toronto, Ontario, Canada",,"Toronto, Peel, Golden Horseshoe, Ontario, Canada",43.6534817,-79.3839347
351,/title/tt0081568/,The Stunt Man,"Hotel del Coronado - 1500 Orange Avenue, Coronado, California, USA",,"Hotel Del Coronado, 1500, Orange Avenue, Coronado, San Diego County, California, 92118, United States of America",32.68089575,-117.17779096849321
352,/title/tt0081568/,The Stunt Man,"Flynn Springs, California, USA",,"Flynn Springs County Park, 14787, Flinn Springs, San Diego County, California, 92021, United States of America",32.8478104,-116.8607669663471
353,/title/tt0081568/,The Stunt Man,"Sacramento, California, USA",,"Sacramento, Sacramento County, California, United States of America",38.5815719,-121.4943996
354,/title/tt0081568/,The Stunt Man,"Montréal, Québec, Canada",,"Montréal, Agglomération de Montréal, Montréal (06), Québec, Canada",45.4972159,-73.6103642
355,/title/tt2182384/,Injustice: Gods Among Us,"Chicago, Illinois, USA",,"Chicago, Cook County, Illinois, United States of America",41.8755616,-87.6244212
356,/title/tt1123373/,Di renjie: Tong tian di guo,"Beijing, China",,"北京市, 东城区, 北京市, 100010, China 中国",39.906217,116.3912757
357,/title/tt1123373/,Di renjie: Tong tian di guo,"Hangzhou, Zhejiang, China",,"杭州市, 江干区, 浙江省, China 中国",30.2489634,120.2052342
358,/title/tt1123373/,Di renjie: Tong tian di guo,"Hong Kong, China",,"香港島 Hong Kong Island, 香港 Hong Kong, China 中国",22.2793278,114.1628131
359,/title/tt0069697/,"Watch Out, We're Mad","Madrid, Spain",,"Madrid, Área metropolitana de Madrid y Corredor del Henares, Comunidad de Madrid, 28001, España",40.4167047,-3.7035825
360,/title/tt0069697/,"Watch Out, We're Mad","Puente de Toledo, Madrid, Spain",(Ben's Workshop)                        ,"Puente de Toledo, Imperial, Arganzuela, Madrid, Área metropolitana de Madrid y Corredor del Henares, Comunidad de Madrid, 28001, España",40.4005015,-3.7145486
361,/title/tt0069697/,"Watch Out, We're Mad","Chiari, Brescia, Italy",,"Chiari, Brescia, Lombardia, 25032, Italia",45.5364624,9.928846
362,/title/tt0095867/,Picasso Trigger,"Los Angeles, California, USA",,"Los Angeles, Los Angeles County, California, United States of America",34.0536909,-118.2427666
363,/title/tt0095867/,Picasso Trigger,"Uncertain, Texas, USA",,"Uncertain, Harrison County, Texas, United States of America",32.7120883,-94.1212966
364,/title/tt0095867/,Picasso Trigger,"Hawaii, USA",,"Hawaii, United States of America",19.58726775,-155.42688965312746
365,/title/tt0095867/,Picasso Trigger,"Lahaina, Maui, Hawaii, USA",,"Lahaina, Maui County, Hawaii, United States of America",20.8738769,-156.6776784
366,/title/tt0095867/,Picasso Trigger,"Moloka`i, Hawaii, USA",,"Molokaʻi, Maui County, Hawaii, United States of America",21.1344895,-157.00715388513936
367,/title/tt0095867/,Picasso Trigger,"Paris, France",,"Paris, Île-de-France, France métropolitaine, France",48.8566969,2.3514616
368,/title/tt5610626/,Dragonheart: Battle for the Heartfire,"Corvin Castle, Hunedoara, Romania",(aka Corvin Castle)                        ,"Muzeul Castelul Corvinilor, 1-3, Strada Castelului, Centrul Vechi, Hunedoara, 331141, România",45.749141,22.888279
369,/title/tt5610626/,Dragonheart: Battle for the Heartfire,"Castel Film Studios, Bucharest, Romania",(studio)                        ,,,
370,/title/tt0059263/,The Heroes of Telemark,"Poole Harbour, Poole, Dorset, England, UK",(Harbour)                        ,"Brownsea Island, Dorset, South West England, England, BH13 7EE, United Kingdom",50.69172365,-1.9718675094581082
371,/title/tt0059263/,The Heroes of Telemark,"Rjukan, Telemark, Norway",,"Rjukan, Tinn, Vestfold og Telemark, 3660, Norge",59.8786889,8.5941727
372,/title/tt0059263/,The Heroes of Telemark,"Tinnsjø, Norway",,"Tinnsjø, Tuddalsvegen, Bjår, Hvåle, Tuddal, Hjartdal, Vestfold og Telemark, 3697, Norge",59.857130999999995,8.955775925000005
373,/title/tt0059263/,The Heroes of Telemark,"Pinewood Studios, Iver Heath, Buckinghamshire, England, UK",(studio) (studio: made at)                        ,"Pinewood Studios, Pinewood Green, Iver, Iver Heath, Buckinghamshire, South East, England, SL0 0QJ, United Kingdom",51.54831515,-0.5346765566753087
374,/title/tt7374952/,El Chicano,"JR Studio, 2607 10 Ave NE, Calgary, AB T2A 2M3, Canada",,,,
375,/title/tt7374952/,El Chicano,Canada,,Canada,61.0666922,-107.9917071
376,/title/tt7374952/,El Chicano,"Chicago Illinois, USA",,"Chicago, Cook County, Illinois, United States of America",41.8755616,-87.6244212
377,/title/tt5956100/,Tiger Zinda Hai,"Naxos, Greece",,"Νάξος, Δήμος Νάξου και Μικρών Κυκλάδων, Περιφερειακή Ενότητα Νάξου, Περιφέρεια Νοτίου Αιγαίου, Αποκεντρωμένη Διοίκηση Αιγαίου, Ελλάδα",37.06001045,25.47075670857837
378,/title/tt5956100/,Tiger Zinda Hai,"Innsbruck, Tyrol, Austria",(Dil Diyan Gallan Song)                        ,"Innsbruck, Tirol, Österreich",47.2654296,11.3927685
379,/title/tt5956100/,Tiger Zinda Hai,"Hall in Tirol, Tirol, Austria",,"Hall in Tirol, Bezirk Innsbruck-Land, Tirol, 6060, Österreich",47.2816648,11.5075337
380,/title/tt0093771/,A Prayer for the Dying,"Canning Town, London, England, UK",(St Lukes Church)                        ,"Canning Town, Silvertown Way, Canning Town, London Borough of Newham, London, Greater London, England, E16 1YD, United Kingdom",51.5139887,0.0082987
381,/title/tt0093771/,A Prayer for the Dying,"London, England, UK",,"London, Greater London, England, United Kingdom",51.5073219,-0.1276474
382,/title/tt0315064/,She Spies,"Los Angeles, California, USA",,"Los Angeles, Los Angeles County, California, United States of America",34.0536909,-118.2427666
383,/title/tt0315064/,She Spies,"Newport Center, Newport Beach, California, USA",,"Newport Center, Newport Beach, Orange County, California, 62660, United States of America",33.6161794,-117.8753278
384,/title/tt0101412/,Beastmaster 2: Through the Portal of Time,"Glen Canyon, Arizona, USA",,"Glen Canyon, South Lake Powell Boulevard, Page, Coconino County, Arizona, 86040-0418, United States of America",36.8796091,-111.5342184
385,/title/tt0101412/,Beastmaster 2: Through the Portal of Time,"Page, Arizona, USA",,"Page, Coconino County, Arizona, 86040-0418, United States of America",36.9148305,-111.4572942
386,/title/tt0101412/,Beastmaster 2: Through the Portal of Time,"Los Angeles, California, USA",,"Los Angeles, Los Angeles County, California, United States of America",34.0536909,-118.2427666
387,/title/tt0415160/,Minotaur,"Carousel Picture Company, Luxembourg, Luxembourg",,,,
388,/title/tt0415160/,Minotaur,"Wales, UK",,"Cymru / Wales, United Kingdom",52.2928116,-3.73893
389,/title/tt0048729/,Terug uit de Hel,"Oak Creek Wildlife Area, Naches, Washington, USA",,"Oak Creek Wildlife Area, Old Naches Highway, Yakima County, Washington, 98947, United States of America",46.75030395,-120.776872575
390,/title/tt0048729/,Terug uit de Hel,"Fort Lewis, Washington, USA",,"Fort Lewis, Pierce County, Washington, 98431, United States of America",47.1086912,-122.5549795
391,/title/tt7124092/,Ghost in the Graveyard,"Somers, New York, USA",(The High School)                        ,"Somers, Town of Somers, Westchester County, New York, 10589, United States of America",41.3281498,-73.6856857
392,/title/tt7124092/,Ghost in the Graveyard,"Sleepy Hollow, New York, USA",(Sally's House)                        ,"Sleepy Hollow, Mount Pleasant, Westchester County, New York, United States of America",41.085652,-73.8584684
393,/title/tt7124092/,Ghost in the Graveyard,"Yorktown, New York, USA",(Town Hall/Police Station)                        ,"Yorktown, Town of Yorktown, Westchester County, New York, 10598, United States of America",41.2956496,-73.80819
394,/title/tt0054679/,The Big Gamble,"Ardmore Studios, Herbert Road, Bray, County Wicklow, Ireland",,,,
395,/title/tt0054679/,The Big Gamble,Côte D'Ivoire,,Côte d’Ivoire,7.9897371,-5.5679458
396,/title/tt6710826/,The Jurassic Games,"Oklahoma City, Oklahoma, USA",(studio)                        ,"Oklahoma City, Oklahoma County, Oklahoma, United States of America",35.4729886,-97.5170536
397,Code,Show Name,Location,Scene,"Location, Tucker County, West Virginia, United States of America",39.2138905,-79.6371124
398,/title/tt1701210/,Black Gold,"Empire Studios, Latrach, Tunisia",(studio)                        ,,,
399,/title/tt1701210/,Black Gold,"Matmata, Tunisia",,"مطماطة, معتمدية مطماطة, ولاية قابس, 6070, تونس",33.508675100000005,9.978609255727548
400,/title/tt8706988/,Kurier,"Warsaw, Mazowieckie, Poland",,"Warszawa, województwo mazowieckie, Polska",52.2319581,21.0067249
401,/title/tt8811032/,Fuyao,"Hengdianzhen, Dongyang, Jinhua, Zhejiang, China",(China)                        ,,,
402,/title/tt8500086/,La víctima número 8,"Bilbao, Spain",(exterior scenes)                        ,"Bilbao, Bilboaldea, Bizkaia, Euskadi, España",43.2630051,-2.9349915
403,/title/tt0850253/,Battle in Seattle,"Seattle, Washington, USA",,"Seattle, King County, Washington, United States of America",47.6038321,-122.3300624
404,/title/tt0295721/,Taxi 3,USA,(Sylvester Stallone's shots)                        ,United States,39.7837304,-100.4458825
405,/title/tt0295721/,Taxi 3,"Marseille, Bouches-du-Rhône, France",,"Marseille, Bouches-du-Rhône, Provence-Alpes-Côte d'Azur, France métropolitaine, 13000, France",43.2961743,5.3699525
406,/title/tt0399327/,The Man,"Hamilton, Ontario, Canada",(St. Eugene Elementary School)                        ,"Hamilton, Golden Horseshoe, Ontario, L8P 0B3, Canada",43.2560802,-79.8728583
407,/title/tt0399327/,The Man,"Oakville, Ontario, Canada",,"Oakville, Halton Region, Golden Horseshoe, Ontario, Canada",43.447436,-79.666672
408,/title/tt0070332/,Lolly-Madonna XXX,"Knoxville, Tennessee, USA",,"Knoxville, Knox County, Tennessee, United States of America",35.9603948,-83.9210261
409,/title/tt9742794/,Way Down,"Madrid, Spain",,"Madrid, Área metropolitana de Madrid y Corredor del Henares, Comunidad de Madrid, 28001, España",40.4167047,-3.7035825
410,/title/tt0076636/,Rollercoaster,"Kings Dominion - 16000 Theme Park Way, Doswell, Virginia, USA",,"Kings Dominion, 16000, Theme Park Way, Garnett Crossing, Doswell, Hanover County, Virginia, 23047, United States of America",37.8467471,-77.444895
411,/title/tt0076636/,Rollercoaster,"Six Flags Magic Mountain - 26101 Magic Mountain Parkway, Valencia, California, USA",,,,
412,/title/tt0076636/,Rollercoaster,"Hyatt Regency Chicago, Chicago, Illinois, USA",(hotel meeting of amusement park operators)                        ,"Hyatt Regency Chicago, 151, East Wacker Drive, New East Side, Chicago, Cook County, Illinois, 60601, United States of America",41.8874488,-87.6228422065339
413,/title/tt0076636/,Rollercoaster,"Chasen's Restaurant - 9039 Beverly Blvd, West Hollywood, California, USA",,,,
414,/title/tt0095403/,Ging chaat goo si juk jaap,"Dai Fu Street, Tai Po Industrial Estate, Hong Kong",,"大富街 Dai Fu Street, 大埔工業邨 Tai Po Industrial Estate, 麥屋 Mak Uk, 鳳園 Fung Yuen, 大埔區 Tai Po District, 新界 New Territories, 香港 Hong Kong, DD29 368, China 中国",22.459611,114.1849161
415,/title/tt0095403/,Ging chaat goo si juk jaap,"5 Oxford Road, Kowloon, Hong Kong",(Wellcome Supermarket)                        ,"Market Place by Jasons, 5, 牛津道 Oxford Road, 指定公眾地點, 又一村 Yau Yat Chuen, 九龍仔 Kowloon Tsai, 九龍 Kowloon, 九龍城區 Kowloon City District, 香港 Hong Kong, China 中国",22.331095050000002,114.18065327437614
416,/title/tt1604070/,Caught Inside,Maldives,,ދިވެހިރާއްޖެ,4.7064352,73.3287853
417,/title/tt2275071/,Suskunlar,"Istanbul, Turkey",,"İstanbul, Beyazıt Meydanı, Beyazıt Mahallesi, Fatih, İstanbul, Marmara Bölgesi, 34126, Türkiye",41.0096215,28.9651867
418,/title/tt0078252/,Se ying diu sau,"Hong Kong, China",,"香港島 Hong Kong Island, 香港 Hong Kong, China 中国",22.2793278,114.1628131
419,/title/tt0430926/,Bloodsuckers,"Squamish, British Columbia, Canada",,"Squamish, Squamish-Lillooet Regional District, British Columbia, Canada",49.6980743,-123.1558612
420,/title/tt0430926/,Bloodsuckers,"Vancouver, British Columbia, Canada",,"Vancouver, Metro Vancouver Regional District, British Columbia, Canada",49.2608724,-123.1139529
421,/title/tt1541155/,Robopocalypse,"ShowBiz Studios, Van Nuys, California, USA",,,,
422,/title/tt0086379/,Stroker Ace,"Talladega Superspeedway - 3366 Speedway Boulevard, Talladega, Alabama, USA",,"Talladega Superspeedway, 3366, Speedway Boulevard, Dry Valley, Lincoln, Talladega County, Alabama, 35096, United States of America",33.564928550000005,-86.06657144018567
423,/title/tt0086379/,Stroker Ace,"Charlotte, North Carolina, USA",,"Charlotte, Mecklenburg County, North Carolina, United States of America",35.2272,-80.843083
424,/title/tt0920458/,Flammen & Citronen,Czech Republic,,Česko,49.8167003,15.4749544
425,/title/tt0920458/,Flammen & Citronen,"Copenhagen, Denmark",,"København, Københavns Kommune, Region Hovedstaden, 1357, Danmark",55.6867243,12.5700724
426,/title/tt0920458/,Flammen & Citronen,"Valby Bakke, Frederiksberg, Denmark",,,,
427,/title/tt0920458/,Flammen & Citronen,Germany,,Deutschland,51.0834196,10.4234469
428,/title/tt0203425/,Crocodile,"Santa Clarita, California, USA",,"Santa Clarita, Los Angeles County, California, United States of America",34.3916641,-118.542586
429,/title/tt0203425/,Crocodile,Mexico,,"Ciudad de México, 06060, México",19.4326296,-99.1331785
430,/title/tt0337593/,Sherlock,"Castel Film Studios, Bucharest, Romania",(studio)                        ,,,
431,/title/tt3511596/,Close Range,"Los Angeles, California, USA",,"Los Angeles, Los Angeles County, California, United States of America",34.0536909,-118.2427666
432,/title/tt2258337/,Eega,"Hyderabad, Telangana, India",,"Hyderabad, Telangana, India",17.38878595,78.46106473453146
433,/title/tt0091027/,Eye of the Tiger,"Valencia, California, USA",,"Valencia, Santa Clarita, Los Angeles County, California, 91355, United States of America",34.413819,-118.5610378
434,/title/tt0099387/,The Death of the Incredible Hulk,"British Columbia, Canada",,"British Columbia, Canada",55.001251,-125.002441
435,/title/tt0099387/,The Death of the Incredible Hulk,"Vancouver, British Columbia, Canada",,"Vancouver, Metro Vancouver Regional District, British Columbia, Canada",49.2608724,-123.1139529
436,/title/tt3147312/,Desierto,"Baja California, Mexico",,"Baja California, México",30.0338923,-115.1425107
437,/title/tt3147312/,Desierto,"Sonoran Desert, Sonora, Mexico",,,,
438,/title/tt3147312/,Desierto,"Catavina, Baja California, Mexico",,"Cataviña, Ensenada, Baja California, 22965, México",29.7321505,-114.7208517
439,/title/tt3147312/,Desierto,"Altar, Sonora, Mexico",,"Altar, Sonora, México",31.09381305,-111.88979063990689
440,/title/tt1515208/,Walking with the Enemy,"Castel Film Studios, Bucharest, Romania",,,,
441,/title/tt1515208/,Walking with the Enemy,Romania,,România,45.9852129,24.6859225
442,/title/tt10364808/,Mao Mao: Heroes of Pure Heart,"Los Angeles, California, USA","(Titmouse, Inc.)                        ","Los Angeles, Los Angeles County, California, United States of America",34.0536909,-118.2427666
443,/title/tt10364808/,Mao Mao: Heroes of Pure Heart,"Cartoon Network - 1050 Techwood Drive NW, Atlanta, Georgia, USA",(main)                        ,"Cartoon Network, 1050, Techwood Drive Northwest, Atlantic Station, Atlanta, Georgia, 30318, United States of America",33.7837125,-84.3923552
444,/title/tt10364808/,Mao Mao: Heroes of Pure Heart,"Burbank, California, USA",(West Coast) (Cartoon Network)                        ,"Burbank, Los Angeles County, California, United States of America",34.1816482,-118.3258554
445,/title/tt4416518/,Shark Lake,"Lake Tahoe, Nevada, USA",(pick-ups)                        ,"Lake Tahoe, California, 96140, United States of America",39.08854049999999,-120.05035277301698
446,/title/tt1535612/,The Son of No One,"Astoria, Queens, New York City, New York, USA",,"Astoria, Queens County, New York, 11102, United States of America",40.7720145,-73.9302673
447,/title/tt1535612/,The Son of No One,"New York City, New York, USA",,"New York, United States of America",40.7127281,-74.0060152
448,/title/tt1046245/,Cross,"Central City Studio, Los Angeles, California, USA",,,,
449,/title/tt0026164/,The Call of the Wild,"Lake Chelan, Washington, USA",,"Lake Chelan, Chelan County, Washington, United States of America",48.07858615,-120.4757138372714
450,/title/tt0026164/,The Call of the Wild,"Lake Tahoe, Nevada, USA",,"Lake Tahoe, California, 96140, United States of America",39.08854049999999,-120.05035277301698
451,/title/tt0026164/,The Call of the Wild,"Mount Baker, Washington, USA",,"Mount Baker, Whatcom County, Washington, United States of America",48.7767986,-121.8144677
452,/title/tt0026164/,The Call of the Wild,"Feather River, California, USA",,"Feather River, Yuba County, California, 95965-9643, United States of America",39.2133502,-121.6138136
453,/title/tt1150934/,Anacondas 4: Trail of Blood,"Bucharest, Romania",,"Municipiul București, România",44.4361414,26.1027202
454,/title/tt1150934/,Anacondas 4: Trail of Blood,Romania,,România,45.9852129,24.6859225
455,/title/tt1937113/,Call of Duty: Modern Warfare 3,"New York City, New York, USA",,"New York, United States of America",40.7127281,-74.0060152
456,/title/tt1937113/,Call of Duty: Modern Warfare 3,"Berlin, Germany",,"Berlin, 10117, Deutschland",52.5170365,13.3888599
457,Code,Show Name,Location,Scene,"Location, Tucker County, West Virginia, United States of America",39.2138905,-79.6371124
458,/title/tt1117667/,XIII: The Movie,"Toronto, Ontario, Canada",,"Toronto, Peel, Golden Horseshoe, Ontario, Canada",43.6534817,-79.3839347
459,/title/tt0071788/,Voetstappen in de nacht,"Sacramento, California, USA",,"Sacramento, Sacramento County, California, United States of America",38.5815719,-121.4943996
460,/title/tt0104897/,Mo' Money,"Chicago, Illinois, USA",,"Chicago, Cook County, Illinois, United States of America",41.8755616,-87.6244212
461,/title/tt4535650/,Dilwale,Iceland,(Where they reunite)                        ,Ísland,64.9841821,-18.1059013
462,/title/tt4535650/,Dilwale,"Sofia, Bulgaria",(Tram Scene)                        ,"София, Столична, София-град, България",42.6978634,23.3221789
463,/title/tt4535650/,Dilwale,Mauritius,,Mauritius,-20.2759451,57.5703566
464,/title/tt4535650/,Dilwale,"Mumbai, India",,"Mumbai, Mumbai City, Maharashtra, India",18.9387711,72.8353355
465,/title/tt4535650/,Dilwale,"Nu Boyana Film Studios, Sofia, Bulgaria",(studio)                        ,,,
466,/title/tt0095709/,The Navigator: A Mediaeval Odyssey,"Auckland, New Zealand",,"Auckland, 1010, New Zealand",-36.852095,174.7631803
467,/title/tt0095709/,The Navigator: A Mediaeval Odyssey,"Southern Alps, New Zealand",,"Southern Alps / Kā Tiritiri o te Moana, Westland District, West Coast, New Zealand",-43.9649295,169.5863321
468,/title/tt1784589/,Players,New Zealand,,New Zealand / Aotearoa,-41.5000831,172.8344077
469,/title/tt1784589/,Players,"Amsterdam, Noord-Holland, Netherlands",,"Amsterdam, Noord-Holland, Nederland",52.3727598,4.8936041
470,/title/tt12942958/,Monster Hunters,"Central City Studio, Los Angeles, California, USA",(most interiors)                        ,,,
471,/title/tt0064137/,Castle Keep,"Novi Sad, Serbia",(The town exteriors) (Castle set built in Kamenica Park)                        ,"Нови Сад, Град Нови Сад, Јужнобачки управни округ, Војводина, 21000, Србија (Serbia)",45.2551338,19.8451756
472,/title/tt0064137/,Castle Keep,Serbia,,"Србија, Доње Комарице, Град Крагујевац, Шумадијски управни округ, Централна Србија, Србија (Serbia)",44.024322850000004,21.07657433209902
473,/title/tt10468754/,Watch Dogs: Legion,"London, England, UK",,"London, Greater London, England, United Kingdom",51.5073219,-0.1276474
474,/title/tt2993848/,Bing feng: Yong heng zhi men,"Hong Kong, China",,"香港島 Hong Kong Island, 香港 Hong Kong, China 中国",22.2793278,114.1628131
475,/title/tt0058379/,Mosura tai Gojira,"Nagoya, Aichi, Japan",,"名古屋市, 愛知県, 日本 (Japan)",35.1851045,136.8998438
476,/title/tt0066767/,The Anderson Tapes,"7 East 91st Street, New York City, New York, USA",(Apartment building heisted by crooks)                        ,"James Burden Mansion, 7, East 91st Street, Carnegie Hill, Manhattan Community Board 8, Manhattan, New York County, New York, 10128, United States of America",40.7845814,-73.95727835681545
477,/title/tt0066767/,The Anderson Tapes,"Central Park, Manhattan, New York City, New York, USA",,"Central Park, Manhattan, New York County, New York, United States of America",40.7827725,-73.9653627406542
478,/title/tt0066767/,The Anderson Tapes,"Millionaire's Row, Manhattan, New York City, New York, USA",(Italian Palazzo)                        ,,,
479,/title/tt0066767/,The Anderson Tapes,"Port Authority Bus Terminal, Manhattan, New York City, New York, USA",,"Port Authority Bus Terminal, 625, 8th Avenue, Theater District, Manhattan Community Board 5, Manhattan, New York County, New York, 10036, United States of America",40.7568804,-73.99148667376184
480,/title/tt0066767/,The Anderson Tapes,"Upper East Side, Manhattan, New York City, New York, USA",,"Upper East Side, Manhattan Community Board 8, Manhattan, New York County, New York, United States of America",40.7737016,-73.9641196
481,/title/tt0066767/,The Anderson Tapes,"8th Avenue, Manhattan, New York City, New York, USA",(Port Authority Bus Terminal)                        ,"8th Avenue, Chelsea, Manhattan Community Board 4, Manhattan, New York County, New York, 10011, United States of America",40.7422581,-74.0006951
482,/title/tt0066767/,The Anderson Tapes,"Long Island, New York, USA",,"Long Island, Suffolk County, New York, United States of America",40.85172235,-73.09921882199973
483,/title/tt0066767/,The Anderson Tapes,"New York City, New York, USA",,"New York, United States of America",40.7127281,-74.0060152
484,/title/tt0066767/,The Anderson Tapes,"152 Sullivan Street, Manhattan, New York City, New York, USA",(bakery across the street from the funeral church)                        ,"152, Sullivan Street, Greenwich Village, Manhattan Community Board 2, Manhattan, New York County, New York, 10012, United States of America",40.72731811764706,-74.00179947058824
485,/title/tt0066767/,The Anderson Tapes,"Pier 59, North River, Manhattan, New York City, New York, USA",(Old U.S. Lines piers - moving van prep)                        ,"Pier 59, Hudson River Park Esplanade, Chelsea, Manhattan Community Board 4, Manhattan, New York County, New York, 100014, United States of America",40.7456484,-74.0104457
486,/title/tt0066767/,The Anderson Tapes,"Queens, New York City, New York, USA",,"Queens, Queens County, New York, United States of America",40.7498243,-73.7976337
487,/title/tt11011882/,Blackout,"Brussels, Brussels-Capital, Belgium",(Capital City)                        ,"Bruxelles / Brussel, Ville de Bruxelles - Stad Brussel, Région de Bruxelles-Capitale - Brussels Hoofdstedelijk Gewest, België - Belgique - Belgien",50.8465573,4.351697
488,/title/tt0272147/,Vampires: Los Muertos,"Morelos, Mexico",,"Morelos, México",18.75,-99.0
489,/title/tt0272147/,Vampires: Los Muertos,"Mexico City, Distrito Federal, Mexico",,"México, Calle Benito Juárez, Unidad Habitacional Integración Latinoamericana, Naucalpan, 04350, México",19.337797000000002,-99.17851255290537
490,/title/tt0272147/,Vampires: Los Muertos,"Texcoco, Mexico",,"Texcoco, Estado de México, México",19.47559065,-98.85539643391266
491,/title/tt0105813/,White Sands,"White Sands National Monument, New Mexico, USA",,"White Sands National Monument, Otero County, New Mexico, United States of America",32.7350236,-106.2468497
492,/title/tt0105813/,White Sands,"Rio Grande Gorge Bridge, Taos, New Mexico, USA",,"Rio Grande Gorge Bridge, Taos County, New Mexico, 87577, United States of America",36.4762545,-105.7329532
493,/title/tt0105813/,White Sands,"Taos, New Mexico, USA",,"Taos, Taos County, New Mexico, 87571, United States of America",36.4072377,-105.5732847
494,/title/tt0102045/,The Hitman,"Coquitlam, British Columbia, Canada",,"Coquitlam, Metro Vancouver Regional District, British Columbia, Canada",49.2842958,-122.793281
495,/title/tt0102045/,The Hitman,"Vancouver, British Columbia, Canada",,"Vancouver, Metro Vancouver Regional District, British Columbia, Canada",49.2608724,-123.1139529
496,/title/tt0093489/,Man on Fire,"Lake Como, Lombardia, Italy",,"Lago di Como, Como, Lombardia, 23827, Italia",45.9917589,9.264881035005711
497,/title/tt0093489/,Man on Fire,"De Paolis Studios, Rome, Lazio, Italy",,,,
498,/title/tt0093489/,Man on Fire,"Rome, Lazio, Italy",,"Roma Capitale, Lazio, Italia",41.85223935,12.631036615953583
499,/title/tt0087062/,City Heat,"Los Angeles, California, USA",(Main Street Gym)                        ,"Los Angeles, Los Angeles County, California, United States of America",34.0536909,-118.2427666
500,/title/tt0087062/,City Heat,"Los Angeles, California, USA",(downtown)                        ,"Los Angeles, Los Angeles County, California, United States of America",34.0536909,-118.2427666
501,/title/tt0087062/,City Heat,"New York Street, Backlot, Universal Studios - 100 Universal City Plaza, Universal City, California, USA",,,,
502,/title/tt2339608/,Karadayi,"Istanbul, Turkey",(location)                        ,"İstanbul, Beyazıt Meydanı, Beyazıt Mahallesi, Fatih, İstanbul, Marmara Bölgesi, 34126, Türkiye",41.0096215,28.9651867
503,/title/tt6032762/,Maen Too Maen,"Budapest, Hungary",,"Budapest, Közép-Magyarország, 1011, Magyarország",47.4983815,19.0404707
504,/title/tt0923811/,Evangelion Shin Gekijôban: Jo,"Tokyo, Japan",,"東京都, 日本 (Japan)",35.6828387,139.7594549
505,/title/tt2193031/,Baiohazâdo 6,"Chicago Illinois, USA",(on location)                        ,"Chicago, Cook County, Illinois, United States of America",41.8755616,-87.6244212
506,/title/tt1198101/,Kites,"Taos Pueblo, Taos, New Mexico, USA",(Linda brings Jai home to her mother's house in Pueblo de Taos. This is the place where they get married.)                        ,"Taos Pueblo, 120, Veterans Highway, Taos Pueblo, Taos County, New Mexico, 87571, United States of America",36.4381878,-105.5474245
507,/title/tt1198101/,Kites,"Los Angeles, California, USA",,"Los Angeles, Los Angeles County, California, United States of America",34.0536909,-118.2427666
508,/title/tt1198101/,Kites,"Sultan of Blues, Bandos, Maldives","(""Dil kyu yeh mera shor kare"" song aboard the Sultan of Blues yatch in the Maldives.)                        ",,,
509,/title/tt0101846/,F/X2,"Toronto, Ontario, Canada",,"Toronto, Peel, Golden Horseshoe, Ontario, Canada",43.6534817,-79.3839347
510,/title/tt0101846/,F/X2,"Rome, Lazio, Italy",,"Roma Capitale, Lazio, Italia",41.85223935,12.631036615953583
511,/title/tt0101846/,F/X2,"Los Angeles, California, USA",,"Los Angeles, Los Angeles County, California, United States of America",34.0536909,-118.2427666
512,/title/tt2295953/,Primeval: New World,"Vancouver, British Columbia, Canada",,"Vancouver, Metro Vancouver Regional District, British Columbia, Canada",49.2608724,-123.1139529
513,/title/tt0072886/,Doc Savage: The Man of Bronze,"Colorado, USA",,"Colorado, United States of America",38.7251776,-105.6077167
514,/title/tt0072886/,Doc Savage: The Man of Bronze,"Eastern Columbia Building - 849 S. Broadway, Los Angeles, California, USA","(Opening scenes, New York City)                        ","Eastern Columbia Building, 849, South Broadway, Historic Core District, Downtown, Los Angeles, Los Angeles County, California, 90013, United States of America",34.0427494,-118.25620910782035
515,/title/tt0054310/,Sink the Bismarck!,HMS Belfast,,"HMS Belfast, Battle Bridge Lane, Butler's Wharf, Elephant and Castle, London Borough of Southwark, London, Greater London, England, SE1 2JH, United Kingdom",51.50651995,-0.0811196916752953
516,/title/tt0054310/,Sink the Bismarck!,"Pinewood Studios, Iver Heath, Buckinghamshire, England, UK",(studio) (uncredited)                        ,"Pinewood Studios, Pinewood Green, Iver, Iver Heath, Buckinghamshire, South East, England, SL0 0QJ, United Kingdom",51.54831515,-0.5346765566753087
517,/title/tt5235348/,Marco Polo: One Hundred Eyes,"Korda Studios, Etyek, Hungary",(studio)                        ,"Korda Filmstúdió, Etyek, Bicskei járás, Fejér megye, Közép-Dunántúl, Dunántúl, 2091, Magyarország",47.4397819,18.728804513362004
518,/title/tt0115392/,Titanic,"Playas de Rosarito, Baja California, Mexico",(a reconstruction of the Titanic was built there)                        ,"Playas de Rosarito, Baja California, México",32.25812915,-116.87330722517585
519,/title/tt3268668/,Captive,"Charlotte, North Carolina, USA",,"Charlotte, Mecklenburg County, North Carolina, United States of America",35.2272,-80.843083
520,/title/tt3268668/,Captive,"North Carolina, USA",,"North Carolina, United States of America",35.6729639,-79.0392919
521,/title/tt3268668/,Captive,"Wilmington, North Carolina, USA",,"Wilmington, New Hanover County, North Carolina, United States of America",34.2257282,-77.9447107
522,/title/tt9202810/,Tau Ceti Four,Spain,,España,39.3262345,-4.8380649
523,/title/tt8550208/,Romeo Akbar Walter,"Junagadh, Gujarat, India",,"Junagadh, Junagadh City Taluka, Junagadh District, Gujarat, India",21.5174104,70.4642754
524,/title/tt8550208/,Romeo Akbar Walter,Nepal,,नेपाल,28.1083929,84.0917139
525,Code,Show Name,Location,Scene,"Location, Tucker County, West Virginia, United States of America",39.2138905,-79.6371124
526,/title/tt0488962/,Big Bad Wolf,"Big Sky Ranch - 4927 Bennett Road, Simi Valley, California, USA",,,,
527,/title/tt0488962/,Big Bad Wolf,"Simi Valley, California, USA",,"Simi Valley, Ventura County, California, United States of America",34.2694474,-118.781482
528,/title/tt0120036/,Rosewood,"Sanford, Florida, USA",,"Sanford, Seminole County, Florida, United States of America",28.8117297,-81.2680345
529,/title/tt0120036/,Rosewood,"Florida, USA",,"Florida, United States of America",27.7567667,-81.4639835
530,/title/tt1686784/,Long men fei jia,"Beijing, China",,"北京市, 东城区, 北京市, 100010, China 中国",39.906217,116.3912757
531,/title/tt0047086/,The High and the Mighty,"San Francisco Municipal Airport, California, USA",,,,
532,/title/tt0047086/,The High and the Mighty,"Glendale Grand Central Air Terminal - Grandview Avenue, Glendale, California, USA",,,,
533,/title/tt0047086/,The High and the Mighty,"The Royal Hawaiian Hotel, Honolulu, Hawaii, USA",(Wikipedia)                        ,"Royal Hawaiian Hotel, 2259, Kalākaua Avenue, Kalakaua Shopping District, Waikiki, Honolulu, Honolulu County, Hawaii, 96815, United States of America",21.27739595,-157.82907852286417
534,/title/tt0085994/,Nate and Hayes,"The Phillips Whitehouse Studios, Mangere, Auckland, New Zealand",(studio)                        ,,,
535,/title/tt0085994/,Nate and Hayes,New Zealand,,New Zealand / Aotearoa,-41.5000831,172.8344077
536,/title/tt5493706/,Death Race 2050,"Lima, Peru",(main location)                        ,"Lima, Peru",-12.0621065,-77.0365256
537,/title/tt0088757/,Avenging Angel,"Bradbury Building - 304 S. Broadway, Downtown, Los Angeles, California, USA",,"Bradbury Building, 300-310, South Broadway, Historic Core District, Downtown, Los Angeles, Los Angeles County, California, 90013, United States of America",34.05047545,-118.24780750292649
538,/title/tt0046414/,Beat the Devil,"Amalfi Coast, Salerno, Campania, Italy",,"Mobility Amalfi Coast buses, Via Cristoforo Colombo, Montepertuso, Positano, Salerno, Campania, 84017, Italia",40.6275604,14.4907907
539,/title/tt0046414/,Beat the Devil,"Terrazzo dell'lnfinito, Villa Cimbrone, Ravello, Salerno, Campania, Italy","(""Terrace of Infinity"")                        ",,,
540,/title/tt0046414/,Beat the Devil,"Salerno, Campania, Italy",,"Salerno, Campania, Italia",40.419441649999996,15.310756230322482
541,/title/tt0046414/,Beat the Devil,"Shepperton Studios, Shepperton, Surrey, England, UK",(studio) (studio: filmed at)                        ,,,
542,/title/tt0046414/,Beat the Devil,Italy,,Italia,42.6384261,12.674297
543,/title/tt0277723/,Grand Theft Auto III,"New York City, New York, USA",(Liberty City)                        ,"New York, United States of America",40.7127281,-74.0060152
544,/title/tt2368553/,Bailout: The Age of Greed,"Vancouver, British Columbia, Canada",,"Vancouver, Metro Vancouver Regional District, British Columbia, Canada",49.2608724,-123.1139529
545,/title/tt0050356/,The Enemy Below,"Hawaii, USA",,"Hawaii, United States of America",19.58726775,-155.42688965312746
546,/title/tt0050356/,The Enemy Below,"20th Century Fox Studios - 10201 Pico Blvd., Century City, Los Angeles, California, USA",(studio)                        ,,,
547,/title/tt2111392/,Raze,"Los Angeles, California, USA",,"Los Angeles, Los Angeles County, California, United States of America",34.0536909,-118.2427666
548,/title/tt0101649/,Thalapathi,"Chennai, Tamil Nadu, India",,"சென்னை - Chennai, சென்னை மாவட்டம், Tamil Nadu, India",13.0801721,80.2838331
549,/title/tt12537456/,Assassin's Creed: Gold,"London, England, UK",(category-podcast)                        ,"London, Greater London, England, United Kingdom",51.5073219,-0.1276474
550,/title/tt2369396/,Bounty Killer,"Blue Cloud Movie Ranch - 20000 Blue Cloud Road, Santa Clarita, California, USA",,,,
551,/title/tt2369396/,Bounty Killer,"Hollywood Production Center, Glendale, California, USA",,"Hollywood Production Center, 225, East Broadway, Glendale, Los Angeles County, California, 91210, United States of America",34.14659305,-118.25296845336322
552,/title/tt0091621/,Never Too Young to Die,"Fort MacArthur, San Pedro, Los Angeles, California, USA",(Ragnar's Base)                        ,,,
553,/title/tt0091621/,Never Too Young to Die,"Moorpark College - 7075 Campus Road, Moorpark, California, USA",(college)                        ,"Moorpark College, Moorpark Coll, Virginia Colony, Moorpark, Ventura County, California, 93021, United States of America",34.3003246,-118.8368424
554,/title/tt0091621/,Never Too Young to Die,"Los Angeles County, California, USA",(Big Tujunga Dam)                        ,"Los Angeles County, California, United States of America",34.3155072,-118.2096814
555,/title/tt4474310/,The Player,"Albuquerque Convention Center - 401 2nd Street NW, Albuquerque, New Mexico, USA",,"Albuquerque Convention Center, 401, 2nd Street Northwest, Downtown Albuquerque, Albuquerque, Bernalillo County, New Mexico, 87102, United States of America",35.08696705,-106.6478051605243
556,/title/tt4474310/,The Player,"Santa Clarita, California, USA",,"Santa Clarita, Los Angeles County, California, United States of America",34.3916641,-118.542586
557,/title/tt2240991/,A Touch of Cloth,"The Chimes, Uxbridge, Middlesex, England, UK",(interiors)                        ,,,
558,/title/tt2640460/,Kurmanjan datka,"Osh, Kyrgyzstan",,"Ош, 714004, Kyrgyzstan",40.5361899,72.8033618
559,/title/tt2640460/,Kurmanjan datka,"Gulcho, Kyrgyzstan",,"Гульча, Ошская область, Kyrgyzstan",40.32159575,73.43102429600812
560,/title/tt2640460/,Kurmanjan datka,"Bishkek, Kyrgyzstan",,"Бишкек, Kyrgyzstan",42.8765615,74.6070079
561,/title/tt2640460/,Kurmanjan datka,"St. Petersburg, Russia",,"Санкт-Петербург, Центральный район, Санкт-Петербург, Северо-Западный федеральный округ, 190000, Россия",59.938732,30.316229
562,/title/tt2640460/,Kurmanjan datka,"Chunkurchak, Kyrgyzstan",,"Чункурчак, Аламудунский район, Чуйская область, Kyrgyzstan",42.6736216,74.6500559
563,/title/tt0084861/,Vice Squad,"Tiffany Theatre, 8532 Sunset Blvd., West Hollywood, California , USA",(location)                        ,,,
564,/title/tt0048667/,Strategic Air Command,"Carswell Air Force Base, Fort Worth, Texas, USA",,,,
565,/title/tt0048667/,Strategic Air Command,"MacDill Air Force Base, Tampa, Florida, USA",,"MacDill Air Force Base, Radar Road, Port Tampa, Tampa, Hillsborough County, Florida, 33616, United States of America",27.8490367,-82.5203706
566,/title/tt0048667/,Strategic Air Command,"Plant City, Florida, USA",,"Plant City, Hillsborough County, Florida, United States of America",28.01806015,-82.11848198507127
567,/title/tt0126388/,Legionnaire,"Tangier, Morocco",,"Tanger ⵟⴰⵏⵊⴰ طنجة, pachalik de Tanger طنجة, Préfecture de Tanger-Assilah عمالة طنجة-أصيلة, Tanger-Tétouan-Al Hoceima ⵟⴰⵏⵊ-ⵟⵉⵜⴰⵡⵉⵏ-ⵍⵃⵓⵙⵉⵎⴰ طنجة تطوان الحسيمة, 90013, Maroc",35.777103,-5.803792
568,/title/tt0126388/,Legionnaire,"Erfoud, Morocco",,"Erfoud ⴰⵔⴼⵓⴷ أرفود, Pachalik de Arfoud, Province d'Errachidia إقليم الرشيدية, Drâa-Tafilalet ⴷⴰⵔⵄⴰ-ⵜⴰⴼⵉⵍⴰⵍⵜ درعة تافيلالت, 52200, Maroc",31.4324061,-4.2342572
569,/title/tt0126388/,Legionnaire,"Ouarzazate, Morocco",,"Ouarzazate ⵡⴰⵔⵣⴰⵣⴰⵜ ورزازات, Pachalik d'Ouarzazate, Province de Ouarzazate ⵍⵉⵇⵍⵉⵎ ⵏ ⵡⴰⵔⵣⴰⵣⴰⵜ إقليم ورززات, Drâa-Tafilalet ⴷⴰⵔⵄⴰ-ⵜⴰⴼⵉⵍⴰⵍⵜ درعة تافيلالت, 45005, Maroc",30.920193,-6.910923
570,/title/tt0094792/,Braddock: Missing in Action III,Philippines,,Philippines,12.7503486,122.7312101
571,/title/tt0073896/,White Line Fever,"TTT Truck Stop, Tucson, Arizona, USA",,,,
572,/title/tt0073896/,White Line Fever,"Downtown, Tucson, Arizona, USA",,"East Downtown Street, Armory Park, Tucson, Pima County, Arizona, 85701, United States of America",32.215691,-110.9623123
573,/title/tt0073896/,White Line Fever,"Tucson Warehouse and Transfer, Downtown, Tucson, Arizona, USA",,,,
574,/title/tt0073896/,White Line Fever,"Monument Valley, Arizona, USA",,"Monument Valley Navajo Tribal Park, Navajo County, Arizona, United States of America",36.9820026,-110.1108327
575,/title/tt0073896/,White Line Fever,"Interstate 10, Tucson, Arizona, USA",,"Interstate Highway 10 Frontage Road, Tucson, Pima County, Arizona, 85756, United States of America",32.1212806,-110.8681936
576,/title/tt0073896/,White Line Fever,"Tire Jobbers Warehouse, Downtown, Tucson, Arizona, USA",(now demolished)                        ,,,
577,/title/tt0073896/,White Line Fever,"Carl Hayden Hospital, Congress Street and Granada, Downtown, Tucson, Arizona, USA","(end scene; aka Southern Pacific Railroad Hospital; closed 1974, demolished 1979)                        ",,,
578,/title/tt0073896/,White Line Fever,"Kayenta, Arizona, USA",,"Kayenta, Navajo County, Arizona, United States of America",36.7218463,-110.2538722
579,/title/tt0073896/,White Line Fever,"Sonoran Desert, Arizona, USA",,"Sonoran Desert, Bates Well Road, Pima County, Arizona, United States of America",32.2598642,-112.9262583
580,/title/tt0073896/,White Line Fever,"Rincon Mountains, Arizona, USA",,"Little Rincon Mountains, Cochise County, Arizona, United States of America",32.1684098,-110.4128539
581,/title/tt11273352/,Qing yu nian,"Duyun, Guizhou Province, China",,"都匀市, 黔南 Qiannan, 都匀市, 贵州省, 558000, China 中国",26.2631518,107.5144965
582,/title/tt0085356/,Conquest,"Sardinia, Italy",,"Sardegna, Austis, Nuoro, Sardegna, 08030, Italia",40.06160405,9.097753806553065
583,/title/tt3598222/,Mercenaries,"Sybil Brand Institute for Women - 4500 E. City Terrace Drive, Monterey Park, California, USA",(Fort Boxleitner)                        ,,,
584,/title/tt3598222/,Mercenaries,"Veluzat Motion Picture Ranch, Saugus, California, USA",(Ganzar Village)                        ,,,
585,/title/tt3598222/,Mercenaries,"Lost Creek Film Ranch, Santa Clarita, California, USA",(Ganzar Desert)                        ,,,
586,/title/tt3598222/,Mercenaries,"Santa Clarita, California, USA",,"Santa Clarita, Los Angeles County, California, United States of America",34.3916641,-118.542586
587,/title/tt0014429/,Safety Last!,"Atlantic Hotel, Broadway, Los Angeles, California, USA",(facade) (clock tower scene)                        ,,,
588,/title/tt0014429/,Safety Last!,"Stock Exchange, Broadway, Los Angeles, California, USA",(facade) (clock tower scene)                        ,,,
589,/title/tt0014429/,Safety Last!,"Great Bend Railway Station, Los Angeles, California, USA",(platform)                        ,,,
590,/title/tt0014429/,Safety Last!,"Majestic Theatre, Broadway, Los Angeles, California, USA",(facade) (clock tower scene)                        ,,,
591,/title/tt0014429/,Safety Last!,"Culver City, California, USA",(main street and home garden)                        ,"Culver City, Los Angeles County, California, United States of America",34.0211224,-118.3964665
592,/title/tt6243274/,County Line,"Toccoa, Georgia, USA",(location)                        ,"Toccoa, Stephens County, Georgia, 30577, United States of America",34.5774368,-83.332881
593,/title/tt0067810/,Sweet Sweetback's Baadasssss Song,"Los Angeles, California, USA",,"Los Angeles, Los Angeles County, California, United States of America",34.0536909,-118.2427666
594,/title/tt0049181/,Emergency Hospital,"American National Studios, Hollywood, Los Angeles, California, USA",(studio)                        ,,,
595,Code,Show Name,Location,Scene,"Location, Tucker County, West Virginia, United States of America",39.2138905,-79.6371124
596,/title/tt0406728/,Dungeons & Dragons: Wrath of the Dragon God,"Trakai Castle, Lithuania",,"Trakų salos pilis, Trakų pilies tiltas, Trakai, Trakų seniūnija, Trakų rajono savivaldybė, Vilniaus apskritis, 21104, Lietuva",54.65272965,24.93391910304272
597,/title/tt1698008/,Super Shark,"Dana Point Harbor, Dana Point, California, USA",(Waterfront and docks)                        ,,,
598,/title/tt1523486/,Kolpaçino,"Istanbul, Turkey",(location)                        ,"İstanbul, Beyazıt Meydanı, Beyazıt Mahallesi, Fatih, İstanbul, Marmara Bölgesi, 34126, Türkiye",41.0096215,28.9651867
599,/title/tt0119640/,McHale's Navy,"Manzanillo, Colima, Mexico",,"Manzanillo, Colima, México",19.127656950000002,-104.28412563007706
600,/title/tt0119640/,McHale's Navy,Mexico,,"Ciudad de México, 06060, México",19.4326296,-99.1331785
601,/title/tt0097880/,The Mighty Quinn,"Folly Ruins, Port Antonio, Jamaica",,"Folly Ruins (1905), Folly Peninsula, Folly, Williamsfield, Port Antonio, Portland, Surrey County, +1876, Jamaika",18.185913149999998,-76.44034939452384
602,/title/tt0097880/,The Mighty Quinn,"Trident Castle, Port Antonio, Jamaica",,"Trident Castle, Northern Coastal Highway, Folly, Williamsfield, Drapers, Portland, Surrey County, +1876, Jamaika",18.1799515,-76.41938348912888
603,/title/tt1792543/,The Reunion,"New Mexico, USA",,"New Mexico, United States of America",34.5708167,-105.993007
604,/title/tt1792543/,The Reunion,"Orpheum Theater - 842 South Broadway, Downtown, Los Angeles, California, USA",(seen in rear projection footage behind cab when they first arrive in Mexico)                        ,,,
605,/title/tt4559046/,Housefull 3,"Marlow, Buckinghamshire, England, UK",(outdoor location)                        ,"Marlow, Buckinghamshire, South East, England, SL7 1DA, United Kingdom",51.5718668,-0.77695
606,/title/tt4559046/,Housefull 3,"Bournemouth, Dorset, England, UK",(outdoor location)                        ,"Bournemouth, South West England, England, BH1 2BU, United Kingdom",50.7194784,-1.8767712
