,Code,Show Name,Location,Scene,geocodedLocation,latitude,longitude
0,/title/tt1285241/,Don 2,"Malacca, Malaysia",,"Melaka, Malaysia",2.2245111,102.2614662
1,/title/tt1285241/,Don 2,"Berlin, Germany",,"Berlin, 10117, Deutschland",52.5170365,13.3888599
2,/title/tt1285241/,Don 2,"Langkawi Island, Malaysia",,"Pulau Langkawi, Langkawi, Kedah, Malaysia",6.3682503,99.79291478597283
3,/title/tt1285241/,Don 2,"Brandenburger Tor, Mitte, Berlin, Germany",,"Brandenburger Tor, 1, Pariser Platz, Mitte, Berlin, 10117, Deutschland",52.51628045,13.37770188288172
4,/title/tt1285241/,Don 2,"Gendarmenmarkt, Mitte, Berlin, Germany",,"Gendarmenmarkt, Markgrafenstraße, Spandauer Vorstadt, Mitte, Berlin, 10117, Deutschland",52.513602649999996,13.392293815891655
5,/title/tt2675914/,Kraftidioten,"Beitostølen, Norway",(location)                        ,"Beitostølen, Øystre Slidre, Innlandet, 2953, Norge",61.2498658,8.9064205
6,/title/tt2675914/,Kraftidioten,Norway,,"Norge, Namsos, Trøndelag, Norge",64.5731537,11.52803643954819
7,/title/tt8360902/,6-Headed Shark Attack,South Africa,,South Africa,-28.8166236,24.991639
8,/title/tt1886493/,Catch .44,"Shreveport, Louisiana, USA",,"Shreveport, Caddo Parish, Louisiana, United States of America",32.5221828,-93.7651944
9,/title/tt2842418/,Batman: Arkham Origins,"Chicago, Illinois, USA",(Gotham)                        ,"Chicago, Cook County, Illinois, United States of America",41.8755616,-87.6244212
10,/title/tt3567666/,Stratton,"Rome, Lazio, Italy",(Deadline Hollywood)                        ,"Roma Capitale, Lazio, Italia",41.85223935,12.631036615953583
11,/title/tt3567666/,Stratton,"Southern Italy, Italy",(Deadline Hollywood)                        ,"San Jose Diridon, Cahill Street, Little Italy, Buena Vista, San Jose, Santa Clara County, California, 95110-2007, United States of America",37.3299203,-121.9024968
12,/title/tt8318702/,D-Railed,"Los Angeles, California, USA",,"Los Angeles, Los Angeles County, California, United States of America",34.0536909,-118.2427666
13,/title/tt10984686/,Jinde Meriye,"Scotland, UK",,"Scotland, United Kingdom",56.7861112,-4.1140518
14,/title/tt2978102/,Term Life,"Georgia, USA",,"Georgia, United States of America",32.3293809,-83.1137366
15,/title/tt2978102/,Term Life,"2 - 40 Griffin Street, Grantville, Georgia, USA",(Sheriff's office)                        ,"2, Griffin Street, Grantville, Coweta, Georgia, 30220, United States of America",33.234638860515936,-84.83415093402574
16,/title/tt2978102/,Term Life,"24 Main Street, Grantville, Georgia, USA",(Nick runs through cafe)                        ,"24, Main Street, Grantville, Coweta, Georgia, 30220, United States of America",33.234711062500004,-84.83547710416666
17,/title/tt2978102/,Term Life,"105 Peach Tree Street SW, Atlanta, Georgia, USA",(Nick meets Harper)                        ,,,
18,/title/tt2978102/,Term Life,"Holiday Inn Express, 126 E. Lanier Ave., Fayetteville, Georgia, USA",(The hotel)                        ,,,
19,/title/tt1876261/,Bigfoot,"Carnation, Washington, USA",,"Carnation, King County, Washington, 98014, United States of America",47.6475134,-121.9129419
20,/title/tt5710996/,Star Wars: Battlefront II,"New York City, New York, USA",,"New York, United States of America",40.7127281,-74.0060152
21,/title/tt1282022/,Batman: Arkham Asylum,"Chicago, Illinois, USA",,"Chicago, Cook County, Illinois, United States of America",41.8755616,-87.6244212
22,/title/tt0942903/,Stargate: The Ark of Truth,"Vancouver, British Columbia, Canada",,"Vancouver, Metro Vancouver Regional District, British Columbia, Canada",49.2608724,-123.1139529
23,/title/tt6404142/,Toruk: The First Flight,"Max Bell Centre - 1001 Barlow Trail SE, Calgary, Alberta, Canada",,,,
24,/title/tt2126235/,Collide,"Monschau, North Rhine-Westphalia, Germany",,"Monschau, Städteregion Aachen, Regierungsbezirk Köln, Nordrhein-Westfalen, 52156, Deutschland",50.5544687,6.2407954
25,/title/tt2126235/,Collide,"Cologne, Zülpicher Straße, North Rhine-Westphalia, Germany",(Bar scene)                        ,,,
26,/title/tt2392748/,Scorched Earth,"British Columbia, Canada",,"British Columbia, Canada",55.001251,-125.002441
27,/title/tt6144672/,De Dag,"Bruges, West Flanders, Belgium",(location)                        ,"Brugge, West-Vlaanderen, Vlaanderen, België - Belgique - Belgien",51.2085526,3.226772
28,/title/tt0092997/,Extreme Prejudice,"El Paso, Texas, USA",,"El Paso, El Paso County, Texas, United States of America",31.7754152,-106.4646348
29,/title/tt0092997/,Extreme Prejudice,"Santa Clarita, California, USA",,"Santa Clarita, Los Angeles County, California, United States of America",34.3916641,-118.542586
30,/title/tt0092997/,Extreme Prejudice,"Mexican Town Movie Ranch, Saugus, California, USA",,,,
31,/title/tt0402910/,Chaos,"City Centre Motor Hotel - 2111 Main St, Vancouver, British Columbia, Canada",,,,
32,/title/tt0402910/,Chaos,"Seattle, Washington, USA",,"Seattle, King County, Washington, United States of America",47.6038321,-122.3300624
33,/title/tt0402910/,Chaos,"Vancouver, British Columbia, Canada",,"Vancouver, Metro Vancouver Regional District, British Columbia, Canada",49.2608724,-123.1139529
34,/title/tt0402910/,Chaos,"Burrard Street Bridge, Vancouver, British Columbia, Canada",(Opening scene)                        ,"Burrard Street Bridge, Hornby Street, Downtown, Vancouver, Metro Vancouver Regional District, British Columbia, V6E 1T7, Canada",49.27426365,-123.14068869145629
35,/title/tt11610250/,Daniel Craig vs James Bond,"Cardona, Spain",(town)                        ,"Cardona, Bages, Catalunya, 08261, España",41.9142758,1.68133
36,/title/tt11610250/,Daniel Craig vs James Bond,"Cardona, Catalonia, Spain",(town)                        ,"Cardona, Bages, Catalunya, 08261, España",41.9142758,1.68133
37,/title/tt11610250/,Daniel Craig vs James Bond,"Barcelona, Spain",(province) (environs)                        ,"Barcelona, Barcelonès, Catalunya, 08001, España",41.3828939,2.1774322
38,/title/tt11610250/,Daniel Craig vs James Bond,"Catalonia, Spain",(province)                        ,"Catalunya, España",41.8523094,1.5745043
39,/title/tt11610250/,Daniel Craig vs James Bond,"Parador of Cardona - Castell de Cardona, Cardona, Catalonia, Spain",(hotel) (pool)                        ,,,
40,/title/tt11610250/,Daniel Craig vs James Bond,"National Parador of Cardona, Barcelona, Spain",(castle)                        ,,,
41,/title/tt0467110/,Underdog,"Providence, Rhode Island, USA",,"Providence, Providence County, Rhode Island, United States of America",41.8239891,-71.4128343
42,/title/tt0103843/,Blown Away,"Talisman Mountain Resort, Kimberly, Ontario, Canada",,,,
43,/title/tt0103843/,Blown Away,"Pickering College, Newmarket, Ontario, Canada",,"Pickering College, Bayview Avenue, Newmarket, York Region, Golden Horseshoe, Ontario, L3Y 4X2, Canada",44.046892650000004,-79.45137296001607
44,/title/tt0107286/,Judgment Night,"2316 S Halsted St, Chicago, Illinois, USA",(Aerial shot of Chicago and the highway)                        ,"2316-2330, South Halsted Street, Bridgeport, Pilsen, Chicago, Cook County, Illinois, 60616, United States of America",41.8498363,-87.64719893809654
45,/title/tt0107286/,Judgment Night,"Chicago, Illinois, USA",,"Chicago, Cook County, Illinois, United States of America",41.8755616,-87.6244212
46,/title/tt0107286/,Judgment Night,"South Pasadena, California, USA",,"South Pasadena, Los Angeles County, California, 91030, United States of America",34.1133062,-118.1478291
47,/title/tt0215392/,BeastMaster,"Queensland, Australia",,"Queensland, Australia",-22.1646782,144.5844903
48,/title/tt3957956/,12 Rounds 3: Lockdown,"Vancouver, British Columbia, Canada",,"Vancouver, Metro Vancouver Regional District, British Columbia, Canada",49.2608724,-123.1139529
49,/title/tt0096945/,Blind Fury,Australia,,Australia,-24.7761086,134.755
50,/title/tt0096945/,Blind Fury,"Reno, Nevada, USA",,"Reno, Washoe County, Nevada, United States of America",39.5261206,-119.8126581
51,/title/tt0096945/,Blind Fury,"Squaw Valley, California, USA",,"Squaw Valley, Fresno County, California, United States of America",36.705929499999996,-119.20015587604176
52,/title/tt7451284/,Batman Ninja,"Tokyo, Japan",,"東京都, 日本 (Japan)",35.6828387,139.7594549
53,/title/tt2544766/,Michiel de Ruyter,"Bergen op Zoom, Noord-Brabant, Netherlands","(MarkiezenHof, King Charles Palace, Whitehall)                        ","Bergen op Zoom, Noord-Brabant, Nederland",51.4965864,4.289740797263708
54,/title/tt2544766/,Michiel de Ruyter,"Veere, Zeeland, Netherlands",(Michiel de Ruyter residence)                        ,"Veere, Zeeland, Nederland",51.5475163,3.6660882
55,/title/tt2544766/,Michiel de Ruyter,"Middelburg, Zeeland, Netherlands","(Home town of De Ruyter, Vlissingen/ Den Haag, Parlement and Exterior lynch scene / Staaten Generaal interior scenes)                        ","Middelburg, Zeeland, Nederland",51.50529485,3.6100710049422853
56,/title/tt2544766/,Michiel de Ruyter,"Kasteel Dussen, Dussen, North Brabant, Netherlands",(home of the Prince of Orange)                        ,"Kasteel Dussen, Binnen, Dussen, Altena, Noord-Brabant, Nederland, 4271BW, Nederland",51.73379475,4.969705761811078
57,/title/tt2343137/,Spies of Warsaw,"Kraków, Malopolskie, Poland",,"Kraków, województwo małopolskie, Polska",50.0619474,19.9368564
58,/title/tt2343137/,Spies of Warsaw,Poland,,Polska,52.215933,19.134422
59,/title/tt6579422/,Middle-Earth: Shadow of War,"Chicago Illinois, USA",(shire)                        ,"Chicago, Cook County, Illinois, United States of America",41.8755616,-87.6244212
60,/title/tt1128075/,Ai no mukidashi,"Dog statue, Shibuya, Tokyo, Japan",,,,
61,/title/tt1128075/,Ai no mukidashi,"Honmoku Junior High School, Yokohama, Kanagawa, Japan",,"横浜市立本牧中学校, アメリカ坂, 本牧荒井, 本牧満坂, 中区, 神奈川県, 2310825, 日本 (Japan)",35.422273399999995,139.6567781737393
62,/title/tt1116184/,Jackass 3D,"Santa Clarita, California, USA",,"Santa Clarita, Los Angeles County, California, United States of America",34.3916641,-118.542586
63,/title/tt0090350/,Year of the Dragon,"1 Main St #16, Brooklyn, New York City, New York, USA",(Tracy Tzu's apartment)                        ,"1, Main Street, DUMBO, Brooklyn, Kings County, New York, 11201, United States of America",40.7035429,-73.99020727605345
64,/title/tt0090350/,Year of the Dragon,"Bangkok, Thailand",,"กรุงเทพมหานคร, เขตพระนคร, กรุงเทพมหานคร, 10200, ประเทศไทย",13.7542529,100.493087
65,/title/tt0090350/,Year of the Dragon,"Empress Hotel, Victoria, British Columbia, Canada",(catacombs) (as underground Chinese mung bean factory)                        ,"Empress Hotel, Government Street, Downtown, Victoria, Capital Regional District, British Columbia, V8W 1W5, Canada",48.4217831,-123.3684143
66,/title/tt0090350/,Year of the Dragon,"Toronto, Ontario, Canada",,"Toronto, Peel, Golden Horseshoe, Ontario, Canada",43.6534817,-79.3839347
67,/title/tt0090350/,Year of the Dragon,"North Carolina, USA",,"North Carolina, United States of America",35.6729639,-79.0392919
68,/title/tt0090350/,Year of the Dragon,"Vancouver, British Columbia, Canada",,"Vancouver, Metro Vancouver Regional District, British Columbia, Canada",49.2608724,-123.1139529
69,/title/tt0090350/,Year of the Dragon,"Victoria, British Columbia, Canada",(some interiors)                        ,"Victoria, Capital Regional District, British Columbia, Canada",48.4283182,-123.3649533
70,/title/tt0464913/,"OSS 117: Le Caire, nid d'espions","Devant la mairie, avenue Mohamed VI, El Djadida, Morocco",(scenes supposed to take place outside the Metropolitan Hotel)                        ,,,
71,/title/tt0464913/,"OSS 117: Le Caire, nid d'espions","Kenitra, Morocco",(scenes outside the SEP building)                        ,"Kénitra ⵇⵏⵉⵟⵔⴰ القنيطرة, Pachalik de Kenitra باشوية القنيطرة, Province de Kenitra إقليم القنيطرة, Rabat-Salé-Kénitra ⵔⴱⴰⵟ-ⵙⵍⴰ-ⵇⵏⵉⵟⵔⴰ الرباط-سلا-القنيطرة, 14003, Maroc",34.26457,-6.570169
72,/title/tt0464913/,"OSS 117: Le Caire, nid d'espions","Quartier des Habous, Casablanca, Morocco",,"Quartier Houbous, Méchouar de Casablanca ⵍⵎⵉⵛⵡⴰⵔ ⵏ ⵜⴳⵎⵉ ⵜⵓⵎⵍⵉⵍⵜ مشور الدار البيضاء, Pachalik de Méchouar de Casablanca, Préfecture de Casablanca عمالة الدار البيضاء, Casablanca-Settat ⵜⵉⴳⵎⵉ ⵜⵓⵎⵍⵉⵍⵜ-ⵙⵟⵟⴰⵜ الدار البيضاء-سطات, 20504, Maroc",33.5774555,-7.6063917
73,/title/tt0464913/,"OSS 117: Le Caire, nid d'espions",Spain,,España,39.3262345,-4.8380649
74,/title/tt0464913/,"OSS 117: Le Caire, nid d'espions","Hall de l' université Paris II, 92 rue d'Assas, Paris 6, Paris, France",(scene at the airport)                        ,,,
75,/title/tt0464913/,"OSS 117: Le Caire, nid d'espions","Mairie, 131 rue de la République, Puteaux, Hauts-de-Seine, France",(scenes at the British embassy in Cairo)                        ,"Mairie, 131, Rue de la République, La Défense 8, Puteaux, Arrondissement de Nanterre, Hauts-de-Seine, Île-de-France, France métropolitaine, 92800, France",48.884028099999995,2.2381945901380655
76,/title/tt0464913/,"OSS 117: Le Caire, nid d'espions","Carrières de Nucourt, route de Serans, Nucourt, Val d'Oise, France",(scenes inside the pyramid)                        ,,,
77,/title/tt0464913/,"OSS 117: Le Caire, nid d'espions","Paris 15, Paris, France",(offices of the French embassy in Cairo)                        ,"Paris, Île-de-France, France métropolitaine, France",48.8566969,2.3514616
78,/title/tt3816458/,Dead Rising,"Vancouver, British Columbia, Canada",,"Vancouver, Metro Vancouver Regional District, British Columbia, Canada",49.2608724,-123.1139529
79,/title/tt0190524/,Left Behind,"Rolla, Missouri, USA",,"Rolla, Phelps County, Missouri, United States of America",37.9509324,-91.7708076
80,/title/tt0190524/,Left Behind,"Waynesville, Missouri, USA",,"Waynesville, Pulaski County, Missouri, 65583, United States of America",37.8141419,-92.2266876
81,/title/tt0190524/,Left Behind,"Toronto, Ontario, Canada",,"Toronto, Peel, Golden Horseshoe, Ontario, Canada",43.6534817,-79.3839347
82,/title/tt2387409/,Call of Duty: Black Ops II,"New York City, New York, USA",,"New York, United States of America",40.7127281,-74.0060152
83,/title/tt2387409/,Call of Duty: Black Ops II,"Los Angeles, California, USA",,"Los Angeles, Los Angeles County, California, United States of America",34.0536909,-118.2427666
84,/title/tt2387409/,Call of Duty: Black Ops II,"Chicago, Illinois, USA",,"Chicago, Cook County, Illinois, United States of America",41.8755616,-87.6244212
85,/title/tt0101744/,Do or Die,"Rio All-Suite Hotel & Casino - 3700 W Flamingo Road, Las Vegas, Nevada, USA",,,,
86,/title/tt0080377/,Any Which Way You Can,"Million Dollar Cowboy Bar, 25 North Cache Drive, Jackson, Wyoming, USA","(Bar scene after the fight, with Glen Campbell performing)                        ",,,
87,/title/tt0080377/,Any Which Way You Can,"Jackson Hole, Wyoming, USA",(Final fight)                        ,"Jackson Hole, Teton County, Wyoming, United States of America",43.684103,-110.44362483445289
88,/title/tt0080377/,Any Which Way You Can,"California Living Museum - 14000 Alfred Harrell Highway, Bakersfield, California, USA",(also known as Bakersfield Zoo)                        ,,,
89,/title/tt0080377/,Any Which Way You Can,"New York City, New York, USA",,"New York, United States of America",40.7127281,-74.0060152
90,/title/tt0080377/,Any Which Way You Can,"Jackson Hole Airport, Jackson, Wyoming, USA",,,,
91,/title/tt0080377/,Any Which Way You Can,"North Hollywood, Los Angeles, California, USA",,"North Hollywood, Los Angeles, Los Angeles County, California, 91601-3121, United States of America",34.1729044,-118.3740371
92,/title/tt0080377/,Any Which Way You Can,"Bakersfield, California, USA",,"Bakersfield, Kern County, California, United States of America",35.3738712,-119.0194639
93,/title/tt0080377/,Any Which Way You Can,USA,,United States,39.7837304,-100.4458825
94,/title/tt0080377/,Any Which Way You Can,"Wyoming, USA",,"Wyoming, United States of America",43.1700264,-107.5685348
95,/title/tt3055402/,SuperBob,"Peckham, London, England, UK",,"Peckham, London Borough of Southwark, London, Greater London, England, SE15 5DW, United Kingdom",51.4734122,-0.0699321
96,/title/tt3055402/,SuperBob,"Fire Service College, Moreton-in-Marsh, Gloucestershire, England, UK",(Rescue from Fire)                        ,"Fire Service College, A44, Moreton-in-Marsh, Cotswold, Gloucestershire, South West England, England, GL56 0PF, United Kingdom",51.9885179,-1.6769388
97,Code,Show Name,Location,Scene,"Location, Tucker County, West Virginia, United States of America",39.2138905,-79.6371124
98,/title/tt0103950/,Sing si lip yan,"Hong Kong, China",,"香港島 Hong Kong Island, 香港 Hong Kong, China 中国",22.2793278,114.1628131
99,/title/tt0103003/,Suburban Commando,"Pacific Palisades, Los Angeles, California, USA",(shopping district)                        ,"Pacific Palisades, Los Angeles, Los Angeles County, California, United States of America",34.0480643,-118.5264706
100,/title/tt0103003/,Suburban Commando,"Burbank Blvd & Woodley Ave, Los Angeles, California, USA",(traffic light scenes)                        ,,,
101,/title/tt0103003/,Suburban Commando,"California, USA",,"California, United States of America",36.7014631,-118.7559974
102,/title/tt0103003/,Suburban Commando,"Los Angeles, California, USA",,"Los Angeles, Los Angeles County, California, United States of America",34.0536909,-118.2427666
103,/title/tt0061810/,In Like Flint,"Dunn's River Falls, Ocho Rios, St. Ann, Jamaica",(Flint climbing up waterfall)                        ,,,
104,/title/tt0061810/,In Like Flint,Jamaica,,"Jamaica, Spanish Town, Saint Catherine, Middlesex County, Jamaika",18.1152958,-77.1598454610168
105,/title/tt0061810/,In Like Flint,"Stage 21, 20th Century Fox Studios - 10201 Pico Blvd., Century City, Los Angeles, California, USA",,,,
106,/title/tt8667828/,The Outlaw Johnny Black,"Los Angeles, California, USA",,"Los Angeles, Los Angeles County, California, United States of America",34.0536909,-118.2427666
107,/title/tt0111323/,Surviving the Game,"Lake Wenatchee State Airport, Washington, USA",(cabin and landing strip)                        ,"Lake Wenatchee State Airport, Wye Connector Road, Chelan County, Washington, United States of America",47.8196,-120.7196
108,/title/tt0111323/,Surviving the Game,"Bruce Hotel, Wenatchee, Washington, USA",(Mason spends a night here)                        ,,,
109,/title/tt0111323/,Surviving the Game,"Palouse Street, Wenatchee, Washington, USA",(Mason's dog is hit by a taxi)                        ,"Palouse Street, Wenatchee, Chelan County, Washington, 98801, United States of America",47.4237933,-120.3187045
110,/title/tt0111323/,Surviving the Game,"Columbia River Bridge, Wenatchee, Washington, USA",(Burns and Mason drive over this bridge)                        ,,,
111,/title/tt0111323/,Surviving the Game,"Lake Wenatchee, Washington, USA",,"Lake Wenatchee, Southeast Spur USFS 6607 - 112 Road, Telma, Chelan County, Washington, United States of America",47.8210884,-120.7879704
112,/title/tt1291652/,Snabba cash,"Handelshögskolan i Stockholm, Sveavägen, Norrmalm, Stockholm, Stockholms län, Sweden",,,,
113,/title/tt1291652/,Snabba cash,"Slussen, Södermalm, Stockholm, Stockholms län, Sweden",,"Slussen, Ryssgården, Ormen, Södermalm, Södermalms stadsdelsområde, Stockholm, Stockholms kommun, Stockholms län, Svealand, 104 65, Sverige",59.3194576,18.0721761
114,/title/tt1291652/,Snabba cash,"Österåkersanstalten, Österåker, Stockholms län, Sweden",(prison scenes)                        ,"Anstalten Österåker, Nytorpsvägen, Sävastby, Gustavsberg, Lugnet, Österåkers kommun, Stockholms län, Svealand, 18433, Sverige",59.522388649999996,18.28875917868477
115,/title/tt1291652/,Snabba cash,"Hamburg, Germany",,"Hamburg, Deutschland",53.5437641,10.0099133
116,/title/tt1291652/,Snabba cash,"Stockholm, Stockholms län, Sweden",,"Stockholm, Stockholms kommun, Stockholms län, Svealand, 111 29, Sverige",59.3251172,18.0710935
117,/title/tt0176269/,Universal Soldier: The Return,"3458 Old Buena Vista Rd, Waxahachie, Texas, USA",,,,
118,/title/tt0176269/,Universal Soldier: The Return,"Waxahachie, Texas, USA",,"Waxahachie, Ellis County, Texas, 75165, United States of America",32.3944908,-96.8439365
119,/title/tt0176269/,Universal Soldier: The Return,"Los Angeles, California, USA",,"Los Angeles, Los Angeles County, California, United States of America",34.0536909,-118.2427666
120,/title/tt1327701/,Ben 10: Alien Swarm,"Atlanta, Georgia, USA",,"Atlanta, Georgia, United States of America",33.7490987,-84.3901849
121,/title/tt0091875/,Running Scared,"State of Illinois Building - 160 N. LaSalle Street, The Loop, Downtown, Chicago, Illinois, USA",,,,
122,/title/tt0091875/,Running Scared,"Key West, Florida Keys, Florida, USA",,,,
123,/title/tt0091875/,Running Scared,"Los Angeles, California, USA",,"Los Angeles, Los Angeles County, California, United States of America",34.0536909,-118.2427666
124,/title/tt4914580/,Mil-jeong,"Seoul, South Korea",,"서울, 대한민국",37.5666791,126.9782914
125,/title/tt0106154/,Time Trax,"Brisbane, Queensland, Australia",,"Brisbane City, Queensland, Australia",-27.4689682,153.0234991
126,/title/tt0106154/,Time Trax,"Gold Coast, Queensland, Australia",,"Gold Coast City, Queensland, Australia",-28.0023731,153.4145987
127,/title/tt0018578/,Wings,"Tucson, Arizona, USA",,"Tucson, Pima County, Arizona, United States of America",32.2228765,-110.9748477
128,/title/tt0018578/,Wings,"Bexar County, Texas, USA",,"Bexar County, Texas, United States of America",29.4263987,-98.5104781
129,/title/tt0018578/,Wings,"Fort Sam Houston, San Antonio, Texas, USA",,"Fort Sam Houston, San Antonio, Bexar County, Texas, 78234, United States of America",29.462353649999997,-98.43205242526918
130,/title/tt0018578/,Wings,"San Antonio, Texas, USA",,"San Antonio, Bexar County, Texas, United States of America",29.4246002,-98.4951405
131,/title/tt0056142/,Kingu Kongu tai Gojira,"Tokyo, Japan",,"東京都, 日本 (Japan)",35.6828387,139.7594549
132,/title/tt0093278/,Ishtar,"100 Morningside Drive, Morningside Heights, Manhattan, New York City, New York, USA",(Chuck's apartment block)                        ,"100, Morningside Drive, Morningside Heights, Manhattan Community Board 9, Manhattan, New York County, New York, 10027, United States of America",40.8090222,-73.9576103
133,/title/tt0093278/,Ishtar,Morocco,,Maroc / ⵍⵎⵖⵔⵉⴱ / المغرب,31.1728205,-7.3362482
134,/title/tt0093278/,Ishtar,"Manhattan, New York City, New York, USA",,"Manhattan, New York County, New York, United States of America",40.7896239,-73.9598939
135,/title/tt0093278/,Ishtar,"New York, USA",,"New York, United States of America",40.7127281,-74.0060152
136,/title/tt1555149/,Tropa de Elite 2: O Inimigo Agora é Outro,"Rio de Janeiro, Rio de Janeiro, Brazil",,"Rio de Janeiro, Região Geográfica Imediata do Rio de Janeiro, Região Metropolitana do Rio de Janeiro, Região Geográfica Intermediária do Rio de Janeiro, Rio de Janeiro, Região Sudeste, Brasil",-22.9110137,-43.2093727
137,/title/tt0047013/,Garden of Evil,"Uruapan, Michoacán, Mexico",,"Uruapan, Michoacán de Ocampo, México",19.406043349999997,-102.03429004621862
138,/title/tt0047013/,Garden of Evil,"Guanajuato, Mexico",(outdoor sequences)                        ,"Guanajuato, México",20.9876996,-101.0
139,/title/tt0047013/,Garden of Evil,"Tepotzotlán, Mexico City, Distrito Federal, Mexico",(outdoor sequences)                        ,,,
140,/title/tt0047013/,Garden of Evil,"Los Concheros River, Mexico",(outdoor sequences)                        ,,,
141,/title/tt0047013/,Garden of Evil,"Church ruin of San Juan Parangaricutiro, Uruapan, Mexico",(gold mine sceneat the Parícutin volcano)                        ,,,
142,/title/tt0167720/,Seven Days,"Los Angeles, California, USA",,"Los Angeles, Los Angeles County, California, United States of America",34.0536909,-118.2427666
143,/title/tt0167720/,Seven Days,"Victoria, British Columbia, Canada",,"Victoria, Capital Regional District, British Columbia, Canada",48.4283182,-123.3649533
144,/title/tt5788078/,Watch Dogs 2,"San Francisco, California, USA",,"San Francisco, San Francisco City and County, California, United States of America",37.7790262,-122.4199061
145,/title/tt3848892/,Baby,Abu Dhabi,(Abu Dhabi)                        ,"أبوظبي, أبو ظبي, United Arab Emirates",24.4747961,54.3705762
146,/title/tt3848892/,Baby,"New Delhi, Delhi, India",(Delhi)                        ,"New Delhi, Delhi, India",28.6138954,77.2090057
147,/title/tt3848892/,Baby,"Istanbul, Turkey",(Istanbul)                        ,"İstanbul, Beyazıt Meydanı, Beyazıt Mahallesi, Fatih, İstanbul, Marmara Bölgesi, 34126, Türkiye",41.0096215,28.9651867
148,/title/tt0335121/,Godsend,"Toronto, Ontario, Canada",,"Toronto, Peel, Golden Horseshoe, Ontario, Canada",43.6534817,-79.3839347
149,/title/tt0335121/,Godsend,"Milton, Ontario, Canada",,"Milton, Halton Region, Golden Horseshoe, Ontario, Canada",43.513671,-79.882817
150,/title/tt5206770/,Among the Shadows,"Brussels, Belgium",,"Bruxelles / Brussel, Ville de Bruxelles - Stad Brussel, Région de Bruxelles-Capitale - Brussels Hoofdstedelijk Gewest, België - Belgique - Belgien",50.8465573,4.351697
151,/title/tt5206770/,Among the Shadows,"9300 Aalst City Park, Aalst, Belgium",(Nightscenes park)                        ,,,
152,/title/tt6439748/,Legacy,"Baja California, Mexico",,"Baja California, México",30.0338923,-115.1425107
153,/title/tt0078659/,Saiyûki,China,,中国,35.000074,104.999927
154,/title/tt7336572/,Dai si hing,"Hong Kong, China",,"香港島 Hong Kong Island, 香港 Hong Kong, China 中国",22.2793278,114.1628131
155,/title/tt5090828/,Sniper: Ghost Shooter,Bulgaria,,Бългaрия,42.6073975,25.4856617
156,/title/tt0074031/,The New Avengers,"Beckton Gasworks, Beckton, London, England, UK",(early season 1 episodes)                        ,,,
157,/title/tt0074031/,The New Avengers,"Pinewood Studios, Iver Heath, Buckinghamshire, England, UK",(studio)                        ,"Pinewood Studios, Pinewood Green, Iver, Iver Heath, Buckinghamshire, South East, England, SL0 0QJ, United Kingdom",51.54831515,-0.5346765566753087
158,/title/tt0074031/,The New Avengers,UK,,United Kingdom,54.7023545,-3.2765753
159,/title/tt7167686/,Reign of the Supermen,"New York City, New York, USA",(Metropolis)                        ,"New York, United States of America",40.7127281,-74.0060152
160,/title/tt1235189/,Wild Target,"Pinewood Studios, Iver Heath, Buckinghamshire, England, UK",,"Pinewood Studios, Pinewood Green, Iver, Iver Heath, Buckinghamshire, South East, England, SL0 0QJ, United Kingdom",51.54831515,-0.5346765566753087
161,/title/tt1235189/,Wild Target,Isle of Man,,Isle of Man,54.2358167,-4.514598745698255
162,/title/tt1235189/,Wild Target,"Baconsfield Terrace Road, London, England, UK",(Hotel where Victor targets Rose.)                        ,,,
163,/title/tt0091344/,King Kong Lives,"Pigeon Forge, Tennessee, USA",,"Pigeon Forge, Sevier County, Tennessee, United States of America",35.7884241,-83.5543329
164,/title/tt0091344/,King Kong Lives,"University of North Carolina Wilmington - 601 South College Road, Wilmington, North Carolina, USA",,,,
165,/title/tt0091344/,King Kong Lives,"Jellico, Tennessee, USA",(Cliff)                        ,"Jellico, Campbell County, Tennessee, 37762, United States of America",36.58776,-84.1268634
166,/title/tt0111512/,Jui kuen II,"Hong Kong, China",,"香港島 Hong Kong Island, 香港 Hong Kong, China 中国",22.2793278,114.1628131
167,/title/tt0490181/,Mutant Chronicles,"Bray Studios, Down Place, Oakley Green, Berkshire, England, UK","(2nd unit, model unit)                        ",,,
168,/title/tt0490181/,Mutant Chronicles,"Shepperton Studios, Shepperton, Surrey, England, UK",(studio)                        ,,,
169,/title/tt1483797/,Redline,"Santa Clarita, California, USA",,"Santa Clarita, Los Angeles County, California, United States of America",34.3916641,-118.542586
170,/title/tt4106376/,Renegades,"Ogulin, Croatia",(Bridge over Dobra river canyon)                        ,"Ogulin, Grad Ogulin, Karlovačka županija, 47300, Hrvatska",45.2668211,15.2250286
171,/title/tt4106376/,Renegades,Malta,,Malta,35.8885993,14.4476911
172,/title/tt4106376/,Renegades,"Hum, Croatia",,"Hum, Grad Buzet, Istarska županija, Hrvatska",45.348526,14.0503632
173,/title/tt4106376/,Renegades,"AED Studios, Lint, Flanders, Belgium","(studio) (aka AED Studios, Lint, Belgium)                        ","AED Studios, 38, Fabriekstraat, Lint, Antwerpen, Vlaanderen, 2547, België - Belgique - Belgien",51.13560855,4.477644126115031
174,/title/tt4106376/,Renegades,Croatia,,Hrvatska,45.5643442,17.0118954
175,Code,Show Name,Location,Scene,"Location, Tucker County, West Virginia, United States of America",39.2138905,-79.6371124
176,/title/tt1949012/,The Firm,"Toronto, Ontario, Canada",,"Toronto, Peel, Golden Horseshoe, Ontario, Canada",43.6534817,-79.3839347
177,/title/tt0327375/,Tremors,"Fox Baja Studios, Rosarito, Baja California Norte, Mexico",,,,
178,/title/tt2832470/,Død snø 2,Iceland,,Ísland,64.9841821,-18.1059013
179,/title/tt1082601/,Fighting,"DeKalb Av/Washington Park, Fort Greene, Brooklyn, New York City, New York, USA",,,,
180,/title/tt1082601/,Fighting,"Ramon Aponte Park, W. 47th Street, New York City, New York, USA",,,,
181,/title/tt7875948/,Lake Placid: Legacy,"Cape Town, South Africa",(location)                        ,"Cape Town, City of Cape Town, Western Cape, 8001, South Africa",-33.928992,18.417396
182,/title/tt8655594/,The Mongolian Connection,Mongolia,,Монгол улс ᠮᠤᠩᠭᠤᠯ ᠤᠯᠤᠰ,46.8250388,103.8499736
183,/title/tt0414762/,Power Rangers S.P.D.,New Zealand,,New Zealand / Aotearoa,-41.5000831,172.8344077
184,/title/tt0338806/,Boudica,"Boudica statue, Westminster Bridge, Westminster, London, England, UK",(closing scenes in modern day London)                        ,,,
185,/title/tt0338806/,Boudica,Romania,,România,45.9852129,24.6859225
186,/title/tt8179402/,Fate: The Winx Saga,"Dublin, Ireland",,"Dublin, County Dublin, Leinster, Ireland",53.3497645,-6.2602732
187,/title/tt8179402/,Fate: The Winx Saga,"Ardmore Studios, Herbert Road, Bray, County Wicklow, Ireland",(studio)                        ,,,
188,/title/tt0056059/,Hatari!,"Arusha National Park, Tanzania",,"Arusha National Park, Arumeru, Arusha, Northern Zone, Tanzania",-3.2553448,36.78111419787855
189,/title/tt0056059/,Hatari!,"Serengeti National Park, Tanzania",,"Serengeti National Park, Ikoma, Serengeti, Mara, Lake Zone, Tanzania",-2.36908165,34.70185474224895
190,/title/tt0056059/,Hatari!,Tanzania,,Tanzania,-6.5247123,35.7878438
191,/title/tt0056059/,Hatari!,"Ngorongoro Crater, Ngorongoro Conservation Area, Ngorongoro, Arusha, Tanzania",,,,
192,/title/tt0056059/,Hatari!,"Ruvu River, Tanzania",,"ruvu river, Kimboza, Morogoro, Coastal Zone, Tanzania",-7.0264276,37.8192356
193,/title/tt0056059/,Hatari!,"Momella Wildlife Lodge, Tanzania",(The compound/homestead)                        ,,,
194,/title/tt0076915/,The White Buffalo,"Chama, New Mexico, USA",,"Chama, Rio Arriba County, New Mexico, 87520, United States of America",36.9036557,-106.5798873
195,/title/tt0076915/,The White Buffalo,"Buckskin Joe Frontier Town & Railway - 1193 Fremont County Road 3A, Canon City, Colorado, USA",,,,
196,/title/tt0076915/,The White Buffalo,"Cripple Creek, Colorado, USA",,"Cripple Creek, Teller County, Colorado, 80081, United States of America",38.7466555,-105.1783149
197,/title/tt0076915/,The White Buffalo,"Window Rock, Arizona, USA",,"Window Rock, Apache County, Arizona, 86515, United States of America",35.6763274,-109.0581498
198,/title/tt0076915/,The White Buffalo,"Red Canyon Park, Colorado, USA",,"Red Canyon Park, Fremont County, Colorado, 81812, United States of America",38.584864,-105.262213
199,/title/tt0469021/,Alan Partridge: Alpha Papa,"Cromer, Norfolk, England, UK",(Pier Scene)                        ,"Cromer, Norfolk, East of England, England, NR27 0HP, United Kingdom",52.9311367,1.3012758
200,/title/tt0469021/,Alan Partridge: Alpha Papa,"Sheringham, Norfolk, England, UK",(Police chase)                        ,"Sheringham, North Norfolk, Norfolk, East of England, England, United Kingdom",52.9383171,1.205390324442794
201,/title/tt0469021/,Alan Partridge: Alpha Papa,"Windsor Great Park, Windsor, Berkshire, England, UK",(Closing Credits)                        ,,,
202,/title/tt0469021/,Alan Partridge: Alpha Papa,"City Hall, Norwich, Norfolk, England, UK",(police station exteriors)                        ,"City Hall, Saint Peters Street, Heigham Grove, Norwich, Norfolk, East of England, England, NR2 1NH, United Kingdom",52.62856345,1.2915962074838228
203,/title/tt0469021/,Alan Partridge: Alpha Papa,"Sheringham, Norfolk, England, UK",(bus chase with crowds)                        ,"Sheringham, North Norfolk, Norfolk, East of England, England, United Kingdom",52.9383171,1.205390324442794
204,/title/tt1662557/,Yongseoneun eupda,South Korea,,대한민국,36.638392,127.6961188
205,/title/tt0358349/,Agent Cody Banks 2: Destination London,"Knebworth House, Stevenage, Hertfordshire, England, UK",,"Knebworth, Station Approach, Knebworth, Hertfordshire, East of England, England, SG3 6AT, United Kingdom",51.8670421,-0.187051
206,/title/tt0358349/,Agent Cody Banks 2: Destination London,"Canary Wharf Underground Station, Canary Wharf, Isle of Dogs, London, England, UK",(interiors)                        ,"Adam, Reuters Plaza, Canary Wharf, Isle of Dogs, London Borough of Tower Hamlets, London, Greater London, England, E14 5AJ, United Kingdom",51.5037578,-0.0192977
207,/title/tt0358349/,Agent Cody Banks 2: Destination London,"London, England, UK",,"London, Greater London, England, United Kingdom",51.5073219,-0.1276474
208,/title/tt0071050/,Shazam!,"Burbank, California, USA",,"Burbank, Los Angeles County, California, United States of America",34.1816482,-118.3258554
209,/title/tt0071050/,Shazam!,USA,,United States,39.7837304,-100.4458825
210,/title/tt1525366/,Grabbers,"County Donegal, Ireland",,"County Donegal, Ireland",54.92075415,-7.952385214651309
211,/title/tt1525366/,Grabbers,"Rathlin Island, Co Antrim, Northern Ireland, UK",,"Rathlin Island, County Antrim, Northern Ireland, United Kingdom",55.285834449999996,-6.182911406198522
212,/title/tt2316479/,Blue Iguana,UK,,United Kingdom,54.7023545,-3.2765753
213,/title/tt2316479/,Blue Iguana,"Brooklyn, New York, USA",,"Brooklyn, Kings County, New York, United States of America",40.6501038,-73.9495823
214,/title/tt2316479/,Blue Iguana,"Natural History Museum, London, England, UK",(Initial heist)                        ,"Natural History Museum, Cromwell Road, Brompton, Royal Borough of Kensington and Chelsea, London, Greater London, England, SW7 5BD, United Kingdom",51.496510900000004,-0.17600190725447445
215,/title/tt1407084/,Twelve,"New York City, New York, USA",,"New York, United States of America",40.7127281,-74.0060152
216,/title/tt6138228/,Downrange,"Lebec, California, USA",,"Lebec, Kern County, California, 93243, United States of America",34.8416435,-118.8648189
217,/title/tt0105402/,Sidekicks,"Houston, Texas, USA",(Eleanor Tinsley Park)                        ,"Houston, Harris County, Texas, United States of America",29.7589382,-95.3676974
218,/title/tt0105402/,Sidekicks,"Los Angeles, California, USA",,"Los Angeles, Los Angeles County, California, United States of America",34.0536909,-118.2427666
219,/title/tt0105402/,Sidekicks,"Waterwall - 2800 Post Oak Boulevard, Houston, Texas, USA",,,,
220,/title/tt3083016/,Beverly Hills Cop 4,"Detroit, Michigan, USA",,"Detroit, Wayne County, Michigan, United States of America",42.3315509,-83.0466403
221,/title/tt7131870/,Zhan lang II,South Africa,(location shots)                        ,South Africa,-28.8166236,24.991639
222,/title/tt0119781/,Nick Fury: Agent of Shield,"Gastown, Vancouver, British Columbia, Canada",,"Gastown, Downtown, Vancouver, Metro Vancouver Regional District, British Columbia, V6B 1A1, Canada",49.2836567,-123.1062358
223,/title/tt0119781/,Nick Fury: Agent of Shield,"Vancouver, British Columbia, Canada",,"Vancouver, Metro Vancouver Regional District, British Columbia, Canada",49.2608724,-123.1139529
224,/title/tt1748197/,Setup,"Grand Rapids, Michigan, USA",,"Grand Rapids, Kent County, Michigan, United States of America",42.9632405,-85.6678639
225,/title/tt1748197/,Setup,"Grosse Pointe Park, Michigan, USA",(Dylan's bar)                        ,"Grosse Pointe Park, Wayne County, Michigan, 48230, United States of America",42.3816896,-82.9313655
226,/title/tt1037011/,Ben 10: Race Against Time,"Warner Brothers Burbank Studios - 4000 Warner Boulevard, Burbank, California, USA",,,,
227,/title/tt0096875/,Catchfire,"Albuquerque, New Mexico, USA",,"Albuquerque, Bernalillo County, New Mexico, United States of America",35.0841034,-106.6509851
228,/title/tt0096875/,Catchfire,"Ranchos de Taos, New Mexico, USA",(El Cortez Theatre)                        ,"Ranchos de Taos, Taos County, New Mexico, 87550, United States of America",36.3586972,-105.6093439
229,/title/tt0096875/,Catchfire,"Lindrith, New Mexico, USA",,"Lindrith, Rio Arriba County, New Mexico, United States of America",36.304462,-107.0450425
230,/title/tt0096875/,Catchfire,"Ranchos de Taos, New Mexico, USA",(Post Office)                        ,"Ranchos de Taos, Taos County, New Mexico, 87550, United States of America",36.3586972,-105.6093439
231,/title/tt0096875/,Catchfire,"Ranchos de Taos, New Mexico, USA",(Andy's La Fiesta Saloon)                        ,"Ranchos de Taos, Taos County, New Mexico, 87550, United States of America",36.3586972,-105.6093439
232,/title/tt0096875/,Catchfire,"Rio Grande Gorge Bridge, Taos County, New Mexico, USA",(high bridge over canyon)                        ,"Rio Grande Gorge Bridge, Taos County, New Mexico, 87577, United States of America",36.4762545,-105.7329532
233,/title/tt0096875/,Catchfire,"Los Angeles, California, USA",,"Los Angeles, Los Angeles County, California, United States of America",34.0536909,-118.2427666
234,/title/tt0091981/,Solarbabies,"Davis-Monthan Air Force Base, Tucson, Arizona, USA",,"Davis-Monthan Air Force Base, Yuma Street, Vandenberg Village, Tucson, Pima County, Arizona, 85707-3529, United States of America",32.17079565,-110.86990239630313
235,/title/tt0091981/,Solarbabies,"Madrid, Spain",,"Madrid, Área metropolitana de Madrid y Corredor del Henares, Comunidad de Madrid, 28001, España",40.4167047,-3.7035825
236,/title/tt0091981/,Solarbabies,"Rodalquilar, Almería, Andalucía, Spain",(Unit 43 orphanage and E-police center exterior scenes)                        ,"Rodalquilar, Níjar, Almería, Andalucía, 04115, España",36.8468019,-2.0406035
237,/title/tt0091981/,Solarbabies,"Gádor, Almería, Andalucía, Spain",,"Gádor, Almería, Andalucía, España",36.9530744,-2.491623
238,/title/tt0091981/,Solarbabies,"Desierto de Tabernas, Almería, Andalucía, Spain",(Tiretown set exterior scenes)                        ,"Paraje Natural del Desierto de Tabernas, Gérgal, Almería, Andalucía, España",37.0675509,-2.5294695521144464
239,/title/tt0083467/,The Powers of Matthew Star,"Santa Clarita, California, USA",,"Santa Clarita, Los Angeles County, California, United States of America",34.3916641,-118.542586
240,/title/tt6931414/,Ansisung,"Seoul, South Korea",,"서울, 대한민국",37.5666791,126.9782914
241,/title/tt1582458/,Chase,"Dallas, Texas, USA","(as Houston, Texas)                        ","Dallas, Dallas County, Texas, United States of America",32.7762719,-96.7968559
242,/title/tt9529500/,Kuzgun,"Ürgüp, Nevsehir, Turkey",,"Ürgüp, Nevşehir, İç Anadolu Bölgesi, Türkiye",38.5928197,34.95890200750077
243,/title/tt9529500/,Kuzgun,"Nevsehir, Turkey",,"Nevşehir, İç Anadolu Bölgesi, Türkiye",38.7235072,34.7194168
244,/title/tt4520906/,Beowulf: Return to the Shieldlands,"Weardale, County Durham, England, UK",,"Weardale, 16, Long Acres, Gilesgate, Durham, County Durham, North East England, England, DH1 1JF, United Kingdom",54.78128685,-1.5575420079794213
245,/title/tt5241578/,Hard Target 2,Thailand,,ประเทศไทย,14.8971921,100.83273
246,/title/tt3501112/,Security,Bulgaria,,Бългaрия,42.6073975,25.4856617
247,/title/tt6315800/,Teen Titans: The Judas Contract,"Chicago Illinois, USA",,"Chicago, Cook County, Illinois, United States of America",41.8755616,-87.6244212
248,/title/tt0069121/,Prime Cut,"Calgary, Alberta, Canada",,"Calgary, Strathmore (town), Alberta, Canada",51.0534234,-114.0625892
249,/title/tt0069121/,Prime Cut,"Kansas City, Missouri, USA",,"Kansas City, Jackson County, Missouri, United States of America",39.100105,-94.5781416
250,/title/tt0069121/,Prime Cut,"Chicago, Illinois, USA",,"Chicago, Cook County, Illinois, United States of America",41.8755616,-87.6244212
251,/title/tt0060588/,Khartoum,"Cairo, Egypt",,"القاهرة, Egypt / مصر",30.048819,31.243666
252,/title/tt0060588/,Khartoum,"Al Minyal, Egypt",,,,
253,/title/tt0060588/,Khartoum,"Abu Simbel, Egypt",,"معبد أبو سمبل, شارع المعبد, مدينه ابو سمبل, أبو سنبل, أسوان, Egypt / مصر",22.3370866,31.62580544472133
254,/title/tt0097202/,Dip huet seung hung,"Hong Kong, China",,"香港島 Hong Kong Island, 香港 Hong Kong, China 中国",22.2793278,114.1628131
255,/title/tt0097202/,Dip huet seung hung,"Stanley Beach, Hong Kong, China",(shootout at Sidney's villa)                        ,"赤柱 Stanley, 香港島 Hong Kong Island, 南區 Southern District, 香港 Hong Kong, China 中国",22.2143908,114.2159129
256,/title/tt0097202/,Dip huet seung hung,"Causeway Bay, Hong Kong, China",(Li Ying-Wong Hung chase in a double decker)                        ,"銅鑼灣 Causeway Bay, 灣仔區 Wan Chai District, 香港島 Hong Kong Island, 香港 Hong Kong, China 中国",22.280208,114.1848407
257,Code,Show Name,Location,Scene,"Location, Tucker County, West Virginia, United States of America",39.2138905,-79.6371124
258,/title/tt0288045/,The Medallion,"Dunluce Castle, Bushmills, County Antrim, Northern Ireland, UK",(Snakehead's castle)                        ,,,
259,/title/tt0288045/,The Medallion,Thailand,,ประเทศไทย,14.8971921,100.83273
260,/title/tt0288045/,The Medallion,Ireland,,Éire / Ireland,52.865196,-7.9794599
261,/title/tt0273842/,Motocrossed,"Barona Oaks Motocross Park, 15226 Wildcat Canyon Rd, Ramona, California, USA",(motocross track)                        ,,,
262,/title/tt2229511/,Wer,"Bucharest, Romania",,"Municipiul București, România",44.4361414,26.1027202
263,/title/tt2229511/,Wer,"MediaPro Studios, Bucharest, Romania",,,,
264,/title/tt7238392/,Taxi 5,"Studios de Paris, La Cité du Cinéma, Saint-Denis, Seine-Saint-Denis, France",,,,
265,/title/tt7238392/,Taxi 5,"Marseille, Bouches-du-Rhône, France",,"Marseille, Bouches-du-Rhône, Provence-Alpes-Côte d'Azur, France métropolitaine, 13000, France",43.2961743,5.3699525
266,/title/tt5246902/,Blood Brother,"New Orleans, Louisiana, USA",,"New Orleans, Orleans Parish, Louisiana, United States of America",29.9499323,-90.0701156
267,/title/tt0036323/,Sahara,"Eagle Pass, California, USA",,"Eagle Pass, Tuolumne County, California, United States of America",38.2495372,-119.8282057
268,/title/tt0036323/,Sahara,"Brawley, California, USA",,"Brawley, Imperial County, California, United States of America",32.9786566,-115.530267
269,/title/tt0036323/,Sahara,"Zzyzx, California, USA",,"Zzyzx, San Bernardino County, California, United States of America",35.1427607,-116.1047353
270,/title/tt0036323/,Sahara,"Imperial County, California, USA",(Anza-Borrego Desert State Park)                        ,"Imperial County, California, United States of America",33.0305487,-115.3595666
271,/title/tt0363226/,Zatôichi,"Eiga-mura, Kanami, Kanae-chô, Fukuyama City, Hiroshima, Japan",,,,
272,/title/tt7060460/,Theeran adhigaaram ondru,"Chennai, Tamil Nadu, India",,"சென்னை - Chennai, சென்னை மாவட்டம், Tamil Nadu, India",13.0801721,80.2838331
273,/title/tt7060460/,Theeran adhigaaram ondru,"Jaipur, Rajasthan, India",,"Jaipur, Jaipur Tehsil, Jaipur, Rajasthan, 302001, India",26.916194,75.820349
274,/title/tt7060460/,Theeran adhigaaram ondru,"Bhuj, Gujarat, India",,"Bhuj, Bhuj Taluka, Kutch District, Gujarat, 370001, India",23.2472446,69.668339
275,/title/tt7060460/,Theeran adhigaaram ondru,"Delhi, India",,"Delhi, Kotwali Tehsil, Central Delhi, Delhi, 110006, India",28.6517178,77.2219388
276,/title/tt0118539/,3 Ninjas: High Noon at Mega Mountain,"Elitch Gardens - 4620 W. 38th Avenue, Denver, Colorado, USA",,,,
277,/title/tt0118539/,3 Ninjas: High Noon at Mega Mountain,"Santa Cruz, California, USA",(park establishing shots from the ocean)                        ,"Santa Cruz County, California, United States of America",37.050096,-121.9905908
278,/title/tt1783232/,Fetih 1453,"Istanbul, Turkey",,"İstanbul, Beyazıt Meydanı, Beyazıt Mahallesi, Fatih, İstanbul, Marmara Bölgesi, 34126, Türkiye",41.0096215,28.9651867
279,/title/tt2044801/,Kite,South Africa,,South Africa,-28.8166236,24.991639
280,/title/tt0244000/,American Outlaws,"Fort De Soto Park - 3500 Pinellas Bayway S., Tierra Verde, Florida, USA",,,,
281,/title/tt0244000/,American Outlaws,"Austin, Texas, USA",,"Austin, Travis County, Texas, United States of America",30.2711286,-97.7436995
282,/title/tt0244000/,American Outlaws,"Bastrop, Texas, USA",,"Bastrop County, Texas, United States of America",30.0900753,-97.3127179
283,/title/tt0244000/,American Outlaws,"San Antonio, Texas, USA",,"San Antonio, Bexar County, Texas, United States of America",29.4246002,-98.4951405
284,/title/tt2960930/,Extraterrestrial,"Port McNeill, British Columbia, Canada",,"Port McNeill, Regional District of Mount Waddington, British Columbia, V0N 2R0, Canada",50.5893452,-127.0839027
285,/title/tt6076226/,Rise of the Footsoldier 3,"Southend-on-Sea, Essex, England, UK",,"Southend, Rochford, Essex, East of England, England, SS4, United Kingdom",51.57036905,0.708620337888284
286,/title/tt6076226/,Rise of the Footsoldier 3,"London, England, UK",,"London, Greater London, England, United Kingdom",51.5073219,-0.1276474
287,/title/tt6076226/,Rise of the Footsoldier 3,"Bromley, Kent, England, UK",,"Bromley Green, Ashford, Kent, South East, England, TN26 2EG, United Kingdom",51.0938993,0.8528776
288,/title/tt6076226/,Rise of the Footsoldier 3,"Jack's Hatch Garage, Epping Green Road, Epping Green, Essex, England, UK",(Pat attacks a man at the petrol station)                        ,"Jack's Hatch, Epping Forest, Essex, East of England, England, CM16 6PZ, United Kingdom",51.7393979,0.0750684
289,/title/tt2309961/,Afflicted,"Vernazza, Liguria, Italy",,"Vernazza, La Spezia, Liguria, Italia",44.1349412,9.6827757
290,/title/tt2309961/,Afflicted,"Paris, France",,"Paris, Île-de-France, France métropolitaine, France",48.8566969,2.3514616
291,/title/tt2309961/,Afflicted,"Vancouver, British Columbia, Canada",,"Vancouver, Metro Vancouver Regional District, British Columbia, Canada",49.2608724,-123.1139529
292,/title/tt7730102/,Big Kill,"El Rancho de las Golandrinas, Santa Fe, New Mexico, USA",,,,
293,/title/tt7730102/,Big Kill,"Ghost Ranch, Abiquiu, New Mexico, USA",,,,
294,/title/tt1480295/,Killing Season,"Tallulah Falls, Georgia, USA",,"Tallulah Falls, Habersham County, Georgia, United States of America",34.726157799999996,-83.37685032466817
295,/title/tt1480295/,Killing Season,"Mountain City, Georgia, USA",,"Mountain City, Rabun County, Georgia, 30562, United States of America",34.9181473,-83.3854359
296,/title/tt1480295/,Killing Season,"Nu Boyana Film Studios, Sofia, Bulgaria",(studio)                        ,,,
297,/title/tt1480295/,Killing Season,USA,,United States,39.7837304,-100.4458825
298,/title/tt0865907/,Into the Blue 2: The Reef,"Honolulu, O'ahu, Hawaii, USA",,,,
299,/title/tt1182921/,Ninja,"New Boyana Film Studios, Sofia, Bulgaria",,,,
300,/title/tt1182921/,Ninja,Bulgaria,,Бългaрия,42.6073975,25.4856617
301,/title/tt0087065/,Cloak & Dagger,"River Walk, San Antonio, Texas, USA","(Davey under table, boat ride, final chase and shootout)                        ","River Walk, East Crockett Street, Downtown, San Antonio, Bexar County, Texas, 78205, United States of America",29.42327155,-98.49179042933488
302,/title/tt0087065/,Cloak & Dagger,"St. Mary's St, and E Nueva St, San Antonio, Texas, USA",(Davey and Kim exit bus on Textronics mission)                        ,,,
303,/title/tt0087065/,Cloak & Dagger,"3812 N St. Mary's St, San Antonio, Texas, USA",(Kim and Davey flee down stony slope to bus outside Sunken Garden)                        ,"3812, North Saint Mary's Street, Saint Mary's Strip, San Antonio, Bexar County, Texas, 78212, United States of America",29.460432567435152,-98.47612160449111
304,/title/tt0087065/,Cloak & Dagger,"The GameKeeper, Glendale Galleria, Glendale, California, USA",(interiors)                        ,,,
305,/title/tt0087065/,Cloak & Dagger,"Broadway St., San Antonio, Texas, USA",(Bus ride after escape from Sunken Gardens)                        ,"Broadway Street, S and C Colonia, Sebastian, Willacy County, Texas, 78594, United States of America",26.343749,-97.791073
306,/title/tt0087065/,Cloak & Dagger,"Backlot, Universal Studios - 100 Universal City Plaza, Universal City, California, USA",(Jack Flack opening foreign operation scene)                        ,,,
307,/title/tt0087065/,Cloak & Dagger,"Texas, USA",,"Texas, United States of America",31.8160381,-99.5120986
308,/title/tt0087065/,Cloak & Dagger,"Square of Warriors, Backlot, Universal Studios - 100 Universal City Plaza, Universal City, California, USA",,,,
309,/title/tt0174388/,The Famous Jett Jackson,"Brooklin, Ontario, Canada",,"Brooklin, Whitby, Durham Region, Golden Horseshoe, Ontario, L1M 1A2, Canada",43.9587134,-78.9600543
310,/title/tt2212008/,The Bag Man,"Long Island, New York, USA",(Dragna's home)                        ,"Long Island, Suffolk County, New York, United States of America",40.85172235,-73.09921882199973
311,/title/tt2212008/,The Bag Man,"New York City, New York, USA",(end of film)                        ,"New York, United States of America",40.7127281,-74.0060152
312,/title/tt0089243/,Gymkata,Yugoslavia,,"Yugoslavia, Parroquia Santa Clara, Municipio José Gregorio Monagas, Anzoátegui, Región Nororiental, Venezuela",8.1939477,-64.5043374
313,/title/tt7946836/,Dong wu shi jie,"Beijing, China",,"北京市, 东城区, 北京市, 100010, China 中国",39.906217,116.3912757
314,/title/tt6890582/,Yeom-lyeok,"Chuncheon, Gangwon Province, South Korea",,"춘천시, 강원도, 24267, 대한민국",37.8810569,127.7297641
315,/title/tt7095654/,Dokjeon,South Korea,,대한민국,36.638392,127.6961188
316,/title/tt3391046/,Quantum Break,"Ivan Allen Jr Blvd NW, Atlanta, Georgia, USA",(Liam Burke's car racing in Act 1 episode)                        ,"Ivan Allen Jr Boulevard, Atlanta, Georgia, 30308-3217, United States of America",33.764828,-84.386717
317,/title/tt3391046/,Quantum Break,"1716 Rogers Avenue Southwest, Atlanta, Georgia, USA",(Liam Burke's house)                        ,"1716, Rogers Avenue Southwest, Westview, Atlanta, Georgia, 30310, United States of America",33.73704555,-84.4438576858467
318,/title/tt1928330/,Bad Ass,"Los Angeles, California, USA",,"Los Angeles, Los Angeles County, California, United States of America",34.0536909,-118.2427666
319,/title/tt4870838/,Batman: Bad Blood,"Chicago Illinois, USA",(Gotham City)                        ,"Chicago, Cook County, Illinois, United States of America",41.8755616,-87.6244212
320,/title/tt6836936/,Saaho,Europe,(location)                        ,Europa,51.0,10.0
321,/title/tt6836936/,Saaho,Abu Dhabi,(on location)                        ,"أبوظبي, أبو ظبي, United Arab Emirates",24.4747961,54.3705762
322,/title/tt0124901/,Thursday,"Los Angeles, California, USA",,"Los Angeles, Los Angeles County, California, United States of America",34.0536909,-118.2427666
323,Code,Show Name,Location,Scene,"Location, Tucker County, West Virginia, United States of America",39.2138905,-79.6371124
324,/title/tt3014078/,Shangri-La Suite,"Los Angeles, California, USA",(location)                        ,"Los Angeles, Los Angeles County, California, United States of America",34.0536909,-118.2427666
325,/title/tt4831420/,Sharknado 4: The 4th Awakens,"Santa Clarita, California, USA",,"Santa Clarita, Los Angeles County, California, United States of America",34.3916641,-118.542586
326,/title/tt4831420/,Sharknado 4: The 4th Awakens,"Niagara Falls, New York, USA",,"Niagara Falls, Niagara County, New York, United States of America",43.08436,-79.0614686
327,/title/tt0107668/,Nemesis,"Hawai'i Volcanoes National Park, Hawaii, USA",,"Hawai'i Volcanoes National Park, Hawaiʻi County, Hawaii, 96718, United States of America",19.3031881,-155.24050212165105
328,/title/tt0107668/,Nemesis,"Old Tucson - 201 S. Kinney Road, Tucson, Arizona, USA",,"Old Tucson, 201, Kinney Road, Tucson Estates, Pima County, Arizona, 85735, United States of America",32.2186224,-111.1300273
329,/title/tt0107668/,Nemesis,"Arizona, USA",,"Arizona, United States of America",34.395342,-111.7632755
330,/title/tt0107668/,Nemesis,USA,,United States,39.7837304,-100.4458825
331,/title/tt0107668/,Nemesis,"Yuma Territorial Prison State Park - 206 N. Fourth Avenue, Yuma, Arizona, USA",,,,
332,/title/tt0113972/,Nick of Time,"Westin Bonaventure Hotel & Suites - 404 S. Figueroa Street, Downtown, Los Angeles, California, USA",,,,
333,/title/tt0113972/,Nick of Time,"Los Angeles, California, USA",,"Los Angeles, Los Angeles County, California, United States of America",34.0536909,-118.2427666
334,/title/tt1020885/,Lesbian Vampire Killers,"Luton Hoo Estate, Luton, Bedfordshire, England, UK",,,,
335,/title/tt0461936/,Don,"Langkawi Cable Car, Langkawi Island, Malaysia",,"Kerata Kabel, Segway Track, Teluk Burau, Oriental Village, Langkawi, Kedah, Malaysia",6.371261,99.6716402
336,/title/tt0461936/,Don,"Petronas Twin Towers, Kuala Lumpur, Malaysia",,"Menara Berkembar Petronas, Pedestrian Tunnel KLCC-KL Convention Center, Bukit Bintang, Kuala Lumpur, 50088, Malaysia",3.1579678500000004,101.71120482350457
337,/title/tt0838232/,The Pink Panther 2,"Boston, Massachusetts, USA",,"Boston, Suffolk County, Massachusetts, United States of America",42.3602534,-71.0582912
338,/title/tt0838232/,The Pink Panther 2,"Winchester, Massachusetts, USA",,"Winchester, Middlesex County, Massachusetts, United States of America",42.4523178,-71.1369982
339,/title/tt0838232/,The Pink Panther 2,"Chelsea, Massachusetts, USA",,"Chelsea, Suffolk County, Massachusetts, 02150, United States of America",42.3917638,-71.0328284
340,/title/tt0838232/,The Pink Panther 2,"Trenton, New Jersey, USA",,"Trenton, Mercer County, New Jersey, United States of America",40.2170575,-74.7429463
341,/title/tt0838232/,The Pink Panther 2,"Westwood, Massachusetts, USA",,"Westwood, Norfolk County, Massachusetts, 02090-1444, United States of America",42.2139873,-71.2244987
342,/title/tt0115351/,The Sentinel,"Vancouver, British Columbia, Canada",,"Vancouver, Metro Vancouver Regional District, British Columbia, Canada",49.2608724,-123.1139529
343,/title/tt0284490/,Showtime,"Westin Bonaventure Hotel & Suites - 404 S. Figueroa Street, Downtown, Los Angeles, California, USA",,,,
344,/title/tt0276816/,Below,"Muskegon, Michigan, USA",,"Muskegon, Muskegon County, Michigan, United States of America",43.2341813,-86.2483921
345,/title/tt0276816/,Below,"London, England, UK",,"London, Greater London, England, United Kingdom",51.5073219,-0.1276474
346,/title/tt0276816/,Below,UK,,United Kingdom,54.7023545,-3.2765753
347,/title/tt7149916/,Edge of Fear,"Conyers, Georgia, USA",(Cabin)                        ,"Conyers, Rockdale County, Georgia, 30013-2028, United States of America",33.6676103,-84.0176904
348,/title/tt0144964/,Highlander: Endgame,"Bucharest, Romania",,"Municipiul București, România",44.4361414,26.1027202
349,/title/tt0144964/,Highlander: Endgame,"Appin, Argyll and Bute, Scotland, UK",,"Appin, Port Appin, Argyll and Bute, Scotland, PA38 4DB, United Kingdom",56.5622142,-5.3605993
350,/title/tt0144964/,Highlander: Endgame,"Castle Stalker, Appin, Argyll and Bute, Scotland, UK",,"Castle Stalker, A828, Portnacroish, Port Appin, Argyll and Bute, Scotland, PA38 4BH, United Kingdom",56.571554899999995,-5.386109373894546
351,/title/tt0144964/,Highlander: Endgame,"Millennium Dome, Greenwich, London, England, UK",,"The O2, Peninsula Square, Greenwich Peninsula, Royal Borough of Greenwich, London, Greater London, England, SE10 0DX, United Kingdom",51.502931200000006,0.0031968368061770624
352,/title/tt0144964/,Highlander: Endgame,France,,France,46.603354,1.8883335
353,/title/tt0144964/,Highlander: Endgame,"Loch Laich, Appin, Argyll and Bute, Scotland, UK",,,,
354,/title/tt0144964/,Highlander: Endgame,"New York City, New York, USA",,"New York, United States of America",40.7127281,-74.0060152
355,/title/tt0144964/,Highlander: Endgame,"Scotland, UK",,"Scotland, United Kingdom",56.7861112,-4.1140518
356,/title/tt3477480/,Sadece Sen,"Istanbul, Turkey",(location)                        ,"İstanbul, Beyazıt Meydanı, Beyazıt Mahallesi, Fatih, İstanbul, Marmara Bölgesi, 34126, Türkiye",41.0096215,28.9651867
357,/title/tt0110948/,Raw Justice,"Mobile, Alabama, USA",,"Mobile, Mobile County, Alabama, United States of America",30.6943566,-88.0430541
358,/title/tt1381418/,You May Not Kiss the Bride,"O'ahu, Hawaii, USA",,"Oʻahu, Mililani, Honolulu County, Hawaii, United States of America",21.48349555,-158.03640389298
359,/title/tt1381418/,You May Not Kiss the Bride,"Chicago, Illinois, USA",,"Chicago, Cook County, Illinois, United States of America",41.8755616,-87.6244212
360,/title/tt9382596/,The Car: Road to Revenge,Bulgaria,,Бългaрия,42.6073975,25.4856617
361,/title/tt0411475/,Hell Ride,"Santa Clarita, California, USA",,"Santa Clarita, Los Angeles County, California, United States of America",34.3916641,-118.542586
362,/title/tt1319743/,Smokin' Aces 2: Assassins' Ball,"Vancouver, British Columbia, Canada",,"Vancouver, Metro Vancouver Regional District, British Columbia, Canada",49.2608724,-123.1139529
363,/title/tt1319743/,Smokin' Aces 2: Assassins' Ball,"Dr. Sun Yat Sen Garden - 578 Carrall St, Vancouver, British Columbia, Canada",,,,
364,/title/tt1319743/,Smokin' Aces 2: Assassins' Ball,"Riverview Hospital, Coquitlam, British Columbia, Canada",,,,
365,/title/tt0091431/,Armour of God,"Motovun, Croatia",,"Motovun, Općina Motovun, Istarska županija, 52424, Hrvatska",45.3367292,13.8282067
366,/title/tt0091431/,Armour of God,"Postojna, Slovenia","(Monk monastery, exterior)                        ","Postojna, Slovenija",45.7752438,14.2117877
367,/title/tt0091431/,Armour of God,"Vienna, Austria",,"Wien, 1010, Österreich",48.2083537,16.3725042
368,/title/tt0091431/,Armour of God,Spain,,España,39.3262345,-4.8380649
369,/title/tt0091431/,Armour of God,"Paris, France",,"Paris, Île-de-France, France métropolitaine, France",48.8566969,2.3514616
370,/title/tt5969696/,Gunhamdo,"Cheongju, South Korea",,"청주시, 충청북도, 대한민국",36.6421169,127.4891742
371,/title/tt1059455/,Li Xiao Long chuan qi,"Foshan, Guangdong, China",,"佛山市, 广东省, China 中国",23.0247687,113.1146335
372,/title/tt1059455/,Li Xiao Long chuan qi,"Los Angeles, California, USA",,"Los Angeles, Los Angeles County, California, United States of America",34.0536909,-118.2427666
373,/title/tt1059455/,Li Xiao Long chuan qi,"Moscow, Russia",,"Москва, Центральный административный округ, Москва, Центральный федеральный округ, Россия",55.7504461,37.6174943
374,/title/tt1059455/,Li Xiao Long chuan qi,"Rome, Lazio, Italy",,"Roma Capitale, Lazio, Italia",41.85223935,12.631036615953583
375,/title/tt1059455/,Li Xiao Long chuan qi,Thailand,,ประเทศไทย,14.8971921,100.83273
376,/title/tt11791146/,Search and Destroy,Bulgaria,,Бългaрия,42.6073975,25.4856617
377,/title/tt0471041/,The Tournament,Bulgaria,,Бългaрия,42.6073975,25.4856617
378,/title/tt0471041/,The Tournament,"Merseyside, England, UK",,"Merseyside, Netherton, Sefton, North West England, England, United Kingdom",53.4953602,-2.973937960086006
379,/title/tt0471041/,The Tournament,"Frederick Street, South Shields, Tyne & Wear, England, UK",(Pub externals)                        ,"Frederick Street, Tyne Dock, Westoe, South Tyneside, Tyne and Wear, North East England, England, NE33 5RF, United Kingdom",54.9890618,-1.4374028
380,/title/tt4591310/,Xi you ji zhi: Sun Wukong san da Baigu Jing,China,,中国,35.000074,104.999927
381,/title/tt11456054/,Run Hide Fight,"Red Oak, Texas, USA",,"Red Oak, Ellis County, Texas, 75154, United States of America",32.5117104,-96.80836332870047
382,/title/tt0090660/,Armed and Dangerous,"Deja Vu Showgirls - 6315 Hollywood Boulevard, Hollywood, Los Angeles, California, USA",(XXX adult theater)                        ,,,
383,/title/tt0090660/,Armed and Dangerous,"6312 Hollywood Boulevard - Los Angeles, California, USA",(Electronics store where Dooley gets framed for burglary)                        ,"6312, Hollywood Boulevard, Whitley Heights Historic District, Hollywood, Los Angeles, Los Angeles County, California, 90028, United States of America",34.10153709090909,-118.32715118181818
384,/title/tt0090660/,Armed and Dangerous,"1829 North Edgemont Street, Los Angeles, California, USA",(Frank Dooley's House)                        ,"1829, Edgemont Street, Los Feliz, Los Angeles, Los Angeles County, California, 90027, United States of America",34.10407734343434,-118.29626140404041
385,/title/tt0090660/,Armed and Dangerous,"210 South Santa Fe Avenue, Los Angeles, California, USA",(Kane forces Lazerus and Kepler off the road)                        ,"210, Santa Fe Avenue, Compton, Los Angeles County, California, 90221, United States of America",33.89691320134228,-118.2157441409396
386,/title/tt0090660/,Armed and Dangerous,"450 South Santa Fe Avenue, Los Angeles, California, USA",(Fiery crash)                        ,"450, Santa Fe Avenue, Arts District, Downtown, Los Angeles, Los Angeles County, California, 90013, United States of America",34.041914,-118.232544
387,/title/tt0090660/,Armed and Dangerous,"Pioneer Chicken - 6720 Hollywood Boulevard - Los Angeles, California, USA",(Dooley patrolling)                        ,,,
388,/title/tt0090660/,Armed and Dangerous,"2614 West 7th Street - Los Angeles, California, USA",(Guard Dog Security; demolished)                        ,"West 7th Street, Financial District, Downtown, Los Angeles, Los Angeles County, California, 90017, United States of America",34.0496885,-118.2608467
389,/title/tt0090660/,Armed and Dangerous,"8148 Sunset Boulevard - West Hollywood, California, USA",(The Sport Pit; Bruno's gym;no longer in business)                        ,"Sunset Boulevard, East Hollywood, Los Angeles, Los Angeles County, California, 90029-2105, United States of America",34.093598,-118.2816582
390,/title/tt0090660/,Armed and Dangerous,"N Las Palmas ave & Hollywood Blvd, Hollywood, California, USA",(opening sequence where cops are making an arrest; George's Hamburgers & Hollytron in the background)                        ,"North Las Palmas Avenue, Whitley Heights Historic District, Hollywood, Los Angeles, Los Angeles County, California, 90028, United States of America",34.1031813,-118.3361848
391,/title/tt0090660/,Armed and Dangerous,"630 5th st, Los Angeles, California, USA",(Lazerus and Kepler are parked & waiting for Kane & Maggie to exit building directly across the street with the money)                        ,"630, West Mission Boulevard, Edison Historic District, Pomona, Los Angeles County, California, 91766, United States of America",34.05488187755102,-117.7558820612245
392,/title/tt0090660/,Armed and Dangerous,"Malibu Pier, Malibu, California, USA",(Dooley & Kane visits Dooley friend at the Malibu Pier)                        ,"Malibu Pier, Pacific Coast Highway, Malibu Beach, Malibu, Los Angeles County, California, 90265-4797, United States of America",34.03643435,-118.67613846739212
393,/title/tt2262383/,Vegas,"Las Vegas, Nevada, USA",,"Las Vegas, Clark County, Nevada, United States of America",36.1672559,-115.1485163
394,/title/tt2262383/,Vegas,"Los Angeles, California, USA",(episodes after pilot)                        ,"Los Angeles, Los Angeles County, California, United States of America",34.0536909,-118.2427666
395,/title/tt2262383/,Vegas,"Santa Clarita, California, USA",,"Santa Clarita, Los Angeles County, California, United States of America",34.3916641,-118.542586
396,/title/tt8237172/,Gundala,"Jakarta, Indonesia",,"Daerah Khusus Ibukota Jakarta, Indonesia",-6.1753942,106.827183
397,/title/tt0108983/,Viper,"Los Angeles, California, USA",(1st season)                        ,"Los Angeles, Los Angeles County, California, United States of America",34.0536909,-118.2427666
398,/title/tt0108983/,Viper,"Vancouver, British Columbia, Canada",(2nd season)                        ,"Vancouver, Metro Vancouver Regional District, British Columbia, Canada",49.2608724,-123.1139529
399,/title/tt0108983/,Viper,"Black Diamond, Alberta, Canada",,"Black Diamond, Town of Black Diamond, Alberta, T0L 0H0, Canada",50.687795,-114.2335483
400,/title/tt0108983/,Viper,"Convocation Mall, Simon Fraser University, Burnaby, British Columbia, Canada",,,,
401,/title/tt0108983/,Viper,"Vancouver, British Columbia, Canada",,"Vancouver, Metro Vancouver Regional District, British Columbia, Canada",49.2608724,-123.1139529
402,/title/tt0365675/,The Red Baron,Czech Republic,,Česko,49.8167003,15.4749544
403,/title/tt0365675/,The Red Baron,"Prague Studios, Prague, Czech Republic",(studio)                        ,,,
404,/title/tt0365675/,The Red Baron,France,,France,46.603354,1.8883335
405,Code,Show Name,Location,Scene,"Location, Tucker County, West Virginia, United States of America",39.2138905,-79.6371124
406,/title/tt0073906/,The Wind and the Lion,"La Calahorra, Granada, Andalucía, Spain",(El Raisuli's fort)                        ,"La Calahorra, Comarca de Guadix, Granada, Andalucía, 18512, España",37.1814745,-3.0640503
407,/title/tt0073906/,The Wind and the Lion,"Andalucía, Spain",,"Andalucía, España",37.3399964,-4.5811614
408,/title/tt0073906/,The Wind and the Lion,"Cabo de Gata, Almería, Andalucía, Spain",,"Cabo de Gata, AL-3115, La Fabriquilla, Níjar, Almería, Andalucía, España",36.7210296,-2.1932327
409,/title/tt0073906/,The Wind and the Lion,"Almería, Andalucía, Spain",,"Almería, Andalucía, España",36.8414197,-2.4628135
410,/title/tt0073906/,The Wind and the Lion,"Real Alcázar, Seville, Andalucia, Spain",(Sultan's palace)                        ,"real alcazar, Patio de Banderas, Santa Cruz, Casco Antiguo, Sevilla, Andalucía, 41004, España",37.3840154,-5.9911316
411,/title/tt0073906/,The Wind and the Lion,"Almería, Almería, Andalucía, Spain",,"Almería, Andalucía, España",36.8414197,-2.4628135
412,/title/tt0073906/,The Wind and the Lion,"Gergal, Almeria, Andalucia, Spain",(Raisuli's tent)                        ,"Gérgal, Almería, Andalucía, España",37.118565,-2.5395634
413,/title/tt0073906/,The Wind and the Lion,"Playa de Monsul, Cabo de Gata, Almería, Andalucía, Spain",,,,
414,/title/tt0073906/,The Wind and the Lion,"Genovese Beach, San José, Almería, Andalucía, Spain",,,,
415,/title/tt0108903/,ReBoot,"Vancouver, British Columbia, Canada",,"Vancouver, Metro Vancouver Regional District, British Columbia, Canada",49.2608724,-123.1139529
416,/title/tt0108903/,ReBoot,"Calgary, Alberta, Canada",,"Calgary, Strathmore (town), Alberta, Canada",51.0534234,-114.0625892
417,/title/tt1121628/,Power Rangers Jungle Fury,"Auckland, New Zealand",,"Auckland, 1010, New Zealand",-36.852095,174.7631803
418,/title/tt1121628/,Power Rangers Jungle Fury,New Zealand,,New Zealand / Aotearoa,-41.5000831,172.8344077
419,/title/tt0108258/,Surf Ninjas,"Chiang Mai, Thailand",(Patu San)                        ,"เชียงใหม่, จังหวัดเชียงใหม่, 4452, ประเทศไทย",18.790876,98.988048
420,/title/tt0108258/,Surf Ninjas,"Phuket, Thailand",(Patu San)                        ,"จังหวัดภูเก็ต, ประเทศไทย",7.9366015,98.3529292
421,/title/tt0108258/,Surf Ninjas,"Chinatown, Los Angeles, California, USA",(Little Patu San)                        ,"Chinatown, Los Angeles, Los Angeles County, California, 90012, United States of America",34.0638402,-118.2358676
422,/title/tt0108258/,Surf Ninjas,"Santa Monica Pier, Santa Monica, California, USA",(nighttime park scene)                        ,"Santa Monica Pier, Santa Monica, Los Angeles County, California, United States of America",34.00889605,-118.49740225045329
423,/title/tt0108258/,Surf Ninjas,"Manhattan Beach, California, USA",,"Manhattan Beach, Los Angeles County, California, 90266, United States of America",33.8915985,-118.3951241
424,/title/tt0108258/,Surf Ninjas,Thailand,,ประเทศไทย,14.8971921,100.83273
425,/title/tt0077278/,Buck Rogers in the 25th Century,"Westin Bonaventure Hotel & Suites - 404 S. Figueroa Street, Downtown, Los Angeles, California, USA",,,,
426,/title/tt1245112/,[Rec]²,"Barcelona, Catalonia, Spain",,"Barcelona, Barcelonès, Catalunya, 08001, España",41.3828939,2.1774322
427,/title/tt0129695/,The Magnificent Seven,"Mescal, Arizona, USA",(Pilot)                        ,"Mescal, Cochise County, Arizona, United States of America",31.9900824,-110.4353531
428,/title/tt0129695/,The Magnificent Seven,"Sonoran Desert, Arizona, USA",,"Sonoran Desert, Bates Well Road, Pima County, Arizona, United States of America",32.2598642,-112.9262583
429,/title/tt0129695/,The Magnificent Seven,"Melody Ranch - 24715 Oak Creek Avenue, Newhall, California, USA",,,,
430,/title/tt0129695/,The Magnificent Seven,"St. David, Arizona, USA",,"St. David, Saint David, Cochise County, Arizona, 85639, United States of America",31.893851,-110.22081081642511
431,/title/tt0129695/,The Magnificent Seven,"San Pedro River, Arizona, USA",,"San Pedro River, Cochise County, Arizona, 85192, United States of America",32.0727296,-110.3371155
432,/title/tt0129695/,The Magnificent Seven,"Los Angeles, California, USA",,"Los Angeles, Los Angeles County, California, United States of America",34.0536909,-118.2427666
433,/title/tt0102800/,Robot Jox,"Empire Studios, Rome, Lazio, Italy",,,,
434,/title/tt0119695/,Money Talks,"Frontier Hotel - 111 W. 5th Street, Los Angeles, California, USA",,,,
435,/title/tt0119695/,Money Talks,"1st Street Viaduct, Los Angeles, California, USA",,"1st St Viaduct, East 1st Street, Arts District, Downtown, Los Angeles, Los Angeles County, California, 90013, United States of America",34.0481941,-118.2323909
436,/title/tt0119695/,Money Talks,"Pantages Theater - 6233 Hollywood Blvd., Hollywood, Los Angeles, California, USA",,"Pantages Theater, Walk of Fame, Whitley Heights Historic District, Hollywood, Los Angeles, Los Angeles County, California, 90028-5420, United States of America",34.1022047,-118.32576733237735
437,/title/tt0119695/,Money Talks,"1st Street Bridge, Los Angeles, California, USA",,"1st Street, Long Beach Boulevard, Long Beach, Los Angeles County, California, 90802, United States of America",33.7687147,-118.1893988
438,/title/tt0119695/,Money Talks,"Beverly Hills, California, USA",,"Beverly Hills, Los Angeles County, California, United States of America",34.0696501,-118.3963062
439,/title/tt0104391/,Hard Hunted,"Coconino National Forest, Arizona, USA",,"Coconino National Forest, Tempe Camp, Coconino County, Arizona, United States of America",34.9455958,-111.4330018089496
440,/title/tt0104391/,Hard Hunted,"Sky Harbor Airport - 3400 E. Sky Harbor Boulevard, Phoenix, Arizona, USA",,,,
441,/title/tt0104391/,Hard Hunted,"Las Vegas, Nevada, USA",,"Las Vegas, Clark County, Nevada, United States of America",36.1672559,-115.1485163
442,/title/tt2006374/,Copper,"Toronto, Ontario, Canada",,"Toronto, Peel, Golden Horseshoe, Ontario, Canada",43.6534817,-79.3839347
443,/title/tt1988591/,Death Race: Inferno,South Africa,,South Africa,-28.8166236,24.991639
444,/title/tt1104123/,The Scorpion King 2: Rise of a Warrior,"Atlantis, Western Cape, South Africa",,"Atlantis, City of Cape Town, Western Cape, South Africa",-33.5672222,18.5002778
445,/title/tt1104123/,The Scorpion King 2: Rise of a Warrior,"Epping, Cape Town, Western Cape, South Africa",,"Epping Industria 1, Cape Town, City of Cape Town, Western Cape, South Africa",-33.9333695,18.534577
446,/title/tt2330866/,Dodookdeul,"Seoul, South Korea",,"서울, 대한민국",37.5666791,126.9782914
447,/title/tt2330866/,Dodookdeul,"Hong Kong, China",,"香港島 Hong Kong Island, 香港 Hong Kong, China 中国",22.2793278,114.1628131
448,/title/tt3480556/,A Good Man,Romania,,România,45.9852129,24.6859225
449,/title/tt0399102/,Gojira: Fainaru uôzu,"Broken Hill, New South Wales, Australia",(Arizona scenes)                        ,"Broken Hill, Broken Hill City Council, New South Wales, 2880, Australia",-31.965,141.4511111
450,/title/tt0399102/,Gojira: Fainaru uôzu,Egypt,,مصر,26.2540493,29.2675469
451,/title/tt0399102/,Gojira: Fainaru uôzu,"New York City, New York, USA",,"New York, United States of America",40.7127281,-74.0060152
452,/title/tt0399102/,Gojira: Fainaru uôzu,"Paris, France",,"Paris, Île-de-France, France métropolitaine, France",48.8566969,2.3514616
453,/title/tt0399102/,Gojira: Fainaru uôzu,"Sydney Harbour Bridge, Sydney, New South Wales, Australia",,"Sydney Harbour Bridge, Olympic Drive, Kirribilli, Lower North Shore, North Sydney Council, New South Wales, 2061, Australia",-33.85225755,151.21069310558983
454,/title/tt0399102/,Gojira: Fainaru uôzu,"Sydney, New South Wales, Australia",(principal New York scenes)                        ,"Sydney, New South Wales, Australia",-33.8548157,151.2164539
455,/title/tt0399102/,Gojira: Fainaru uôzu,"Vancouver, British Columbia, Canada",,"Vancouver, Metro Vancouver Regional District, British Columbia, Canada",49.2608724,-123.1139529
456,/title/tt1032751/,The Warrior's Way,"Henderson Valley Studios, Hickory Avenue, Henderson, Auckland, New Zealand",(studio)                        ,,,
457,/title/tt1674782/,The Karate Kid 2,"Mumbai, Maharashtra, India",,"Mumbai, Mumbai City, Maharashtra, India",18.9387711,72.8353355
458,/title/tt0339135/,In Hell,Bulgaria,,Бългaрия,42.6073975,25.4856617
459,/title/tt0094961/,Dead Heat,"Japanese Garden, Donald C. Tillman Water Reclamation Plant - 6100 Woodley Avenue, Van Nuys, Los Angeles, California, USA",,,,
460,/title/tt7721946/,Housefull 4,"Blenheim Palace, Woodstock, Oxfordshire, England, UK",(location)                        ,"Blenheim Palace, Grand Bridge, Blenheim, West Oxfordshire, Oxfordshire, South East, England, OX20 1PX, United Kingdom",51.841967249999996,-1.3625986224673587
461,/title/tt7721946/,Housefull 4,"London, England, UK",(location)                        ,"London, Greater London, England, United Kingdom",51.5073219,-0.1276474
462,/title/tt1214962/,Seeking Justice,"Superdome - 1500 Poydras Street, New Orleans, Louisiana, USA",,,,
463,/title/tt1214962/,Seeking Justice,"New Orleans, Louisiana, USA",,"New Orleans, Orleans Parish, Louisiana, United States of America",29.9499323,-90.0701156
464,/title/tt1352388/,Nude Nuns with Big Guns,"Highland, California, USA",,"Highland, San Bernardino County, California, United States of America",34.1283442,-117.2086513
465,/title/tt0106819/,Enemy Gold,"Cowboy's - 1003 Gould Dr, Bossier City, Los Angeles, California, USA",(enemy base of operations)                        ,,,
466,/title/tt0106819/,Enemy Gold,"Bossier City, Louisiana, USA",,"Bossier City, Bossier Parish, Louisiana, United States of America",32.5369356,-93.6952689
467,/title/tt0106819/,Enemy Gold,"Ramada Inn, Bossier City, Louisiana, USA",,,,
468,/title/tt0106819/,Enemy Gold,"Shreveport, Louisiana, USA",(bedroom scene)                        ,"Shreveport, Caddo Parish, Louisiana, United States of America",32.5221828,-93.7651944
469,/title/tt6681686/,Alex,"Gothenburg, Västra Götalands län, Sweden",,"Göteborg, Göteborgs Stad, Västra Götalands län, Götaland, 41106, Sverige",57.7072326,11.9670171
470,/title/tt3627704/,Phantasm: Ravager,"Crestline, California, USA",,"Crestline, Jupiter Way, Skyland, San Bernardino County, California, 92325, United States of America",34.2495525,-117.29389561188812
471,/title/tt12416066/,Robot Riot,"Ghost Town of Maud, Oklahoma, USA",(location)                        ,,,
472,/title/tt1321869/,The Lovers,"Pinewood Studios, Iver Heath, Buckinghamshire, England, UK",(studio)                        ,"Pinewood Studios, Pinewood Green, Iver, Iver Heath, Buckinghamshire, South East, England, SL0 0QJ, United Kingdom",51.54831515,-0.5346765566753087
473,/title/tt1321869/,The Lovers,"Gwalior, Madhya Pradesh, India",,"Gwalior, Maharani LaxhmiBai Marg, Gwalior, Gwalior Tahsil, Gwalior, Madhya Pradesh, 474001, India",26.2037247,78.1573628
474,/title/tt1321869/,The Lovers,"Bryants Lane Quarry, Heath and Reach, Bedfordshire, England, UK",,,,
475,/title/tt1321869/,The Lovers,"Mount Tamborine, Queensland, Australia",,"Mount Tamborine, Scenic Rim Regional, Queensland, 4272, Australia",-27.9684035,153.1967792
476,/title/tt1321869/,The Lovers,"Village Roadshow Studios, Oxenford, Queensland, Australia",(studio)                        ,"Village Roadshow Studios, Entertainment Road, Oxenford, Gold Coast City, Queensland, 4210, Australia",-27.910527700000003,153.3118145855983
477,/title/tt1321869/,The Lovers,Australia,,Australia,-24.7761086,134.755
478,/title/tt0081259/,The Octagon,Mexico,,"Ciudad de México, 06060, México",19.4326296,-99.1331785
479,/title/tt0081400/,Raise the Titanic,"The Sloop Inn, The Wharf, St Ives, Cornwall, England, UK",(John Bigalow shows Dirk Pitt his collection of Titanic memorabilia at the Sloop Inn)                        ,"The Sloop Inn, The Wharf, St Ives, St. Ives, St Ives, Cornwall, South West England, England, TR26 1LP, United Kingdom",50.2151342,-5.479114
480,/title/tt0081400/,Raise the Titanic,"Mediterranean Film Studios, Kalkara, Malta",(Model exteriors during scenes of Titanic surfacing)                        ,,,
481,/title/tt0081400/,Raise the Titanic,"Bronson Caves, Bronson Canyon, Griffith Park - 4730 Crystal Springs Drive, Los Angeles, California, USA",(Mine on Svardlov island)                        ,,,
482,/title/tt0081400/,Raise the Titanic,"Morven Park, 17195 Southern Planter Ln, Leesburg, Virginia, USA","(The White House, close-up shots)                        ",,,
483,/title/tt0081400/,Raise the Titanic,"Meridian House, 1630 Crescent Place NW, Washington, District of Columbia, USA","(Soviet Embassy, exterior and interior)                        ",,,
484,/title/tt0081400/,Raise the Titanic,"Prospect House, 3508 Prospect Street Northwest, Washington, District of Columbia, USA",(Admiral Sandecker's house)                        ,,,
485,/title/tt0081400/,Raise the Titanic,"Andrew Mellon Building, 1785 Massachusetts Avenue, Washington, District of Columbia, USA","(Admiral Sandecker's office, exterior and interior)                        ","Andrew Mellon Building, 1785, Massachusetts Avenue Northwest, Dupont Circle and surrunding block, Dupont Circle, Washington, District of Columbia, 20036, United States of America",38.90930075,-77.04136235884826
486,/title/tt0081400/,Raise the Titanic,"Naval Research Laboratory Cyclotron, Building 256, McGuire Avenue, Washington, District of Columbia, USA",(Sicilian Project)                        ,,,
487,/title/tt0081400/,Raise the Titanic,"Palio Faliro, Attica, Greece","(Titanic docked in New York, exterior)                        ","Cine Όνειρο, Χρυσοστόμου Σμύρνης, Απόλλωνας, Νέο Φάληρο, Πειραιάς, Δήμος Πειραιώς, Περιφερειακή Ενότητα Πειραιώς, Περιφέρεια Αττικής, Αποκεντρωμένη Διοίκηση Αττικής, 18541, Ελλάδα",37.95550155,23.66849329687855
488,/title/tt0081400/,Raise the Titanic,"Valdez, Alaska, USA","(Svardlov island, Soviet Union)                        ","Valdez, Unorganized Borough, Alaska, 99686, United States of America",61.1299396,-146.3493638
489,/title/tt0081400/,Raise the Titanic,"San Diego, California, USA","(Salvage fleet scenes, exterior)                        ","San Diego, San Diego County, California, United States of America",32.7174209,-117.1627714
490,/title/tt8368408/,Gunpowder Milkshake,"Berlin, Germany",(main location)                        ,"Berlin, 10117, Deutschland",52.5170365,13.3888599
491,/title/tt0098471/,Three Fugitives,"Gas Works Park - 2101 N. Northlake Way, Seattle, Washington, USA",(Scene where child first talks)                        ,,,
492,/title/tt0098471/,Three Fugitives,"Los Angeles County Arboretum & Botanic Garden - 301 N. Baldwin Avenue, Arcadia, California, USA",(Boswell Park)                        ,,,
493,/title/tt0098471/,Three Fugitives,"Tacoma, Washington, USA",,"Tacoma, Pierce County, Washington, United States of America",47.2495798,-122.4398746
494,/title/tt0098471/,Three Fugitives,"Los Angeles, California, USA",,"Los Angeles, Los Angeles County, California, United States of America",34.0536909,-118.2427666
495,/title/tt0387736/,Farscape: The Peacekeeper Wars,"Fox Studios, Moore Park, Sydney, New South Wales, Australia",,"Fox Studios Australia, Moore Park, Sydney, Council of the City of Sydney, New South Wales, 2021, Australia",-33.890960899999996,151.22750517838074
496,/title/tt0107563/,The Meteor Man,"Baltimore, Maryland, USA",,"Baltimore, Maryland, United States of America",39.2908816,-76.610759
497,/title/tt0107563/,The Meteor Man,"Los Angeles, California, USA",,"Los Angeles, Los Angeles County, California, United States of America",34.0536909,-118.2427666
498,/title/tt0088292/,Toy Soldiers,Mexico,,"Ciudad de México, 06060, México",19.4326296,-99.1331785
499,/title/tt7035576/,Al Hayba,Lebanon,,لبنان,33.8750629,35.843409
500,/title/tt0080641/,The Dogs of War,"Belize City, Belize",(Central America)                        ,"Belize City, Belize District, Belize",17.5000543,-88.2003115
501,/title/tt0080641/,The Dogs of War,Belize,(Central America)                        ,Belize,16.8259793,-88.7600927
502,/title/tt0080641/,The Dogs of War,"St John's Cathedral, Belize City, Belize",(Zangaran Church)                        ,"St. John's Cathedral, Regent Street, Belize City, Belize District, 1021, Belize",17.48872945,-88.1877603445229
503,/title/tt0080641/,The Dogs of War,"Broadgate, London, England, UK",,"Broadgate, Bishopsgate, City of London, Greater London, England, EC2M 2PJ, United Kingdom",51.5191676,-0.0839187
504,/title/tt0080641/,The Dogs of War,"Lee International Studios, Wembley, London, England, UK",(studio)                        ,,,
505,/title/tt0080641/,The Dogs of War,"New York City, New York, USA",,"New York, United States of America",40.7127281,-74.0060152
506,/title/tt5774002/,Jupiter's Legacy,"Toronto, Ontario, Canada",,"Toronto, Peel, Golden Horseshoe, Ontario, Canada",43.6534817,-79.3839347
507,/title/tt3510480/,Anacleto: Agente secreto,"Barcelona, Catalonia, Spain",,"Barcelona, Barcelonès, Catalunya, 08001, España",41.3828939,2.1774322
508,/title/tt0099587/,Flight of the Intruder,"Kaua'i, Hawaii, USA",,"Kauaʻi, Kauaʻi County, Hawaii, United States of America",22.050466550000003,-159.55876775017003
509,/title/tt0099587/,Flight of the Intruder,"Savannah, Georgia, USA",,"Savannah, Chatham County, Georgia, United States of America",32.0809263,-81.0911768
510,/title/tt0099587/,Flight of the Intruder,"Harbor Star Stage, San Pedro, Los Angeles, California, USA",,,,
511,/title/tt0246544/,The Musketeer,"Castle, Cassaigne, Gers, France",,"Château de Cassaigne, D 142, A la Bordère, A Cantougros, Cassaigne, Condom, Gers, Occitanie, France métropolitaine, 32100, France",43.90858315,0.3358070398164761
512,/title/tt0246544/,The Musketeer,"Castle, Vianden, Luxembourg",,"Château de Vianden, Promenade B, Vianden, Canton Vianden, 9410, Luxembourg",49.9348804,6.202804160734983
513,/title/tt0246544/,The Musketeer,"Toulouse, Haute-Garonne, France",,"Toulouse, Haute-Garonne, Occitanie, France métropolitaine, France",43.6044622,1.4442469
514,/title/tt0246544/,The Musketeer,"Auch, Gers, France",,"Auch, Gers, Occitanie, France métropolitaine, 32000, France",43.6463558,0.5850507
515,/title/tt0246544/,The Musketeer,Luxembourg,,Lëtzebuerg,49.8158683,6.1296751
516,/title/tt0246544/,The Musketeer,"Tillac, Gers, France",,"Tillac, Mirande, Gers, Occitanie, France métropolitaine, 32170, France",43.4761111,0.2763889
517,/title/tt0076975/,The Amazing Spider-Man,"Los Angeles, California, USA",,"Los Angeles, Los Angeles County, California, United States of America",34.0536909,-118.2427666
518,Code,Show Name,Location,Scene,"Location, Tucker County, West Virginia, United States of America",39.2138905,-79.6371124
519,/title/tt0056443/,Sanjuro,"Toho Studios, Tokyo, Japan",(studio)                        ,"東宝撮影所, 成城六間通り, 船橋, 世田谷区, 東京都, 1570066, 日本 (Japan)",35.634334800000005,139.6047840467249
520,/title/tt6105774/,The Reliant,"Ohio, USA",(The Y Bridge)                        ,"Ohio, United States of America",40.2253569,-82.6881395
521,/title/tt6105774/,The Reliant,"Zanesville, Ohio, USA",,"Zanesville, Muskingum County, Ohio, 43701, United States of America",39.9403453,-82.0131924
522,/title/tt6105774/,The Reliant,"Warsaw, Ohio, USA",,"Warsaw, Coshocton County, Ohio, United States of America",40.3353372,-82.0069062
523,/title/tt0100232/,Navy Seals,"Hampton, Virginia, USA",(Graveyard Scene)                        ,"Hampton, Hampton City, Virginia, 23669-4019, United States of America",37.0300969,-76.3452057
524,/title/tt0100232/,Navy Seals,"Virginia Beach, Virginia, USA",(Virginia Beach oceanfront)                        ,"Virginia Beach, Virginia Beach (city), Virginia, United States of America",36.8529841,-75.9774183
525,/title/tt0100232/,Navy Seals,"Portsmouth, Virginia, USA","(WAVY-TV, interiors)                        ","Portsmouth, Virginia, United States of America",36.8678592,-76.37559852679193
526,/title/tt0100232/,Navy Seals,"5302 Oceanfront Ave, Virginia Beach, VA 23451, USA",(Beach House scene prior to wedding scene where Charlie Sheen is laid out on the Beach)                        ,,,
527,/title/tt0100232/,Navy Seals,"Richmond, Virginia, USA",(Capitol Building; doubling for the Pentagon scenes)                        ,"Richmond, Richmond City, Virginia, 23298, United States of America",37.5385087,-77.43428
528,/title/tt0100232/,Navy Seals,"San Diego, California, USA",,"San Diego, San Diego County, California, United States of America",32.7174209,-117.1627714
529,/title/tt0100232/,Navy Seals,"Christ and Saint Luke's Episcopal Church, Norfolk, Virginia, USA",(Wedding Scene)                        ,,,
530,/title/tt0100232/,Navy Seals,"Red Wing Lake Golf Course, Virginia Beach, Virginia, USA",(Golf Scene)                        ,"Red Wing Lake Golf Course, Hempstead Court, Macons Corner, Virginia Beach, Virginia, 23451, United States of America",36.7981287,-75.9815327354759
531,/title/tt0100232/,Navy Seals,"Almería, Andalucía, Spain",,"Almería, Andalucía, España",36.8414197,-2.4628135
532,/title/tt1070742/,Wiedzmin,Poland,,Polska,52.215933,19.134422
533,/title/tt2865120/,Ratchet & Clank,"Vancouver, British Columbia, Canada",,"Vancouver, Metro Vancouver Regional District, British Columbia, Canada",49.2608724,-123.1139529
534,/title/tt0120604/,Beowulf,Romania,,România,45.9852129,24.6859225
535,/title/tt4054654/,Dog Eat Dog,"Sheffield Lake, Ohio, USA",,"Sheffield Lake, Lorain County, Ohio, United States of America",41.48754,-82.101537
536,/title/tt4054654/,Dog Eat Dog,"Ohio, USA",,"Ohio, United States of America",40.2253569,-82.6881395
537,/title/tt4054654/,Dog Eat Dog,"Florida, USA",,"Florida, United States of America",27.7567667,-81.4639835
538,/title/tt2369041/,Legendary,China,,中国,35.000074,104.999927
539,/title/tt0452573/,The Triangle,"Seven Mile Bridge, Florida Keys, Florida, USA",,,,
540,/title/tt0452573/,The Triangle,"Cape Town, Western Cape, South Africa",,"Cape Town, City of Cape Town, Western Cape, 8001, South Africa",-33.928992,18.417396
541,/title/tt0085029/,Hardcastle and McCormick,"Riverside International Raceway, 22255 Eucalyptus Avenue, Moreno Valley, California, USA",(race track)                        ,,,
542,/title/tt0085029/,Hardcastle and McCormick,"Los Angeles, California, USA",,"Los Angeles, Los Angeles County, California, United States of America",34.0536909,-118.2427666
543,/title/tt0960835/,Transmorphers,"California, USA",,"California, United States of America",36.7014631,-118.7559974
544,/title/tt0960835/,Transmorphers,"Los Angeles, California, USA",,"Los Angeles, Los Angeles County, California, United States of America",34.0536909,-118.2427666
545,/title/tt0060033/,Tarzan,"Acapulco, Mexico",,"Acapulco, Acapulco de Juárez, Guerrero, 39300, México",16.8680495,-99.8940182
546,/title/tt0060033/,Tarzan,"Durango, Mexico",,"Durango, México",24.833333,-104.833333
547,/title/tt0097889/,Miracle Mile,"Johnie's Coffee Shop - 6101 Wilshire Boulevard, Fairfax, Los Angeles, California, USA",,,,
548,/title/tt0097889/,Miracle Mile,"Los Angeles County Museum of Art - 5905 Wilshire Blvd., Hancock Park, Los Angeles, California, USA",,,,
549,/title/tt0097889/,Miracle Mile,"Pan-Pacific Auditorium - 7600 W. Beverly Boulevard, Fairfax, Los Angeles, California, USA",,,,
550,/title/tt0097889/,Miracle Mile,"Pan-Pacific Auditorium - 7600 W. Beverly Boulevard, Fairfax, Los Angeles, California, USA",(Destroyed by fire in 1989)                        ,,,
551,/title/tt0403358/,Night Watch,"St. Petersburg, Russia",(subway train scenes)                        ,"Санкт-Петербург, Центральный район, Санкт-Петербург, Северо-Западный федеральный округ, 190000, Россия",59.938732,30.316229
552,/title/tt0403358/,Night Watch,Russia,,Россия,64.6863136,97.7453061
553,/title/tt8726180/,The Cave,Thailand,,ประเทศไทย,14.8971921,100.83273
554,/title/tt8726180/,The Cave,UK,(on location)                        ,United Kingdom,54.7023545,-3.2765753
555,/title/tt2043757/,2-Headed Shark Attack,"Florida Keys, Florida, USA",,"Florida Keys, Monroe County, Florida, United States of America",24.6670875,-81.5831421
556,/title/tt0056745/,Burke's Law,"CBS Studio Center - 4024 Radford Avenue, Studio City, Los Angeles, California, USA",(studio)                        ,,,
557,/title/tt7867360/,Abduction,China,,中国,35.000074,104.999927
558,/title/tt1046997/,Miracle at St. Anna,"Gioviano, Lucca, Tuscany, Italy",,"Gioviano, Borgo a Mozzano, Unione dei comuni Media Valle del Serchio, Lucca, Toscana, 55025, Italia",44.0115335,10.5277092
559,/title/tt1046997/,Miracle at St. Anna,"Tuscany, Italy",,"Toscana, Italia",43.4586541,11.1389204
560,/title/tt1046997/,Miracle at St. Anna,"Former Greenpoint Savings Bank Main Branch - 807 Manhattan Avenue, Greenpoint, Brooklyn, New York City, New York, USA",(opening stamps scene)                        ,,,
561,/title/tt0326769/,Biker Boyz,"Santa Clarita, California, USA",,"Santa Clarita, Los Angeles County, California, United States of America",34.3916641,-118.542586
562,/title/tt0326769/,Biker Boyz,"Angelus-Rosedale Cemetery - 1831 W. Washington Boulevard, Los Angeles, California, USA",,,,
563,/title/tt0326769/,Biker Boyz,"Point Fermin Park - 807 W. Paseo Del Mar, San Pedro, Los Angeles, California, USA",(Bikini Bike Wash)                        ,,,
564,/title/tt2378453/,Savaged,"Los Angeles, California, USA",,"Los Angeles, Los Angeles County, California, United States of America",34.0536909,-118.2427666
565,/title/tt2378453/,Savaged,"Randsburg, California, USA",(saloon & main street)                        ,"Randsburg, Highland Avenue, Randsburg, Kern County, California, 93528, United States of America",35.369361,-117.65985508256202
566,/title/tt2378453/,Savaged,"Caravan West Ranch, Agua Dulce, California, USA",(ranch outbuildings)                        ,,,
567,/title/tt2378453/,Savaged,"California, USA",,"California, United States of America",36.7014631,-118.7559974
568,/title/tt0439630/,Tau man ji D,"Mt. Akina, Gunma, Japan",(racing scenes)                        ,,,
569,/title/tt10275080/,Agent Jade Black,"Edmond, Oklahoma, USA",(Cafe Icon Sushi and Grill)                        ,"Edmond, Oklahoma County, Oklahoma, United States of America",35.6571367,-97.4649038
570,/title/tt1332653/,The Day of the Triffids,"Barbican, London, England, UK",,"Barbican, Charterhouse Square, Smithfield, City of London, Greater London, England, EC1M 6EQ, United Kingdom",51.5201501,-0.0986832
571,/title/tt1332653/,The Day of the Triffids,"Shepperton Studios, Shepperton, Surrey, England, UK",,,,
572,/title/tt1332653/,The Day of the Triffids,"The Eden Project, St Austell, Cornwall, England, UK",,,,
573,/title/tt1332653/,The Day of the Triffids,"Whitehall, Westminster, London, England, UK",,"Whitehall, City of Westminster, London, Greater London, England, SW1A 2NH, United Kingdom",51.5023278,-0.1260826
574,/title/tt0067995/,Women in Cages,Philippines,,Philippines,12.7503486,122.7312101
575,/title/tt2787302/,Message Man,"Kepulauan Seribu, Indonesia",,"Kepulauan Seribu, Daerah Khusus Ibukota Jakarta, 14520, Indonesia",-5.6350469499999996,106.58035406613533
576,/title/tt2787302/,Message Man,"Bulli, NSW, Australia",,"Bulli, Wollongong, Wollongong City Council, New South Wales, 2516, Australia",-34.3329033,150.9125015
577,/title/tt0086340/,Sorceress,Mexico,,"Ciudad de México, 06060, México",19.4326296,-99.1331785
578,/title/tt0067774/,Sometimes a Great Notion,"Broughton Log Flume, Columbia River Gorge, Washington, USA",,,,
579,/title/tt0067774/,Sometimes a Great Notion,"Toledo, Oregon, USA",,"Toledo, Lincoln County, Oregon, 97391, United States of America",44.621688,-123.938197
580,/title/tt0067774/,Sometimes a Great Notion,"Oregon, USA",,"Oregon, United States of America",43.9792797,-120.737257
581,/title/tt0090192/,Trancers,"Los Angeles, California, USA",,"Los Angeles, Los Angeles County, California, United States of America",34.0536909,-118.2427666
582,/title/tt0118996/,Dobermann,"Canal de l'Ourcq, Paris 19, Paris, France",(Night club exteriors)                        ,"Canal de l'Ourcq, Avenue de Metz, Romainville, Bobigny, Seine-Saint-Denis, Île-de-France, France métropolitaine, 93230, France",48.89731645,2.4310262440357526
583,/title/tt0106922/,Fit to Kill,"Aladdin Casino & Resort - 3667 Las Vegas Boulevard South, Las Vegas, Nevada, USA",,,,
584,/title/tt0106922/,Fit to Kill,"Las Vegas, Nevada, USA",,"Las Vegas, Clark County, Nevada, United States of America",36.1672559,-115.1485163
585,/title/tt7535994/,Ufak Tefek Cinayetler,"Istanbul, Turkey",,"İstanbul, Beyazıt Meydanı, Beyazıt Mahallesi, Fatih, İstanbul, Marmara Bölgesi, 34126, Türkiye",41.0096215,28.9651867
586,/title/tt7535994/,Ufak Tefek Cinayetler,"Kemer Country, Eyüp, Istanbul, Turkey",,"Kemer Country, Göktürk Merkez, Göktürk Merkez Mahallesi, Eyüpsultan, İstanbul, Marmara Bölgesi, 34077, Türkiye",41.1772079,28.895303337059506
587,/title/tt1911600/,Miss Bala,"Aguascalientes, Aguascalientes, Mexico",(exterior scenes)                        ,"Aguascalientes, Municipio de Aguascalientes, Aguascalientes, 20000, México",21.8806553,-102.2961323
588,/title/tt0073707/,Sholay,"Bangalore, Karnataka, India",(outskirts)                        ,"Bengaluru, Bangalore North, Bangalore Urban, Karnataka, India",12.9791198,77.5912997
589,/title/tt5091548/,Justice League vs. Teen Titans,"Chicago Illinois, USA",,"Chicago, Cook County, Illinois, United States of America",41.8755616,-87.6244212
590,/title/tt2034176/,Redcon-1,"The Barrowlands, the Gallowgate, Glasgow, UK",(Zombie infested streets)                        ,,,
591,/title/tt2034176/,Redcon-1,"Rochdale, Lancashire, England, UK",(Bunker)                        ,"Rochdale Road, Trough Gate, Rossendale, Lancashire, North West England, England, OL13 9SD, United Kingdom",53.6921058,-2.1857904
592,/title/tt2034176/,Redcon-1,"London, England, UK",,"London, Greater London, England, United Kingdom",51.5073219,-0.1276474
593,/title/tt4142394/,The Tracker,"Taranto, Apulia, Italy",(on location)                        ,"Taranto, Puglia, Italia",40.54881555,17.08058012454743
594,/title/tt1280558/,A Wednesday,"Mumbai, India",,"Mumbai, Mumbai City, Maharashtra, India",18.9387711,72.8353355
595,/title/tt4497416/,Lake Placid vs. Anaconda,Bulgaria,,Бългaрия,42.6073975,25.4856617
596,/title/tt10926356/,The Coming,"Illinois, USA",,"Illinois, United States of America",40.0796606,-89.4337288
597,/title/tt0098662/,Witchtrap,"Solano County, California, USA",,"Solano County, California, United States of America",38.2218938,-121.9163555
598,/title/tt0098662/,Witchtrap,"Fairfield, California, USA",(Solano County Courthouse)                        ,"Fairfield, Solano County, California, 94533, United States of America",38.2493581,-122.0399663
599,/title/tt1288403/,Universal Soldier: Regeneration,"New Boyana Film Studios, Sofia, Bulgaria",,,,
600,/title/tt1288403/,Universal Soldier: Regeneration,"Sofia, Bulgaria",,"София, Столична, София-град, България",42.6978634,23.3221789
601,/title/tt4652532/,The Warriors Gate,Canada,,Canada,61.0666922,-107.9917071
602,/title/tt4652532/,The Warriors Gate,"Hengdian World Studios, Heng Dian, China",,,,
603,Code,Show Name,Location,Scene,"Location, Tucker County, West Virginia, United States of America",39.2138905,-79.6371124
604,/title/tt9135260/,Dark Light,Republic of Georgia,(locations)                        ,"Georgia, Leoforos Protaras, Πρωταράς, Αμμόχωστος - Mağusa, 37087, Κύπρος",35.0175124,34.0484215
605,/title/tt2718440/,Moonwalkers,Belgium,,België / Belgique / Belgien,50.6402809,4.6667145
606,/title/tt0072285/,Thriller - en grym film,"Drottningholm, Stockholms län, Sweden",,"Drottningholm, Ekerö kommun, Stockholms län, Svealand, 17893, Sverige",59.324925,17.8873327
607,/title/tt0072285/,Thriller - en grym film,"Lidingö, Stockholms län, Sweden",,"Lidingö, Lidingö kommun, Stockholms län, Svealand, 181 24, Sverige",59.3643845,18.133142
608,/title/tt9225192/,Seongnan hwangso,"Incheon, South Korea",,"인천, 대한민국",37.456,126.7052
609,/title/tt4939066/,Operation Chromite,"Seoul, South Korea",,"서울, 대한민국",37.5666791,126.9782914
610,/title/tt0034928/,Het boek der wildernis,"Hollywood Center Studios - 1040 N. Las Palmas Avenue, Hollywood, Los Angeles, California, USA",,"Hollywood Center Studios, Romaine Street, Hollywood, Los Angeles, Los Angeles County, California, 90038, United States of America",34.08981165,-118.33500930891499
611,/title/tt0264263/,Jackass,"Vilnius, Vilnius County, Lithuania",,"Vilnius, Vilniaus miesto savivaldybė, Vilniaus apskritis, Lietuva",54.6870458,25.2829111
612,/title/tt0264263/,Jackass,"San Francisco, California, USA",,"San Francisco, San Francisco City and County, California, United States of America",37.7790262,-122.4199061
613,/title/tt0264263/,Jackass,"Copenhagen, Denmark",,"København, Københavns Kommune, Region Hovedstaden, 1357, Danmark",55.6867243,12.5700724
614,/title/tt0264263/,Jackass,"London, England, UK",,"London, Greater London, England, United Kingdom",51.5073219,-0.1276474
615,/title/tt0264263/,Jackass,"Paris, France",,"Paris, Île-de-France, France métropolitaine, France",48.8566969,2.3514616
616,/title/tt0264263/,Jackass,"Portland, Oregon, USA",,"Portland, Multnomah County, Oregon, United States of America",45.5202471,-122.6741949
617,/title/tt0264263/,Jackass,"Beaulieu, Brockenhurst, Hampshire, England, UK",,"Beaulieu Road, Denny Lodge, New Forest, Hampshire, South East, England, SO42 7QP, United Kingdom",50.820652,-1.551224
618,/title/tt0264263/,Jackass,"Florida, USA",,"Florida, United States of America",27.7567667,-81.4639835
619,/title/tt0264263/,Jackass,"St. Petersburg, Russia",,"Санкт-Петербург, Центральный район, Санкт-Петербург, Северо-Западный федеральный округ, 190000, Россия",59.938732,30.316229
620,/title/tt0264263/,Jackass,"Öresundsbron, Malmö, Skåne län, Sweden",,"Øresundsbron, Øresundsmotorvejen, Malmö kommun, Skåne län, Götaland, Sverige",55.57859715,12.811629389863295
621,/title/tt7369550/,Spy Intervention,"Glens Falls, New York, USA",,"Glens Falls, Warren County, New York, 12801, United States of America",43.309941,-73.644447
622,/title/tt7350790/,Bounty Hunters,"London, England, UK",,"London, Greater London, England, United Kingdom",51.5073219,-0.1276474
623,/title/tt0101988/,Guyver,"Los Angeles, California, USA",,"Los Angeles, Los Angeles County, California, United States of America",34.0536909,-118.2427666
624,/title/tt0051311/,Sea Hunt,"Silver Springs - 5656 E. Silver Springs Boulevard, Ocala, Florida, USA",,,,
625,/title/tt0051311/,Sea Hunt,"Long Point, Santa Catalina Island, Channel Islands, California, USA",,,,
626,/title/tt0051311/,Sea Hunt,"Pirate's Cove, Santa Catalina Island, Channel Islands, California, USA",,,,
