,Code,Show Name,Location,Scene,geocodedLocation,latitude,longitude
0,/title/tt0040076/,,"Lasky Mesa, West Hills, Los Angeles, California, USA",,,,
1,/title/tt0040076/,,"Stage 14, Warner Brothers Burbank Studios - 4000 Warner Boulevard, Burbank, California, USA",,,,
2,/title/tt0040076/,,"Stage 17, Warner Brothers Burbank Studios - 4000 Warner Boulevard, Burbank, California, USA",,,,
3,/title/tt0101509/,,"Chino Hills, California, USA",,"Chino Hills, San Bernardino County, California, 91709, United States of America",33.9926803,-117.760056
4,/title/tt0101509/,,"Redlands, California, USA",,"Redlands, San Bernardino County, California, United States of America",34.055735,-117.1888961
5,/title/tt0468988/,,"Winnipeg, Manitoba, Canada",,"Winnipeg, Winnipeg (city), Manitoba, Canada",49.8955367,-97.1384584
6,/title/tt0283160/,,Canada,,Canada,61.0666922,-107.9917071
7,/title/tt0283160/,,"Mittenwald, Bavaria, Germany",,"Mittenwald, Landkreis Garmisch-Partenkirchen, Bayern, 82481, Deutschland",47.4429543,11.2655684
8,/title/tt0283160/,,"Seefeld, Tirol, Austria",,"Seefeld in Tirol, Bezirk Innsbruck-Land, Tirol, 6100, Österreich",47.3289241,11.1867187
9,/title/tt0283160/,,"Vancouver International Airport, Sea Island, Richmond, British Columbia, Canada",,"Vancouver International Airport, No. 2 Road Bridge, Golden Village, City Centre, Richmond, Metro Vancouver Regional District, British Columbia, V7C, Canada",49.193044,-123.17986424460963
10,/title/tt0283160/,,"Verbier, Kanton Wallis, Switzerland",,"Verbier, Entremont, Valais/Wallis, 2303, Switzerland",46.0967949,7.2285478
11,/title/tt0069279/,,"Mexico City, Distrito Federal, Mexico",,"México, Calle Benito Juárez, Unidad Habitacional Integración Latinoamericana, Naucalpan, 04350, México",19.337797000000002,-99.17851255290537
12,/title/tt0041014/,,"DuMont Telecenter - 205 East 67 Street, Manhattan, New York City, New York, USA",,,,
13,/title/tt0044072/,,"Universal Studios - 100 Universal City Plaza, Universal City, California, USA",(studio),,,
14,/title/tt3958022/,,"Los Angeles, California, USA",,"Los Angeles, Los Angeles County, California, United States of America",34.0536909,-118.2427666
15,/title/tt3958022/,,Canada,,Canada,61.0666922,-107.9917071
16,/title/tt3958022/,,"Toronto, Ontario, Canada",,"Toronto, Golden Horseshoe, Ontario, Canada",43.6534817,-79.3839347
17,/title/tt3958022/,,USA,,United States,39.7837304,-100.4458825
18,/title/tt1797508/,,"Cape Town, South Africa",,"Cape Town, City of Cape Town, Western Cape, 8001, South Africa",-33.928992,18.417396
19,/title/tt1797508/,,"London, England, UK",,"London, Greater London, England, United Kingdom",51.5073219,-0.1276474
20,/title/tt0095215/,,"Tucson, Arizona, USA",,"Tucson, Pima County, Arizona, United States of America",32.2228765,-110.9748477
21,/title/tt0095215/,,"Mescal, Arizona, USA",,"Mescal, Cochise County, Arizona, United States of America",31.9900824,-110.4353531
22,/title/tt0106258/,,"Istanbul, Turkey",,"İstanbul, Beyazıt Meydanı, Beyazıt Mahallesi, Fatih, İstanbul, Marmara Bölgesi, 34126, Türkiye",41.0096215,28.9651867
23,/title/tt0065850/,,"Gazzola, Provincia di Piacenza, Emilia-Romagna, Italy",(Castello di Monticello),"Gazzola, Piacenza, Emilia-Romagna, Italia",44.960062,9.548964
24,/title/tt0318763/,,"Los Angeles, California, USA",,"Los Angeles, Los Angeles County, California, United States of America",34.0536909,-118.2427666
25,/title/tt0059162/,,"Dublin, County Dublin, Ireland",,"Dublin, County Dublin, Leinster, Ireland",53.3497645,-6.2602732
26,/title/tt0059162/,,"Kilmainham Jail, Dublin, County Dublin, Ireland",,"Kilmainham Gaol, Inchicore Road, Kilmainham, Kilmainham B ED, Dublin 8, County Dublin, Leinster, D08P 89W, Ireland",53.34174585,-6.309578660652412
27,/title/tt1638317/,,"Chicago, Illinois, USA",,"Chicago, Cook County, Illinois, United States of America",41.8755616,-87.6244212
28,/title/tt0082612/,,South Africa,,South Africa,-28.8166236,24.991639
29,/title/tt0071089/,,"Port of Los Angeles, Los Angeles, California, USA",(bridge sequence),"Port of Los Angeles, Los Angeles, Los Angeles County, California, United States of America",33.74248485,-118.2613693317183
30,/title/tt0071089/,,"Silver Springs, Florida, USA",(underwater scenes),"Silver Springs, Marion County, Florida, 34488-1719, United States of America",29.2166172,-82.0575797
31,/title/tt5303602/,,"Istanbul, Turkey",,"İstanbul, Beyazıt Meydanı, Beyazıt Mahallesi, Fatih, İstanbul, Marmara Bölgesi, 34126, Türkiye",41.0096215,28.9651867
32,/title/tt1179855/,,"Málaga, Málaga, Andalucía, Spain",,"Málaga, Málaga-Costa del Sol, Málaga, Andalucía, España",36.7213028,-4.4216366
33,/title/tt1179855/,,"Départementales 902 et 909, Luzarches, Val-d'Oise, France",(fatal collision between two cars at full speed),,,
34,/title/tt0103848/,,"New Cavendish Street, Marylebone, London, England, UK",(Stacy hits Ander's car),"New Cavendish Street, Marylebone, City of Westminster, London, Greater London, England, W1G 8UQ, United Kingdom",51.5187173,-0.1508649
35,/title/tt0103848/,,"Senate House, University College London, Malet Street, Bloomsbury, London, England, UK",(Harry attends the Ambassador's party),,,
36,/title/tt0103848/,,"St Georges Town Hall, 236 Cable Street, Shadwell, London, England, UK",(Harry is released from the police station),"St Georges Town Hall, 236, Cable Street, St. George in the East, Shadwell, London Borough of Tower Hamlets, London, Greater London, England, E1 0BL, United Kingdom",51.510925650000004,-0.0584171188026816
37,/title/tt0103848/,,"Wedlake Street Bridge, Kensal Green, London, England, UK",(Sir Hector meets with Stevens),,,
38,/title/tt0103848/,,"Tilbury Docks, Essex, England, UK",(Dock scenes),,,
39,/title/tt0103848/,,"London, England, UK",,"London, Greater London, England, United Kingdom",51.5073219,-0.1276474
40,/title/tt3924510/,,"Cairo, Egypt",(exteriors only),"القاهرة, Egypt / مصر",30.048819,31.243666
41,/title/tt3924510/,,"Santa Clarita, California, USA",,"Santa Clarita, Los Angeles County, California, United States of America",34.3916641,-118.542586
42,/title/tt0084611/,,"Woodland, California, USA",,"Woodland, Yolo County, California, 95695, United States of America",38.6786109,-121.7733285
43,/title/tt12497188/,,"Dartmoor, England, UK",,"Dartmoor National Park, Dartmoor Forest, West Devon, Devon, South West England, England, United Kingdom",50.5657372,-3.90097323715792
44,/title/tt0067429/,,"Piazza del Duomo, Milan, Lombardia, Italy",(A package is dropped with the pigeon feed seller),"Piazza del Duomo, Duomo, Municipio 1, Milano, Lombardia, Italia",45.46420795,9.190010308888969
45,/title/tt0067429/,,"Piazza del Duomo, Milan, Lombardy, Italy",,"Piazza del Duomo, Duomo, Municipio 1, Milano, Lombardia, Italia",45.46420795,9.190010308888969
46,/title/tt1612319/,,"Sofia, Bulgaria",,"София, Оборище, Столична, София-град, 1000, България",42.6978634,23.3221789
47,/title/tt0303151/,,"Atlanta, Georgia, USA",,"Atlanta, Georgia, United States of America",33.7490987,-84.3901849
48,/title/tt0072852/,,"University of Texas, Austin, Texas, USA",,,,
49,/title/tt0072852/,,"Louisiana State Capital, State Capitol Drive, Baton Rouge, Louisiana, USA",,,,
50,/title/tt1545986/,,"Paradise Cove - 28128 Pacific Coast Highway, Malibu, California, USA",(kayak scene),,,
51,/title/tt0078778/,,"Los Angeles, California, USA",,"Los Angeles, Los Angeles County, California, United States of America",34.0536909,-118.2427666
52,/title/tt5656126/,,"Saddlerock Ranch, Malibu, California, USA",(location),,,
53,/title/tt0086884/,,"Jerusalem, Israel",,"ירושלים, מחוז ירושלים, no, ישראל",31.778345,35.2250786
54,/title/tt0419373/,,"CentrePoint Tower, Sydney, New South Wales, Australia",,,,
55,/title/tt0419373/,,"Sydney Harbour Bridge, Sydney, New South Wales, Australia",,"Sydney Harbour Bridge, Olympic Drive, Kirribilli, Lower North Shore, North Sydney Council, New South Wales, 2061, Australia",-33.85225755,151.21069310558983
56,/title/tt0419373/,,"Sydney, New South Wales, Australia",,"Sydney, New South Wales, Australia",-33.8548157,151.2164539
57,/title/tt1643247/,,"Hawaii, USA",,"Hawaii, United States of America",19.58726775,-155.42688965312746
58,/title/tt1706450/,,"Shahriar, Iran",,"شهریار, دهستان رزکان, بخش مرکزی شهریار, شهرستان شهریار, 3351934538, ایران",35.6589015,51.0586022
59,/title/tt0091091/,,"Hong Kong, China",,"香港島 Hong Kong Island, 香港 Hong Kong, China 中国",22.2793278,114.1628131
60,/title/tt2364673/,,"Griffin, Georgia, USA",(location),"Griffin, Spalding County, Georgia, 30224, United States of America",33.2467807,-84.2640904
61,/title/tt2364673/,,"Commerce, Georgia, USA",(exterior scenes),"Commerce, Jackson County, Georgia, 30529, United States of America",34.203997,-83.4571058
62,/title/tt2364673/,,"Avondale Estates, Georgia, USA",(studio),"Avondale Estates, DeKalb County, Georgia, United States of America",33.771494,-84.2671444
63,/title/tt2364673/,,"Suches, Georgia",,"Suches, Union County, Georgia, United States of America",34.6889792,-84.0221356
64,/title/tt2364673/,,"Stone Mountain, Georgia, USA",(exterior scenes),"Stone Mountain, DeKalb County, Georgia, 30087, United States of America",33.8062166,-84.1457505
65,/title/tt0051887/,,"Universal Studios - 100 Universal City Plaza, Universal City, California, USA",(studio),,,
66,/title/tt0395284/,,"Tampa, Florida, USA",,"Tampa, Hillsborough County, Florida, United States of America",27.9477595,-82.458444
67,/title/tt0395284/,,"Walt Disney World, Lake Buena Vista, Florida, USA","(The hotel interiors were shot in the Grand Floridian Hotel. Some of the beachfront scenes were shot in front of the hotel too. You can sometimes see the monorail in the background, and the Polynesian Resort was seen in the corner of the screen on some of the shots that looked out over the water from the beach.)",,,
68,/title/tt0045352/,,"Republic Studios - 4024 Radford Avenue, North Hollywood, Los Angeles, California, USA",(studio),,,
69,/title/tt0045352/,,"Railroad Station, Chatsworth, Los Angeles, California, USA",,,,
70,/title/tt0058692/,,"Cáceres, Cáceres, Extremadura, Spain",,"Cáceres, Extremadura, España",39.4745175,-6.3716761
71,/title/tt0058692/,,"Studios de la Victorine - 16 avenue Edoard Grinda, Nice, Alpes-Maritimes, France",(studio),,,
72,/title/tt0054761/,,France,,France,46.603354,1.8883335
73,/title/tt0054761/,,"Villefranche-sur-Mer, Alpes-Maritimes, France",,"Villefranche-sur-Mer, Nice, Alpes-Maritimes, Provence-Alpes-Côte d'Azur, France métropolitaine, 06230, France",43.7042317,7.309969
74,/title/tt0074494/,,"Broadway, North Beach, San Francisco, California, USA",,"Broadway, North Beach, San Francisco, San Francisco City and County, California, 94133, United States of America",37.7974894,-122.409723
75,/title/tt0074494/,,"Fisherman's Wharf, San Francisco, California, USA",,"Fishermans Wharf, Russian Hill, San Francisco, San Francisco City and County, California, 94133-1312, United States of America",37.8091669,-122.4165994
76,/title/tt0074494/,,"Paestum, Capaccio, Salerno, Campania, Italy",,"Paestum, Capaccio Paestum, Salerno, Campania, 84047, Italia",40.4238379,15.0069514
77,/title/tt0074494/,,"De Paolis Studios, Rome, Italy",(studio),,,
78,/title/tt0150021/,,"Greater Vancouver Regional District Demonstration Forest, North Vancouver, British Columbia, Canada",,,,
79,/title/tt0150021/,,"Vancouver, British Columbia, Canada",,"Vancouver, Metro Vancouver Regional District, British Columbia, Canada",49.2608724,-123.1139529
80,/title/tt4521338/,,"Manor Way Business Park, Swanscombe, Kent, England, UK",(Unit Base) (Production Office),,,
81,/title/tt4521338/,,"Northfleet Industrial Estate. Gravesham, Kent, England, UK",(interiors military base) (radio room) (laboratory),,,
82,/title/tt4521338/,,"Gravesend Old Town Hall, Gravesend, Kent, England, UK",(interiors grand hall),"Gravesend, Clive Road, Gravesham, Kent, South East, England, DA11 0RR, United Kingdom",51.4413627,0.3668306
83,/title/tt4521338/,,"Powerhub, Maidstone, Kent, England, UK",(interiors military base) (corridors) (stairs),"Powerhub Business Centre, Ringlestone, Maidstone, Kent, South East, England, United Kingdom",51.27697755,0.5163909522327956
84,/title/tt0071270/,,"Charring Cross tube station exterior, London, England, UK",,,,
85,/title/tt0079362/,,"La Alcazaba, Almería, Almería, Andalucia, Spain",,"La Alcazaba, Calle Sereno, La Chanca, Almedina, Almería, Andalucía, 04071, España",36.841286,-2.4723476
86,/title/tt0079362/,,"El Escorial, Madrid, Spain",,"Real Monasterio de San Lorenzo de El Escorial, La Lonja del Monasterio de San Lorenzo de El Escorial, La Herrería, San Lorenzo de El Escorial, Cuenca del Guadarrama, Comunidad de Madrid, España",40.58901485,-4.14866953418157
87,/title/tt0079362/,,"Valle de los Caídos, Madrid, Spain",,,,
88,/title/tt1060256/,,"Tsuruoka City, Yamagata, Japan",,"鶴岡市, 山形県, 日本 (Japan)",38.7272187,139.8266292
89,/title/tt0066001/,,"London, Greater London, England, UK",,"London, Greater London, England, United Kingdom",51.5073219,-0.1276474
90,/title/tt0054016/,,"Santa Monica Bay, California, USA",,"Santa Monica Bay, South Bay Bike Path, Playa del Rey, El Segundo, Los Angeles County, California, 90254, United States of America",33.9350121,-118.4667444
91,/title/tt0421974/,,"Château de Villette, Condécourt, Val d'Oise, France",,"Château de Villette, Rue de la Maison Blanche, Le Bourg, Hameau de Villette, Condécourt, Pontoise, Val-d'Oise, Île-de-France, France métropolitaine, 95450, France",49.0317953,1.939420148416752
92,/title/tt0421974/,,"Avenue des Champs-Élysées, Paris 8, Paris, France",(aerial view of the avenue),"Avenue des Champs-Élysées, Paris 8e Arrondissement, Paris, Île-de-France, France métropolitaine, 75008, France",48.865669,2.3203067
93,/title/tt0421974/,,"Base Aérienne 115 Capitaine de Seynes, Orange, Vaucluse, France",,,,
94,/title/tt0421974/,,"Orange, Vaucluse, France",,"Orange, Carpentras, Vaucluse, Provence-Alpes-Côte d'Azur, France métropolitaine, 84100, France",44.1371311,4.8078783
95,/title/tt0216772/,,"Toronto, Ontario, Canada",,"Toronto, Golden Horseshoe, Ontario, Canada",43.6534817,-79.3839347
96,/title/tt0086746/,,"Pompeii, Naples, Campania, Italy",(location),,,
97,/title/tt4911288/,,Iraq,,العراق,33.0955793,44.1749775
98,/title/tt5207204/,,"St. Petersburg, Russia",(Lenfilm),"Санкт-Петербург, Центральный район, Санкт-Петербург, Северо-Западный федеральный округ, 190000, Россия",59.938732,30.316229
99,/title/tt0069273/,,"Clapham Junction Station, Clapham, London, England, UK","(when Harry and Birdy first arrive in london after escaping from prison, Harry leaves the train and Birdy at Clapham junction. Harry then walks across the covered foot bridge which is still very much used and tests the telescopic sight of his automatic pistol.)","Clapham Junction Station, Saint John's Hill, Clapham Junction, London Borough of Wandsworth, London, Greater London, England, SW11 1TT, United Kingdom",51.4631183,-0.169669
100,/title/tt0069273/,,"Putney Hippodrome, Felsham Road, Putney, London, England, UK",,,,
101,/title/tt0069273/,,"Warwick Way, Pimlico, London, England, UK",,"Warwick Way, Pimlico, City of Westminster, London, Greater London, England, SW1V 4JE, United Kingdom",51.4913034,-0.1430512
102,/title/tt0069273/,,"Clapham, London, England, UK",,"Clapham, Greater London, England, SW4 0BG, United Kingdom",51.4622924,-0.1388561
103,/title/tt0211634/,,"Sydney, New South Wales, Australia",,"Sydney, New South Wales, Australia",-33.8548157,151.2164539
104,/title/tt0211634/,,"Mumbai, Maharashtra, India",,"Mumbai, Mumbai City, Maharashtra, India",18.9387711,72.8353355
105,/title/tt0068576/,,"Los Angeles, California, USA",,"Los Angeles, Los Angeles County, California, United States of America",34.0536909,-118.2427666
106,/title/tt0068576/,,"Bray Studios, Bray, Berkshire, England, UK",(underwater sequences),,,
107,/title/tt0051819/,,"Greenacres estate, California, USA",(Blair villa scenes),"Estate Street, Wible Orchard, Bakersfield, Kern County, California, 93304, United States of America",35.31586,-119.043001
108,/title/tt0051819/,,"French Riviera, Alpes-Maritimes, France",,"Riviera Française, La Giandola de Breil, Breil-sur-Roya, Nice, Alpes-Maritimes, Provence-Alpes-Côte d'Azur, France métropolitaine, 06540, France",43.952749,7.479413793610824
109,/title/tt1203523/,,"Shreveport, Louisiana, USA",,"Shreveport, Caddo Parish, Louisiana, United States of America",32.5221828,-93.7651944
110,/title/tt0431114/,,"Nevada 589 & Las Vegas Blvd South, Las Vegas, Nevada, USA",,,,
111,/title/tt0064819/,,"Ascot Park Speedway - 18601 S. Vermont Avenue, Gardena, California, USA",,,,
112,/title/tt0064819/,,"Imperial Sand Dunes Recreation Area, Glamis, California, USA",,,,
113,/title/tt0059641/,,"Ascot Park Speedway - 18601 S. Vermont Avenue, Gardena, California, USA",,,,
114,/title/tt0059641/,,"Darlington Raceway, 1301 Harry Byrd Highway, Darlington, South Carolina, USA",,,,
115,/title/tt0081081/,,"Naples, Campania, Italy",,"Napoli, Campania, Italia",40.8359336,14.2487826
116,/title/tt3259178/,,"Marina del Rey, California, USA",,"Marina del Rey, Los Angeles County, California, 90292, United States of America",33.9776848,-118.4486479
117,/title/tt2338467/,,Luxembourg,,Lëtzebuerg,49.8158683,6.1296751
118,/title/tt2338467/,,France,,France,46.603354,1.8883335
119,/title/tt6580394/,,"Los Angeles, California, USA",,"Los Angeles, Los Angeles County, California, United States of America",34.0536909,-118.2427666
120,/title/tt0117533/,,"Uxbridge, Ontario, Canada",,"Uxbridge, Durham Region, Golden Horseshoe, Ontario, Canada",44.1088502,-79.1226768
121,/title/tt0085601/,,"Miami, Florida, USA",,"Miami, Miami-Dade County, Florida, United States of America",25.7742658,-80.1936589
122,/title/tt0085601/,,"4400 Rickenbacker Causeway Miami, FL 33149, USA",(Miami Seaquarium),"Miami Seaquarium, 4400, Rickenbacker Causeway, Brickell Hammock, Miami-Dade County, Florida, 33149, United States of America",25.73299935,-80.16556030992206
123,/title/tt6055082/,,"Lithgow, New South Wales, Australia",,"Lithgow, Lithgow City Council, New South Wales, 2790, Australia",-33.4827287,150.1570223
124,/title/tt6055082/,,"The Carrington Hotel, Katoomba, NSW, Australia",,"The Carrington Hotel, Parke Street, Katoomba, Sydney, Blue Mountains City Council, New South Wales, 2780, Australia",-33.7130499,150.31081434452773
125,/title/tt0252223/,,Hungary,,Magyarország,47.1817585,19.5060937
126,/title/tt0252223/,,"Vienna, Austria",,"Wien, 1010, Österreich",48.2083537,16.3725042
127,/title/tt0038435/,,"Occidental College - 1600 Campus Road, Eagle Rock, Los Angeles, California, USA",,"Occidental College, 1600, Campus Road, Eagle Rock, Los Angeles, Los Angeles County, California, 90041, United States of America",34.12719495,-118.20992029989196
128,/title/tt1978200/,,"Leeuwarden, Friesland, Netherlands",,"Leeuwarden, Fryslân, Nederland",53.2005936,5.7918548
129,/title/tt1978200/,,"Vlieland, Friesland, Netherlands",,"Vlieland, Fryslân, Nederland",53.202995,4.994912625567253
130,/title/tt1978200/,,"Heerenveen, Friesland, Netherlands",,"Heerenveen, Fryslân, Nederland",52.9568246,5.9270052
131,/title/tt1978200/,,"Egmond aan Zee, Noord-Holland, Netherlands",,"Egmond aan Zee, Bergen (NH), Noord-Holland, Nederland",52.618247499999995,4.621382942896329
132,/title/tt2243900/,,"Nickel Diner - 524 S Main St, Los Angeles, California, USA",(The Orloff),"Nickel Diner, 524, South Main Street, Downtown, Los Angeles, Los Angeles County, California, 90013, United States of America",34.0460466,-118.2488754
133,/title/tt2243900/,,"Chandler Studios, North Hollywood, California, USA",(Green Screen Stage/Alleys),,,
134,/title/tt0075263/,,"Union Station - 800 N. Alameda Street, Downtown, Los Angeles, California, USA",,,,
135,/title/tt0075263/,,"Los Angeles Theatre - 615 S. Broadway, Downtown, Los Angeles, California, USA",(establishing shot of newstand: rear entrance),"Los Angeles Theatre, 615, South Broadway, Historic Core District, Downtown, Los Angeles, Los Angeles County, California, 90013, United States of America",34.04656305,-118.25281941907565
136,/title/tt0075263/,,"Los Angeles, California, USA",,"Los Angeles, Los Angeles County, California, United States of America",34.0536909,-118.2427666
137,/title/tt0075263/,,"Arden Villa - 1145 Arden Road, Pasadena, California, USA",,,,
138,/title/tt0056127/,,Denmark,,Danmark,55.670249,10.3333283
139,/title/tt0109294/,,"Gold Canyon, Arizona, USA",,"Gold Canyon, Pinal County, Arizona, 85218, United States of America",33.3710715,-111.42618498017515
140,/title/tt0109294/,,"Superstition Wilderness, Arizona, USA",,"Superstition Wilderness, Maricopa County, Arizona, United States of America",33.491928,-111.25590529904564
141,/title/tt0109294/,,"Tonto National Forest, Arizona, USA",,"Tonto National Forest, Tonto Basin, Gila County, Arizona, United States of America",33.8155875,-111.30698734232479
142,/title/tt0109294/,,"Tortilla Flat, Arizona, USA",,"Tortilla Flat, Gilbert, Maricopa County, Arizona, United States of America",33.5264365,-111.3898523
143,/title/tt0109294/,,"Superior, Arizona, USA",,"Superior, Pinal County, Arizona, United States of America",33.293945,-111.0962305
144,/title/tt0109294/,,"Arizona, USA",,"Arizona, United States of America",34.395342,-111.7632755
145,/title/tt0066631/,,"Sonoran Desert, Arizona, USA",,"Sonoran Desert, Bates Well Road, Pima County, Arizona, United States of America",32.2598642,-112.9262583
146,/title/tt0066631/,,"Sierrita Mountains, Arizona, USA",,,,
147,/title/tt0066631/,,"Mammoth, Arizona, USA",,"Mammoth, Pinal County, Arizona, 85618, United States of America",32.722568,-110.6406547
148,/title/tt0066631/,,"Winkelman, Arizona, USA",,"Winkelman, Gila County, Arizona, United States of America",32.9875659,-110.7709387
149,/title/tt0066631/,,"Kearney, Arizona, USA",,"North Kearney Drive, Desert Sage - Continental Ranch, Kino, Marana, Pima County, Arizona, 85652, United States of America",32.3549346,-111.1037955
150,/title/tt0066631/,,"Globe, Arizona, USA",,"Globe, Gila County, Arizona, United States of America",33.3959623,-110.7871344
151,/title/tt0066631/,,"Bisbee, Arizona, USA",,"Bisbee, Cochise County, Arizona, United States of America",31.4481547,-109.9284084
152,/title/tt0077698/,,"Bend, Oregon, USA",,"Bend, Deschutes County, Oregon, United States of America",44.0581728,-121.3153096
153,/title/tt2474972/,,South Africa,,South Africa,-28.8166236,24.991639
154,/title/tt2381317/,,"Topanga, California, USA",,"Topanga, Los Angeles County, California, 90290, United States of America",34.0897,-118.6029649
155,/title/tt6980546/,,India,(location),India,22.3511148,78.6677428
156,/title/tt2077833/,,"FilmCity, Mumbai, India",,,,
157,/title/tt2077833/,,"Hampi, Karnataka, India",,"Hampe, Hosapete, Hosapete taluk, Bellary district, Karnataka, 583239, India",15.3358,76.4610201
158,/title/tt2077833/,,"Mysore, Karnataka, India",,"Mysuru, Mysuru taluk, Mysuru district, Karnataka, 570001, India",12.3051828,76.6553609
159,/title/tt0099260/,,"Heber City, Utah, USA",,"Heber City, Heber, Wasatch County, Utah, 84032, United States of America",40.5065256,-111.4133091
160,/title/tt0099260/,,"Park City, Utah, USA",,"Park City, Utah, United States of America",40.6460635,-111.4979741
161,/title/tt0377100/,,"Politechnika Warszawska Main Building, Plac Politechniki, Sródmiescie, Warsaw, Mazowieckie, Poland",,"Politechnika Warszawska, 1, Plac Politechniki, Śródmieście Południowe, Śródmieście, Warszawa, województwo mazowieckie, 00-661, Polska",52.221653950000004,21.007357761251072
162,/title/tt0377100/,,"Old Town, Sródmiescie, Warsaw, Mazowieckie, Poland",,"Stare Miasto, Śródmieście, Warszawa, województwo mazowieckie, Polska",52.2495153,21.0122437
163,/title/tt0067870/,,"Almería, Andalucía, Spain",,"Almería, Andalucía, España",36.8414197,-2.4628135
164,/title/tt0067870/,,Spain,,España,39.3262345,-4.8380649
165,/title/tt1618372/,,"Vasquez Rocks Natural Area Park - 10700 W. Escondido Canyon Rd., Agua Dulce, California, USA",,,,
166,/title/tt1618372/,,"Aberdeen Restaurant, Aberdeen, California, USA","(Spider ""nest"")","Aberdeen, Temecula, Riverside County, California, 92550, United States of America",33.5369125,-117.163055
167,/title/tt1562859/,,"Hyderabad, Telangana, India",,"Hyderabad, Telangana, India",17.38878595,78.46106473453146
168,/title/tt1740476/,,"San Antonio, Texas, USA",,"San Antonio, Bexar County, Texas, United States of America",29.4246002,-98.4951405
169,/title/tt5456104/,,"Tenerife, Canary Islands, Spain",,"Tenerife, La Orotava, Santa Cruz de Tenerife, Canarias, España",28.2935785,-16.621447121144122
170,/title/tt5456104/,,"Viator, Almería, Andalucía, Spain",(Military base),"Viator, Almería, Andalucía, 04240, España",36.8887282,-2.4251246
171,/title/tt5456104/,,"Arico Viejo, Tenerife, Canary Islands, Spain",,"Arico Viejo, Santa Cruz de Tenerife, Canarias, 38580, España",28.1825227,-16.4797981
172,/title/tt5456104/,,"Zaragoza, Aragón, Spain",,"Zaragoza, Aragón, España",41.6521342,-0.8809428
173,/title/tt0087402/,,"Veluzat Motion Picture Ranch, Saugus, California, USA",,,,
174,/title/tt0087402/,,"Thousand Oaks, California, USA",,"Thousand Oaks, Ventura County, California, United States of America",34.17142715,-118.91058772974445
175,/title/tt0070680/,,"U.S. Army National Guard Headquarters 1/101 Cavalry - 321 Manor Road, Staten Island, New York, USA",(U.S. Army National guard),,,
176,/title/tt0070680/,,"West Street and Debrosses Street, Manhattan, New York City, New York, USA",(Shamus gets out of taxi),,,
177,/title/tt0070680/,,"Manhattan, New York City, New York, USA",,"Manhattan, New York County, New York, United States of America",40.7896239,-73.9598939
178,/title/tt0070680/,,"Red Hook, Brooklyn, New York City, New York, USA",(pool hall),"Red Hook, Brooklyn, Kings County, New York, 11231, United States of America",40.6751032,-74.0095841
179,/title/tt0070680/,,"Greenwich Village, Manhattan, New York City, New York, USA",,"Greenwich Village, 7th Avenue South, West Village, Manhattan Community Board 2, Manhattan, New York County, New York, 10014, United States of America",40.7335844,-74.0028172
180,/title/tt0070680/,,"Sutton Place, Manhattan, New York City, New York, USA",(apartment penthouse of Felix Montaigne),"York Avenue, Upper East Side, Manhattan Community Board 8, Manhattan, New York County, New York, 10022, United States of America",40.7587292,-73.9596738
181,/title/tt0070680/,,"Staten Island, New York, USA",,"Staten Island, Richmond County, New York, United States of America",40.5834557,-74.1496048
182,/title/tt0775536/,,"San Diego, California, USA",,"San Diego, San Diego County, California, United States of America",32.7174209,-117.1627714
183,/title/tt0105871/,,France,,France,46.603354,1.8883335
184,/title/tt0105871/,,"Scotland, UK",,"Scotland, United Kingdom",56.7861112,-4.1140518
185,/title/tt1876349/,,"Redondo Beach, California, USA",,"Redondo Beach, Los Angeles County, California, United States of America",33.8455911,-118.3886766
186,/title/tt1876349/,,"Venice, Los Angeles, California, USA",,"Venice, Los Angeles, Los Angeles County, California, United States of America",33.995044,-118.4668875
187,/title/tt1219671/,,South Africa,,South Africa,-28.8166236,24.991639
188,/title/tt0077850/,,"Hollywood, Los Angeles, California, USA",,"Hollywood, Los Angeles, Los Angeles County, California, 90028-8127, United States of America",34.0980031,-118.329523
189,/title/tt0077850/,,"San Francisco, California, USA",,"San Francisco, San Francisco City and County, California, United States of America",37.7790262,-122.4199061
190,/title/tt0077850/,,Taiwan,,"臺灣, 信義鄉, 南投縣, 臺灣省, Taiwan",23.59829785,120.83536313817521
191,/title/tt3709718/,,UK,,United Kingdom,54.7023545,-3.2765753
192,/title/tt0086489/,,"Paramount's Great America Amusement Park, Great America Parkway, Santa Clara, California, USA",,,,
193,/title/tt8671116/,,"East Rutherford, New Jersey, USA",(Location),"East Rutherford, Bergen County, New Jersey, 07073, United States of America",40.833989,-74.0970865
194,/title/tt0056327/,,"Yokohama, Japan",,"横浜市, 神奈川県, 231-0017, 日本 (Japan)",35.444991,139.636768
195,/title/tt1494829/,,"Warner Brothers Burbank Studios - 4000 Warner Boulevard, Burbank, California, USA",,,,
196,/title/tt4012916/,,"Brownsville, Texas, USA",,"Brownsville, Cameron County, Texas, United States of America",25.9140256,-97.4890856
197,/title/tt4012916/,,"South Padre Island, Texas, USA",,"South Padre Island, Cameron County, Texas, 78597, United States of America",26.1036887,-97.1646938
198,/title/tt0109959/,,Mexico,,"Ciudad de México, 06060, México",19.4326296,-99.1331785
199,/title/tt0096677/,,UK,,United Kingdom,54.7023545,-3.2765753
200,/title/tt0099652/,,"Essel Studios, Mumbai, Maharashtra, India",(studio),"Essel Studios, M/E Ward, Zone 5, Mumbai, Mumbai Suburban, Maharashtra, India",19.03445105,72.95017700917937
201,/title/tt0099652/,,"Filmalaya Studio, Mumbai, Maharashtra, India",(studio),,,
202,/title/tt0099652/,,"Mehboob Studios, Mumbai, Maharashtra, India",(studio),"Mehboob Studio, Mount Carmel Road, Mount Mary, Bandra West, Zone 3, Mumbai, Mumbai Suburban, Maharashtra, 400050, India",19.0524573,72.8247562
203,/title/tt1884457/,,"Vancouver, British Columbia, Canada",,"Vancouver, Metro Vancouver Regional District, British Columbia, Canada",49.2608724,-123.1139529
204,/title/tt0099991/,,"San Pedro, Los Angeles, California, USA",,"San Pedro, Los Angeles, Los Angeles County, California, 90731, United States of America",33.7358518,-118.2922934
205,/title/tt0088818/,,"Georgia, USA",,"Georgia, United States of America",32.3293809,-83.1137366
206,/title/tt0088818/,,"Incir De Paolis Studios, Rome, Lazio, Italy",(cabin interiors),,,
207,/title/tt0156214/,,"Tokyo, Japan",,"東京都, 日本 (Japan)",35.6828387,139.7594549
208,/title/tt0090779/,,"Marysville, British Columbia, Canada",,"Marysville, Kimberley, Regional District of East Kootenay, British Columbia, V0B 1Z0, Canada",49.638703,-115.9593908
209,/title/tt6212210/,,"Vancouver, British Columbia, Canada",,"Vancouver, Metro Vancouver Regional District, British Columbia, Canada",49.2608724,-123.1139529
210,/title/tt6212210/,,Canada,,Canada,61.0666922,-107.9917071
211,/title/tt0073059/,,"Vasquez Rocks Natural Area Park - 10700 W. Escondido Canyon Rd., Agua Dulce, California, USA",(title sequense),,,
212,/title/tt4558362/,,"Sinop, Turkey",,"Sinop, Karadeniz Bölgesi, Türkiye",41.6394277,34.8681231
213,/title/tt4558362/,,"Trabzon, Turkey",,"Trabzon, Ortahisar, Trabzon, Karadeniz Bölgesi, 61050, Türkiye",41.0058605,39.7180928
214,/title/tt0079652/,,"Watsons Bay, Sydney, New South Wales, Australia",(final scene),"Watsons Bay, Sydney, Woollahra Municipal Council, New South Wales, 2030, Australia",-33.8432736,151.2825736
215,/title/tt0053341/,,"West Berlin, Berlin, Germany",,"W, Roedenbecksteig, Wannsee, Steglitz-Zehlendorf, Berlin, 14109, Deutschland",52.409386,13.127390796573096
216,/title/tt0113024/,,"The Royal Milwaukee Hotel, Wisconsin Avenue, Milwaukee, Wisconsin, USA",,,,
217,/title/tt0135515/,,"Hyderabad, Telangana, India",,"Hyderabad, Telangana, India",17.38878595,78.46106473453146
218,/title/tt0135515/,,"Mehboob Studios, Mumbai, Maharashtra, India",(studio),"Mehboob Studio, Mount Carmel Road, Mount Mary, Bandra West, Zone 3, Mumbai, Mumbai Suburban, Maharashtra, 400050, India",19.0524573,72.8247562
219,/title/tt0135515/,,"Ooty, Tamil Nadu, India",,"உதகமண்டலம், Udhagamandalam, நீலகிரி மாவட்டம், Tamil Nadu, 643001, India",11.4126769,76.7030504
220,/title/tt1534370/,,"Torrelodones, Madrid, Spain",(Villa Dorita),"Torrelodones, Cuenca del Guadarrama, Comunidad de Madrid, España",40.5762809,-3.928603
221,/title/tt1534370/,,"Leganés, Madrid, Spain",(studio),"Leganés, Área metropolitana de Madrid y Corredor del Henares, Comunidad de Madrid, España",40.3281942,-3.76527
222,/title/tt0277828/,,"Fox Studios, Moore Park, Sydney, New South Wales, Australia",(studio),"Fox Studios Australia, Moore Park, Sydney, Council of the City of Sydney, New South Wales, 2021, Australia",-33.890960899999996,151.22750517838074
223,/title/tt0120353/,,"Prim, Nevada, USA",,"Prim, King George County, Virginia, United States of America",38.2487403,-77.0699746
224,/title/tt0035419/,,"Brooklyn Bridge, New York City, New York, USA",,"Brooklyn Bridge, Dover Street, Financial District, Manhattan Community Board 1, Manhattan, New York County, New York, 10038, United States of America",40.70569125,-73.9963578678543
225,/title/tt0059390/,,"Bank, London, England, UK",(tube station),"Bank, Mansion House Place, Barbican, City of London, Greater London, England, EC3V 3LA, United Kingdom",51.5131048,-0.0893749
226,/title/tt0059390/,,"Nice Cote d'Azur Airport, NIce, Alpes-Maritimes, France",(Boysie and Iris arrive at airport for their weekend getaway),"Aéroport de Nice-Côte d'Azur, Promenade Edouard Corniglion-Molinier, Nice, Alpes-Maritimes, Provence-Alpes-Côte d'Azur, France métropolitaine, 06703, France",43.6594505,7.213216299100788
227,/title/tt0059390/,,"London Heathrow Airport, London Borough of Hillingdon, London, England, UK","(Queen's building - demolished 2009, now site of Terminal 2 - Boysie and Iris arrival back in the UK)","London Heathrow Airport, Southern Perimeter Road, London Borough of Hillingdon, London, Greater London, England, TW19 7NN, United Kingdom",51.46773895,-0.4587800741571181
228,/title/tt0059390/,,"St. Margaret's Church, Ridge, Hertfordshire, England, UK",(Oakes and Mostyn meet again at funeral outside this church),,,
229,/title/tt0059390/,,"Hampstead Heath, Camden, London, England, UK",(Oakes pays off Griffen as he jogs past),"Hampstead Heath, Vale of Health, Gospel Oak, London Borough of Camden, London, Greater London, England, United Kingdom",51.56398185,-0.1671866699284853
230,/title/tt0059390/,,"Paris, France",(archive footage of WWII liberation parade),"Paris, Île-de-France, France métropolitaine, 75004, France",48.8566969,2.3514616
231,/title/tt1274293/,,"Busan, South Korea",,"부산, 대한민국",35.1799528,129.0752365
232,/title/tt1274293/,,"Daegu, Yeongnam, South Korea",,,,
233,/title/tt1274293/,,"Jeonju, South Korea",,"전주시, 전라북도, 대한민국",35.8242715,127.1480657
234,/title/tt0073880/,,"Jackson, Tennessee, USA","(Scene where Buford is destroying the Camaro was shot at the Madison County Fairgrounds in Jackson, Tn.)","Jackson, Madison County, Tennessee, United States of America",35.6144446,-88.8177418
235,/title/tt0970462/,,"KwaZulu-Natal, South Africa",,"KwaZulu-Natal, South Africa",-28.503833,30.8875009
236,/title/tt0054422/,,"Cinecittà Studios, Cinecittà, Rome, Lazio, Italy",(studio),,,
237,/title/tt4895910/,,"Ljubljana, Slovenia",,"Ljubljana, Upravna Enota Ljubljana, Slovenija",46.0499803,14.5068602
238,/title/tt4895910/,,"Celje, Slovenia",,"Celje, Slovenija",46.2293889,15.2616828
239,/title/tt4895910/,,"Preddvor, Slovenia",,"Preddvor, 4205, Slovenija",46.3021918,14.42191
240,/title/tt0033226/,,"Painted Desert, Arizona, USA",,"Painted Desert Inn, Kachina Point, Apache County, Arizona, United States of America",35.08388215,-109.78878246995701
241,/title/tt0033226/,,"Santa Clarita, California, USA",,"Santa Clarita, Los Angeles County, California, United States of America",34.3916641,-118.542586
242,/title/tt0033226/,,"Vasquez Rocks Natural Area Park - 10700 W. Escondido Canyon Rd., Agua Dulce, California, USA",,,,
243,/title/tt0033226/,,"Victorville, California, USA",,"Victorville, San Bernardino County, California, United States of America",34.5361067,-117.2911565
244,/title/tt2440354/,,"Bled, Slovenia",,"Bled, 4260, Slovenija",46.3684202,14.1100595
245,/title/tt2440354/,,"Postojna, Slovenia",,"Postojna, Slovenija",45.7752438,14.2117877
246,/title/tt2440354/,,"Hyderabad, Telangana, India",,"Hyderabad, Telangana, India",17.38878595,78.46106473453146
247,/title/tt1427298/,,"Fred C. Nelles Correctional Facility, Whittier, California, USA",,,,
248,/title/tt0327116/,,"Long Beach, California, USA",,"Long Beach, Los Angeles County, California, United States of America",33.7690164,-118.1916048
249,/title/tt0055850/,,"Tokyo, Japan",,"東京都, 日本 (Japan)",35.6828387,139.7594549
250,/title/tt0286593/,,India,,India,22.3511148,78.6677428
251,/title/tt1242457/,,"Kamyanets-Podilsky, Ukraine",(castle),"Кам'янець-Подільський, Вокзальна вулиця, Черьомушки, Кам’янець-Подільський, Хмельницька область, 32300-32315, Україна",48.6879807,26.6020218
252,/title/tt1242457/,,"Boleslawiec, Dolnoslaskie, Poland",,"Bolesławiec, powiat bolesławiecki, województwo dolnośląskie, Polska",51.2630333,15.5651049
253,/title/tt1242457/,,"Saint-Petersburg, Russia",(Lenfilm),"Санкт-Петербург, Центральный район, Санкт-Петербург, Северо-Западный федеральный округ, 190000, Россия",59.938732,30.316229
254,/title/tt0070083/,,"Los Angeles International Airport - 1 World Way, Los Angeles, California, USA",,,,
255,/title/tt0070083/,,"Venice, Los Angeles, California, USA",,"Venice, Los Angeles, Los Angeles County, California, United States of America",33.995044,-118.4668875
256,/title/tt0085473/,,"Encinal, Texas, USA",,"Encinal, La Salle County, Texas, United States of America",28.0406329,-99.3552096
257,/title/tt0085473/,,"Laredo International Fair and Exposition Grounds - Laredo, Texas, USA",(rodeo scenes),,,
258,/title/tt0085473/,,"Laredo City Hall, Laredo, Texas, USA",,"Laredo City Hall, Flores Avenue, Laredo, Webb County, Texas, 78040, United States of America",27.50751075,-99.5070073
259,/title/tt0085473/,,"United States-Mexico Border, Texas, USA",,,,
260,/title/tt11433874/,,"New York City, New York, USA",(street scenes),"New York, United States of America",40.7127281,-74.0060152
261,/title/tt2404217/,,"Chiba, Japan",,"千葉市, 千葉県, 日本 (Japan)",35.609985,140.118126
262,/title/tt2404217/,,"Chiyoda-ku, Tokyo, Japan",,"千代田区, 日本 (Japan)",35.6938097,139.7532163
263,/title/tt2404217/,,"Makinohara, Shizuoka, Japan",,"牧之原市, 静岡県, 日本 (Japan)",34.718766,138.18517
264,/title/tt0071902/,,"Universal City, California, USA",,"Universal City, Los Angeles County, California, 91608, United States of America",34.1412926,-118.3584364
265,/title/tt0071902/,,"Toluca Lake, Los Angeles, California, USA",,"Toluca Lake, Los Angeles, Los Angeles County, California, 91602-2532, United States of America",34.1521688,-118.3571417
266,/title/tt0071902/,,"Los Angeles, California, USA",(Baltimore Hotel),"Los Angeles, Los Angeles County, California, United States of America",34.0536909,-118.2427666
267,/title/tt0071902/,,"Long Beach, California, USA",(amusement park),"Long Beach, Los Angeles County, California, United States of America",33.7690164,-118.1916048
268,/title/tt0060330/,,"Guildford, Surrey, England, UK",,"Guildford, Surrey, South East, England, United Kingdom",51.2356068,-0.5732063
269,/title/tt0060330/,,"Black Park, Iver Heath, Buckinghamshire, England, UK",,"Black Park, Wexham, Iver Heath, Buckinghamshire, South East, England, United Kingdom",51.542492100000004,-0.5441123704462851
270,/title/tt0060330/,,"Claydon Park, Claydon, Buckinghamshire, England, UK",,"Claydon Park, Middle Claydon, Buckinghamshire, South East, England, United Kingdom",51.922300050000004,-0.9583818882555968
271,/title/tt0060330/,,"Pinewood Studios, Iver Heath, Buckinghamshire, England, UK",(studio),"Pinewood Studios, Pinewood Green, Iver, Iver Heath, Buckinghamshire, South East, England, SL0 0QJ, United Kingdom",51.54831515,-0.5346765566753087
272,/title/tt0078335/,,"Grauman's Chinese Theater - 6925 Hollywood Blvd., Hollywood, Los Angeles, California, USA",,,,
273,/title/tt0078335/,,"Los Angeles International Airport - 1 World Way, Los Angeles, California, USA",,,,
274,/title/tt0078335/,,"Sydney, New South Wales, Australia",,"Sydney, New South Wales, Australia",-33.8548157,151.2164539
275,/title/tt0081558/,,"Fayette County, Kentucky, USA",,"Fayette County, Kentucky, United States of America",38.0280648,-84.4722444
276,/title/tt0475750/,,"Busan, South Korea",,"부산, 대한민국",35.1799528,129.0752365
277,/title/tt0475750/,,"Pattaya, Thailand",,"พัทยา, จังหวัดชลบุรี, 20150, ประเทศไทย",12.931941,100.9009534
278,/title/tt0092922/,,"Mexico City, Distrito Federal, Mexico",,"México, Calle Benito Juárez, Unidad Habitacional Integración Latinoamericana, Naucalpan, 04350, México",19.337797000000002,-99.17851255290537
279,/title/tt1899142/,,"Madrid, Spain",,"Madrid, Área metropolitana de Madrid y Corredor del Henares, Comunidad de Madrid, 28001, España",40.4167047,-3.7035825
280,/title/tt0094813/,,"Los Angeles, California, USA",,"Los Angeles, Los Angeles County, California, United States of America",34.0536909,-118.2427666
281,/title/tt1431191/,,"Baton Rouge, Louisiana, USA",,"Baton Rouge, East Baton Rouge Parish, Louisiana, United States of America",30.4459596,-91.18738
282,/title/tt0144729/,,"Brighton, East Sussex, England, UK",,"Brighton Electrical Assemblies, Seaford, Lewes, East Sussex, South East, England, United Kingdom",50.78357855,0.12148666117747367
283,/title/tt0144729/,,"London, England, UK",,"London, Greater London, England, United Kingdom",51.5073219,-0.1276474
284,/title/tt0144729/,,"Shamwari Game Reserve, South Africa",,,,
285,/title/tt0144729/,,"Wilmington, North Carolina, USA",,"Wilmington, New Hanover County, North Carolina, United States of America",34.2257282,-77.9447107
286,/title/tt1512888/,,"Jaisalmer, Rajasthan, India",,"Jaisalmer, Rajasthan, India",27.02801615,70.7785056232077
287,/title/tt8325786/,,"Cortland Rail Road System, Montrose, Cortlandt Manor, NY, USA",,,,
288,/title/tt8325786/,,"Media Design Imaging, Cleveland, OH 44103, USA",,,,
289,/title/tt8325786/,,"Shadows Bar and Grille, Parma, Ohio, USA",,,,
290,/title/tt8325786/,,"Galaxy KTV, AsiaTown, Ohio, USA",,"Galaxy KTV, East 31st Place, Asiatown, Cleveland, Cuyahoga County, Ohio, 44114, United States of America",41.508936250000005,-81.6687820070132
291,/title/tt2134101/,,"Chicago Illinois, USA",,"Chicago, Cook County, Illinois, United States of America",41.8755616,-87.6244212
292,/title/tt2107814/,,"Potsdamer Platz, Mitte, Berlin, Germany",,"Potsdamer Platz, Tiergarten, Mitte, Berlin, 10785, Deutschland",52.5100508,13.3758847
293,/title/tt0079891/,,"Songshan Mountains, China",,,,
294,/title/tt5584732/,,"Munich, Bavaria, Germany",,"München, Bayern, Deutschland",48.1371079,11.5753822
295,/title/tt5584732/,,Germany,,Deutschland,51.0834196,10.4234469
296,/title/tt0065720/,,"Malaga, Andalucia, Spain",,"Málaga, Málaga-Costa del Sol, Málaga, Andalucía, España",36.7213028,-4.4216366
297,/title/tt0065720/,,Spain,,España,39.3262345,-4.8380649
298,/title/tt0078517/,,South Korea,,대한민국,36.638392,127.6961188
299,/title/tt2357926/,,"Bhor, Maharashtra, India",,"Bhor, Pune District, Maharashtra, India",18.21276065,73.81636625187367
300,/title/tt2357926/,,"Lonavala, Maharashtra, India",,"Lonavala, Mawal, Pune District, Maharashtra, 410400, India",18.7548563,73.4016729
