,Code,Show Name,Location,Scene,geocodedLocation,latitude,longitude
0,/title/tt7846844/,Enola Holmes,"Minley manor, Minley Rd, Fleet GU17 9JT, United Kingdom",(Mrs Harrison's finishing school)                        ,,,
1,/title/tt7846844/,Enola Holmes,"Arley, Bewdley, DY12 3NE, UK",(Arley train station where Enola meets Sherlock)                        ,,,
2,/title/tt7846844/,Enola Holmes,"Old Royal Naval College, Greenwich, London, England, UK",(London street and Convent Garden columns)                        ,"Old Royal Naval College, Park Row, East Greenwich, Royal Borough of Greenwich, London, Greater London, England, SE10 9NL, United Kingdom",51.4829661,-0.006257671681354558
3,/title/tt7846844/,Enola Holmes,"Hatfield House, Hatfield, Hertfordshire, England, UK",(The home of the Tewksbury family)                        ,"Hatfield House, The Stable Yard, Hatfield, Welwyn Hatfield, Hertfordshire, East of England, England, AL9 5NF, United Kingdom",51.7605139,-0.20879851305478084
4,/title/tt7846844/,Enola Holmes,"HM Treasury, 1 Horse Guards Road Westminster, London, England, UK",(Meeting at the courtyard)                        ,"HM Treasury, 1, Horse Guards Road, Westminster, Millbank, City of Westminster, London, Greater London, England, SW1A 2BQ, United Kingdom",51.5019442,-0.1279467
5,/title/tt1190634/,The Boys,"Hamilton, Ontario, Canada",(location)                        ,"Hamilton, Golden Horseshoe, Ontario, L8P 0B3, Canada",43.2560802,-79.8728583
6,/title/tt1190634/,The Boys,"University of Toronto, Toronto, Ontario, Canada",(Hugh and Annie conversation)                        ,"University of Toronto, King's College Circle, University—Rosedale, Old Toronto, Toronto, Peel, Golden Horseshoe, Ontario, M5S 1A1, Canada",43.663461999999996,-79.39775965337452
7,/title/tt7423538/,Ratched,"Cannery Row, Monterey, California, USA",,"Cannery Row, Monterey, Monterey County, California, 93944, United States of America",36.6134933,-121.8979357
8,/title/tt7423538/,Ratched,"King Gillette Ranch, Malibu Creek State Park - Mulholland Highway, Calabasas, California, USA",(Lucia State Hospital exterior shots)                        ,,,
9,/title/tt7423538/,Ratched,"20th Century Fox Studios - 10201 Pico Blvd., Century City, Los Angeles, California, USA",(studio)                        ,,,
10,/title/tt7423538/,Ratched,"638 S Beacon St, Los Angeles, California, USA",,"San Pedro Municipal Building, 638, South Beacon Street, San Pedro, Los Angeles, Los Angeles County, California, 90731, United States of America",33.738087050000004,-118.28028292505583
11,/title/tt7423538/,Ratched,"California, USA",(studio)                        ,"California, United States of America",36.7014631,-118.7559974
12,/title/tt2802850/,Fargo,"Calgary, Alberta, Canada",,"Calgary, Strathmore (town), Alberta, Canada",51.0534234,-114.0625892
13,/title/tt2802850/,Fargo,"High River, Alberta, Canada",,"High River, Town of High River, Alberta, T1V 1P2, Canada",50.5797079,-113.8569213
14,/title/tt2802850/,Fargo,"Calgary Public Library, Calgary, Alberta, Canada",(FBI Headquarters in Fargo)                        ,,,
15,/title/tt2802850/,Fargo,"Inglewood, Calgary, Alberta, Canada",(Bemidji downtown)                        ,"Inglewood, Calgary, Alberta, T2G 3K3, Canada",51.0387997,-114.0274889
16,/title/tt2802850/,Fargo,"319 6th Street, Beiseker, Alberta, Canada",(Eden Valley Public Library and Eden Valley Police Department)                        ,,,
17,/title/tt2802850/,Fargo,"232 6th Street, Beiseker, Alberta, Canada","(Red Owl Market, Horn & Gill Outdoor Shop; Eden Valley)                        ",,,
18,/title/tt2802850/,Fargo,"504 7th Street, Beiseker, Alberta, Canada",(Eden Valley UFA Gas Station)                        ,,,
19,/title/tt7395114/,The Devil All the Time,"The Peerless Grille, Anniston, Alabama, USA",,"The Peerless Grille, Atlanta Avenue, Oxanna, Anniston, Calhoun County, Alabama, 36201, United States of America",33.65735505,-85.83045372385067
20,/title/tt7395114/,The Devil All the Time,"33 W 10th Street, Anniston, Alabama, USA",,"33, West 10th Street, Oxanna, Anniston, Calhoun County, Alabama, 36201, United States of America",33.65717,-85.83103390697676
21,/title/tt7395114/,The Devil All the Time,"Pine Flat Presbyterian Church, Deatsville, Alabama, USA",,,,
22,/title/tt7395114/,The Devil All the Time,"Forest Park, Birmingham, Alabama, USA",,"Forest Park, Birmingham, Jefferson County, Alabama, 35222, United States of America",33.515105,-86.766378
23,/title/tt7395114/,The Devil All the Time,"Oak Mountain State Park, Alabama, USA",,"Oak Mountain State Park, Pelham, Shelby County, Alabama, United States of America",33.34336075,-86.72222179640464
24,/title/tt7395114/,The Devil All the Time,"Jacksonville, Alabama, USA",,"Jacksonville, Calhoun County, Alabama, United States of America",33.8269995,-85.78319335989826
25,/title/tt7395114/,The Devil All the Time,"Pell City, Alabama, USA",,"Pell City, St. Clair County, Alabama, 35125, United States of America",33.5862149,-86.2860888
26,/title/tt7395114/,The Devil All the Time,"Dora, Alabama, USA",,"Dora, Walker County, Alabama, 35038, United States of America",33.728717,-87.0902772
27,/title/tt7395114/,The Devil All the Time,"Deatsville, Alabama, USA",,"Deatsville, Elmore County, Alabama, 36022, United States of America",32.6081874,-86.3958072
28,/title/tt7395114/,The Devil All the Time,"Birmingham, Alabama, USA",,"Birmingham, Jefferson County, Alabama, United States of America",33.5206824,-86.8024326
29,/title/tt7395114/,The Devil All the Time,USA,,United States,39.7837304,-100.4458825
30,/title/tt4052886/,Lucifer,"Vancouver, British Columbia, Canada",(Season 1 & 2)                        ,"Vancouver, Metro Vancouver Regional District, British Columbia, Canada",49.2608724,-123.1139529
31,/title/tt4052886/,Lucifer,"Warner Brothers Burbank Studios - 4000 Warner Boulevard, Burbank, California, USA",(studio)                        ,,,
32,/title/tt2442560/,Peaky Blinders,"Port Sunlight, Wirral, Merseyside, England, UK",(Series 2 - unknown)                        ,,,
33,/title/tt2442560/,Peaky Blinders,"Ellesmere Port, Cheshire, England, UK",(Series 2 - unknown)                        ,"Ellesmere Port, Station Road, Rossmore Estate, Ellesmere Port, Cheshire West and Chester, North West England, England, CH65 4BW, United Kingdom",53.2821114,-2.8960456
34,/title/tt2442560/,Peaky Blinders,"Leeds Town Hall, The Headrow, Leeds, West Yorkshire, England, UK",,,,
35,/title/tt2442560/,Peaky Blinders,"Little Germany, Bradford, West Yorkshire, England, UK",,"Little Germany, Bradford, West Yorkshire, Yorkshire and the Humber, England, BD1 5AW, United Kingdom",53.7941953,-1.7462607
36,/title/tt2442560/,Peaky Blinders,"City Varieties Music Hall, Swan Street, Leeds, West Yorkshire, England, UK",,,,
37,/title/tt2442560/,Peaky Blinders,"Bradford City Hall, Bradford, West Yorkshire, England, UK",,"Bradford City Hall, Centenary Square, Little Germany, Bradford, West Yorkshire, Yorkshire and the Humber, England, United Kingdom",53.7924059,-1.753383178037875
38,/title/tt2442560/,Peaky Blinders,"Cheshire, England, UK",,"Cheshire, Davenham, Bostock Green, Cheshire West and Chester, North West England, England, United Kingdom",53.2141028,-2.471770086071205
39,/title/tt2442560/,Peaky Blinders,"West Yorkshire, England, UK",,"West Yorkshire, Yorkshire and the Humber, England, United Kingdom",53.741427099999996,-1.7202003766777243
40,/title/tt2442560/,Peaky Blinders,"Keighley and Worth Valley Railway, Haworth, Keighley, Bradford, West Yorkshire, England, UK",,"Keighley and Worth Valley Railway, Providence Lane, Keighley, Bradford, West Yorkshire, Yorkshire and the Humber, England, BD22 7QZ, United Kingdom",53.8379163,-1.9474791
41,/title/tt2442560/,Peaky Blinders,"Ilkley, Bradford, West Yorkshire, England, UK",,"Ilkley, Bradford, West Yorkshire, Yorkshire and the Humber, England, United Kingdom",53.92023225,-1.824272287202847
42,/title/tt2442560/,Peaky Blinders,"King's Hall and Winter Gardens, Station Road, Ilkley, Bradford, West Yorkshire, England, UK",,"King's Hall & Winter Garden, Station Road, Ilkley, Bradford, West Yorkshire, Yorkshire and the Humber, England, LS29 8HB, United Kingdom",53.924202,-1.8215
43,/title/tt2442560/,Peaky Blinders,"Undercliffe Cemetery, The Lodge, 127 Undercliffe Lane, Undercliffe, Bradford, West Yorkshire, England, UK",,,,
44,/title/tt2442560/,Peaky Blinders,"Bradford Club, 1 Piece Hall Yard, Bradford, West Yorkshire, England, UK",,,,
45,/title/tt2442560/,Peaky Blinders,"Glasgow, Scotland, UK",(Season 6)                        ,"Glasgow, Glasgow City, Scotland, G2 9SA, United Kingdom",55.8609825,-4.2488787
46,/title/tt0903747/,Breaking Bad,"3828 Piermont Dr NE, Albuquerque, New Mexico, USA",(Walter White's House)                        ,"3828, Piermont Drive Northeast, San Gabriel Area, Albuquerque, Bernalillo County, New Mexico, 87111-6012, United States of America",35.12612145,-106.53654940000001
47,/title/tt0903747/,Breaking Bad,"Lead Ave. SE & Terrace St. SE, Albuquerque, New Mexico, USA",(Jesse Pinkman's Apartment)                        ,,,
48,/title/tt0903747/,Breaking Bad,"322 16th Street Southwest, Albuquerque, New Mexico, USA",(Jesse Pinkman's house)                        ,"Pinkman Residence, 322, 16th Street Southwest, Old Town, Albuquerque, Bernalillo County, New Mexico, 87104-1456, United States of America",35.087574200000006,-106.6656020263452
49,/title/tt0903747/,Breaking Bad,"1213 Jefferson Street Northeast, Albuquerque, New Mexico, USA",(Gus Fring's house)                        ,"1213, Jefferson Street Northeast, Nob Hill, Albuquerque, Bernalillo County, New Mexico, 87110, United States of America",35.0985759,-106.59321159215229
50,/title/tt0903747/,Breaking Bad,"9560 Snow Heights Circle NE, Albuquerque, New Mexico, USA",(exteriors-Car Wash)                        ,,,
51,/title/tt0903747/,Breaking Bad,"1617 de Candelaria Street, Albuquerque, New Mexico, USA",(Laundry - Lab)                        ,,,
52,/title/tt0903747/,Breaking Bad,"9615 Broadway Blvd SE, Albuquerque, New Mexico, USA",(Los Pollos Hermanos Factory Farm)                        ,"9615, Broadway Boulevard Southeast, Barr, South Valley, Bernalillo County, New Mexico, 87105, United States of America",34.957280712802515,-106.66176551048503
53,/title/tt0903747/,Breaking Bad,"Albuquerque, New Mexico, USA",,"Albuquerque, Bernalillo County, New Mexico, United States of America",35.0841034,-106.6509851
54,/title/tt0903747/,Breaking Bad,"Dalies Rd, Los Lunas, New Mexico, USA","(Hector ""Tio"" Salamanca's residence)                        ",,,
55,/title/tt0903747/,Breaking Bad,"478 Highway 165, Placitas, New Mexico, USA",(Don Eladio's Hacienda)                        ,,,
56,/title/tt0903747/,Breaking Bad,"John B. Robert Dam, Albuquerque, New Mexico, USA",(The Extractor's pickup point)                        ,"John B. Robert Dam, Juan Tabo Boulevard Northeast, Eisenhower Area, Albuquerque, Bernalillo County, New Mexico, 87111, United States of America",35.1390704,-106.51403866408168
57,/title/tt0903747/,Breaking Bad,USA,,United States,39.7837304,-100.4458825
58,/title/tt2741602/,The Blacklist,"Pleasantville, New York, USA",,"Pleasantville, Mount Pleasant, Westchester County, New York, 10570, United States of America",41.1328736,-73.7926335
59,/title/tt2741602/,The Blacklist,"Tottenville, Staten Island, New York, USA",(The Blacklist)                        ,"Tottenville, Bentley Street, Staten Island, Richmond County, New York, 10307, United States of America",40.5127684,-74.2519703
60,/title/tt0452046/,Criminal Minds,"Vancouver, British Columbia, Canada",,"Vancouver, Metro Vancouver Regional District, British Columbia, Canada",49.2608724,-123.1139529
61,/title/tt0452046/,Criminal Minds,"Altadena, California, USA",,"Altadena, Los Angeles County, California, 91001, United States of America",34.1863161,-118.1352329
62,/title/tt0452046/,Criminal Minds,"Santa Clarita, California, USA",,"Santa Clarita, Los Angeles County, California, United States of America",34.3916641,-118.542586
63,/title/tt0452046/,Criminal Minds,USA,,United States,39.7837304,-100.4458825
64,/title/tt8367814/,The Gentlemen,"West London Film Studios, London, England, UK",(studio)                        ,,,
65,/title/tt8367814/,The Gentlemen,"The Princess Victoria, 217 Uxbridge Road, Shepherd's Bush, London W12 9DH, UK",(Mickey Pearson's meeting spot)                        ,"Princess Victoria, 217, Uxbridge Road, White City Estate, London Borough of Hammersmith and Fulham, London, Greater London, England, W12 9DH, United Kingdom",51.5064496,-0.2408517
66,/title/tt5753856/,Dark,"Saarmund, Brandenburg, Germany",,"Saarmund, Nuthetal, Potsdam-Mittelmark, Brandenburg, Deutschland",52.3060264,13.115675612223395
67,/title/tt5753856/,Dark,"Tremsdorf, Potsdam-Mittelmark, Brandenburg, Germany",,"Tremsdorf, Potsdam-Mittelmark, Brandenburg, Deutschland",52.2721345,13.1177681
68,/title/tt8784956/,Ava,"Boston, Massachusetts, USA",,"Boston, Suffolk County, Massachusetts, United States of America",42.3602534,-71.0582912
69,/title/tt1475582/,Sherlock,"187 North Gower Street, Somers Town, London, England, UK",(exterior: 221B Baker Street)                        ,"Speedy's, 187, North Gower Street, Somers Town, London Borough of Camden, London, Greater London, England, NW1 2NJ, United Kingdom",51.52619,-0.1369017
70,/title/tt1475582/,Sherlock,"St. Bartholomew's Hospital, London, England, UK",(hospital scenes)                        ,"St Bartholomew's Hospital, Queen Isabella Way, Smithfield, City of London, Greater London, England, EC1A 1HQ, United Kingdom",51.51749,-0.10004604851696622
71,/title/tt8946378/,Knives Out,"Ames Borderland Mansion, 259 Massapoag Avenue, North Easton, Massachusetts, USA",(Thrombey House Library Interior)                        ,,,
72,/title/tt8946378/,Knives Out,"Maynard, Massachusetts, USA","(Car chase, John's Cleaners and laundromat - former Gruber's Furniture)                        ","Maynard, Middlesex County, Massachusetts, 01754, United States of America",42.4321064,-71.4539683
73,/title/tt8946378/,Knives Out,"Medfield, Massachusetts, USA",(Medfield State Hospital)                        ,"Medfield, Norfolk County, Massachusetts, 02052, United States of America",42.1865609,-71.30546
74,/title/tt8946378/,Knives Out,"Boston, Massachusetts, USA",,"Boston, Suffolk County, Massachusetts, United States of America",42.3602534,-71.0582912
75,/title/tt5071412/,Ozark,"Lake Ozark, Missouri, USA",(Bagnell Dam Strip)                        ,"Lake Ozark, Miller County, Missouri, United States of America",38.1798796,-92.6226454
76,/title/tt5071412/,Ozark,"6979 Bells Ferry Rd, Canton, Georgia, USA",(Blue Cat Lodge)                        ,"6979, Bells Ferry Road, Canton, Cherokee County, Georgia, 30114, United States of America",34.15605730992548,-84.58360065678937
77,/title/tt5071412/,Ozark,"6025 Oakbrook Pkwy, Norcross, Georgia, USA",(Lickety Splitz)                        ,,,
78,/title/tt5071412/,Ozark,"Mausoleum and Abbey of Westview Cemetery, Atlanta, Georgia, USA","(Navarro's estate in Michoacán, Mexico)                        ",,,
79,/title/tt5071412/,Ozark,"Chicago Illinois, USA",(street scenes)                        ,"Chicago, Cook County, Illinois, United States of America",41.8755616,-87.6244212
80,/title/tt1124373/,Sons of Anarchy,"Sun Valley, Los Angeles, California, USA",,"Sun Valley, Los Angeles, Los Angeles County, California, 91352, United States of America",34.2175042,-118.3703576
81,/title/tt1124373/,Sons of Anarchy,"Tujunga, Los Angeles, California, USA",,"Tujunga, Los Angeles, Los Angeles County, California, 91042, United States of America",34.252225,-118.2884105
82,/title/tt1124373/,Sons of Anarchy,"California, USA",,"California, United States of America",36.7014631,-118.7559974
83,/title/tt0141842/,The Sopranos,"Satin Dolls - 230 State Route 17 S., Lodi, New Jersey, USA",(Bada Bing Club)                        ,,,
84,/title/tt0141842/,The Sopranos,"East Brunswick, New Jersey, USA",,"East Brunswick, Brick Plant Road, South River, Middlesex County, New Jersey, 08882, United States of America",40.4692662,-74.385166
85,/title/tt0141842/,The Sopranos,"Newburgh, New York, USA",,"Newburgh, New York, United States of America",41.5034271,-74.0104179
86,/title/tt0141842/,The Sopranos,"Lincoln Tunnel, New York City, New York, USA",(opening credits)                        ,"Lincoln Tunnel, Hudson Yards, Manhattan Community Board 4, Manhattan, New York County, Weehawken, Hudson County, New Jersey, 100036, United States of America",40.7588352,-73.9999574
87,/title/tt0141842/,The Sopranos,"Silvercup Studios - 4222 22nd Street, Long Island City, Queens, New York City, New York, USA",(studio)                        ,"Silvercup Studios Main Lot, 42-22, 22nd Street, Queens, Queens County, New York, 11101, United States of America",40.7513513,-73.94424267969767
88,/title/tt0141842/,The Sopranos,"Atlantic Beach, Long Island, New York, USA",(Numerous Beach Scenes)                        ,,,
89,/title/tt0141842/,The Sopranos,"Bloomfield, New Jersey, USA",,"Bloomfield, Essex County, New Jersey, 07003, United States of America",40.806767,-74.1854226
90,/title/tt0141842/,The Sopranos,"Fort Lee, New Jersey, USA",,"Fort Lee, Bergen County, New Jersey, United States of America",40.8509333,-73.9701382
91,/title/tt0141842/,The Sopranos,"Lodi, New Jersey, USA",,"Lodi, Bergen County, New Jersey, 07644, United States of America",40.8823215,-74.0831971
92,/title/tt0141842/,The Sopranos,"New Jersey Turnpike, Jersey City, New Jersey, USA",(opening credits)                        ,"New Jersey Turnpike, Linwood, Fort Lee, Bergen County, New Jersey, 320, United States of America",40.8601514,-73.9751865
93,/title/tt0141842/,The Sopranos,"Passaic, New Jersey, USA",,"Passaic, Passaic County, New Jersey, 07055, United States of America",40.8567663,-74.1284764
94,/title/tt0141842/,The Sopranos,"Pulaski Skyway, New Jersey, USA",,"Pulaski Skyway, Tonnelle Circle, Croxton, Jersey City, Hudson County, New Jersey, 07306, United States of America",40.7392624,-74.0631542
95,/title/tt0141842/,The Sopranos,"Secaucus, New Jersey, USA",,"Secaucus, Hudson County, New Jersey, United States of America",40.7899291,-74.0566735
96,/title/tt0141842/,The Sopranos,"Wayne, New Jersey, USA",,"Wayne, Passaic County, New Jersey, United States of America",40.9491723,-74.2376802
97,/title/tt0141842/,The Sopranos,"New York City, New York, USA",,"New York, United States of America",40.7127281,-74.0060152
98,/title/tt0141842/,The Sopranos,"East Rutherford, New Jersey, USA",,"East Rutherford, Bergen County, New Jersey, 07073, United States of America",40.833989,-74.0970865
99,/title/tt0141842/,The Sopranos,"Matarazzo Farm - 216 Mountain Avenue, North Caldwell, New Jersey, USA",,,,
100,/title/tt0141842/,The Sopranos,"North Arlington, New Jersey, USA",,"North Arlington, Bergen County, New Jersey, 07031, United States of America",40.788434,-74.1331988
101,/title/tt0203259/,Law & Order: Special Victims Unit,"North Bergen, New Jersey, USA",,"North Bergen, Hudson County, New Jersey, 07047-2227, United States of America",40.8042674,-74.012084
102,/title/tt0203259/,Law & Order: Special Victims Unit,"New York City, New York, USA",,"New York, United States of America",40.7127281,-74.0060152
103,/title/tt2467372/,Brooklyn Nine-Nine,"CBS Studio Center - 4024 Radford Avenue, Studio City, Los Angeles, California, USA",(studio)                        ,,,
104,/title/tt0364845/,NCIS: Naval Criminal Investigative Service,"Valencia Studios - 26030 Avenue Hall, Valencia, California, USA",(interiors)                        ,,,
105,/title/tt2294189/,The Fall,"Belfast, County Antrim, Northern Ireland, UK",,"Belfast, County Antrim, Northern Ireland, BT1 5GS, United Kingdom",54.5964411,-5.9302761
106,/title/tt2294189/,The Fall,UK,,United Kingdom,54.7023545,-3.2765753
107,/title/tt2294189/,The Fall,"125-153 Millfield, Belfast, Northern Ireland, UK",(Belfast Metropolitan College)                        ,"Millfield / Divis Street, 125-153, Millfield, Smithfield and Union, Town Parks, Belfast, County Antrim, Northern Ireland, BT1 1HF, United Kingdom",54.5997012,-5.9363085
108,/title/tt2294189/,The Fall,"16 Skipper St, Belfast, Northern Ireland, UK",(The Merchant Hotel - Detective Stella Gibson's residence)                        ,"Skipper Street, Cathedral Quarter, Town Parks, Belfast, County Antrim, Northern Ireland, BT1 2DZ, United Kingdom",54.6007152,-5.9258794
109,/title/tt2294189/,The Fall,"40 Hope St, Belfast, Northern Ireland, UK",(The Holiday Inn)                        ,"Hope Street, Linen Quarter, Malone Lower, Belfast, County Antrim, Northern Ireland, BT12 5EG, United Kingdom",54.5934063,-5.9363389
110,/title/tt2294189/,The Fall,"1 Victoria Square, Belfast, Northern Ireland, UK",(Victoria Square)                        ,"YO! Sushi, 1, Victoria Square, Cathedral Quarter, Town Parks, Belfast, County Antrim, Northern Ireland, BT1 4QG, United Kingdom",54.59902865,-5.92554724008982
111,/title/tt2294189/,The Fall,"Airport Rd, Belfast, Northern Ireland, UK",(Belfast International Airport)                        ,"Airport Road, Ballymacarret Intake, County Down, Northern Ireland, BT4 1JY, United Kingdom",54.6112447,-5.8870708
112,/title/tt7713068/,Birds of Prey: And the Fantabulous Emancipation of One Harley Quinn,"Los Angeles, California, USA",,"Los Angeles, Los Angeles County, California, United States of America",34.0536909,-118.2427666
113,/title/tt7713068/,Birds of Prey: And the Fantabulous Emancipation of One Harley Quinn,"730 South Hill Street, Los Angeles, California, USA",(taco restaurant)                        ,"730, South Hill Street, Jewelry District, Downtown, Los Angeles, Los Angeles County, California, 90014, United States of America",34.04537987755102,-118.25481387755102
114,/title/tt7713068/,Birds of Prey: And the Fantabulous Emancipation of One Harley Quinn,"433 South Spring Street, Downtown, Los Angeles, California, USA",,"433, South Spring Street, Historic Core District, Downtown, Los Angeles, Los Angeles County, California, 90013, United States of America",34.04836973469388,-118.2488378367347
115,/title/tt7713068/,Birds of Prey: And the Fantabulous Emancipation of One Harley Quinn,"Downtown, Los Angeles, California, USA",,"Downtown, Los Angeles, Los Angeles County, California, United States of America",34.0428494,-118.2476732
116,/title/tt6468322/,La Casa de Papel,"Nuevos Ministerios, Madrid, Spain",(Exterior scene representing the Bank of Spain in Season 3.)                        ,"Nuevos Ministerios, Paseo de la Castellana, Ríos Rosas, Chamberí, Madrid, Área metropolitana de Madrid y Corredor del Henares, Comunidad de Madrid, 28001, España",40.4453197,-3.692254
117,/title/tt6468322/,La Casa de Papel,"Panama City, Panama",(location)                        ,"Panamá, Distrito Panamá, 080807, Panama",8.9714493,-79.5341802
118,/title/tt6468322/,La Casa de Papel,"Madrid, Spain",,"Madrid, Área metropolitana de Madrid y Corredor del Henares, Comunidad de Madrid, 28001, España",40.4167047,-3.7035825
119,/title/tt6468322/,La Casa de Papel,Thailand,(location)                        ,ประเทศไทย,14.8971921,100.83273
120,/title/tt6468322/,La Casa de Papel,Spain,,España,39.3262345,-4.8380649
121,/title/tt6468322/,La Casa de Papel,"Colmenar Viejo, Madrid, Spain",(Interior scenes)                        ,"Colmenar Viejo, Cuenca Alta del Manzanares, Comunidad de Madrid, España",40.6587901,-3.7663207
122,/title/tt3032476/,Better Call Saul,"Albuquerque, New Mexico, USA",,"Albuquerque, Bernalillo County, New Mexico, United States of America",35.0841034,-106.6509851
123,/title/tt3032476/,Better Call Saul,"Cottonwood Mall, 10000 Coors Blvd Bypass NW, Albuquerque, New Mexico, USA","(Cinnabon, as Gene at Omaha location)                        ",,,
124,/title/tt3032476/,Better Call Saul,"1520 Tejana Mesa Pl NE, Albuquerque, New Mexico, USA",(Kettleman's house)                        ,"1520, Tejana Mesa Place Northeast, Vista Del Mundo, Albuquerque, Bernalillo County, New Mexico, 87112, United States of America",35.09342694147022,-106.48162795294843
125,/title/tt3032476/,Better Call Saul,"102 Marquette Ave NE, Albuquerque, New Mexico, USA",(Mike's workplace)                        ,"102, Marquette Avenue Northeast, Martinez Town, Albuquerque, Bernalillo County, New Mexico, 87102, United States of America",35.08770476530612,-106.64621956122448
126,/title/tt3032476/,Better Call Saul,USA,,United States,39.7837304,-100.4458825
127,/title/tt7286456/,Joker,"Harlem, Manhattan, New York City, New York, USA",,"Harlem, Manhattan Community Board 10, Manhattan, New York County, New York, United States of America",40.8078786,-73.9454154
128,/title/tt7286456/,Joker,"Bronx, New York City, New York, USA",(street scenes)                        ,"Bronx County, New York, United States of America",40.8506558,-73.8665241
129,/title/tt7286456/,Joker,"Market Street at Washington Street, Newark, New Jersey, USA",(Climactic riot with Joker on top of the police car)                        ,,,
130,/title/tt7286456/,Joker,"New York City, New York, USA",,"New York, United States of America",40.7127281,-74.0060152
131,/title/tt7286456/,Joker,"Newark Paramount Theatre, Market St, Newark, New Jersey, USA",(Arthur Fleck works as a clown in the street)                        ,,,
132,/title/tt7286456/,Joker,"Hudson County Courthouse, Jersey City, New Jersey, USA",(The Wayne Hall)                        ,"Hudson County Courthouse, Pavonia Avenue, Indian Square, Bergen, Jersey City, Hudson County, New Jersey, 07306, United States of America",40.731620500000005,-74.05749479801153
133,/title/tt7286456/,Joker,"Disused lower level platforms, 9th Avenue Subway Station, Brooklyn, New York City, New York, USA",(Subway station)                        ,,,
134,/title/tt7286456/,Joker,"New York, USA",,"New York, United States of America",40.7127281,-74.0060152
135,/title/tt7286456/,Joker,"Paramount Theatre, Newark, New Jersey, USA","(Porn theater playing ""Strip Search"")                        ",,,
136,/title/tt7286456/,Joker,"Seagram Building, New York City, New York, USA",(Wayne Industries)                        ,"Seagram Building, 375, Park Avenue, Midtown East, Manhattan Community Board 5, Manhattan, New York County, New York, 10037, United States of America",40.75840725,-73.97198405511598
137,/title/tt7286456/,Joker,"Loew's Jersey Theatre, Jersey City, New Jersey, USA",(Crime Alley)                        ,"Loew's Jersey Theatre, 54, Magnolia Avenue, Indian Square, Bergen, Jersey City, Hudson County, New Jersey, 07306, United States of America",40.73241495,-74.06466024386884
138,/title/tt7286456/,Joker,USA,,United States,39.7837304,-100.4458825
139,/title/tt5743796/,Warrior,"Cape Town Film Studios, Cape Town, Western Cape, South Africa",,"Cape Town Film Studios, Film City Boulevard, Houghton, Cape Town Ward 16, Eersterivier, City of Cape Town, Western Cape, 7784, South Africa",-34.0315617,18.719156772105897
140,/title/tt11656892/,Des,"HM Prison Shepton Mallet, Shepton Mallet, Somerset, England, UK",(Later prison interiors)                        ,,,
141,/title/tt11656892/,Des,"Watford, Hertfordshire, England, UK",(As Melrose Avenue house)                        ,"Watford, Hertfordshire, East of England, England, United Kingdom",51.6553875,-0.3957425
142,/title/tt0118401/,Midsomer Murders,"Wallingford, Oxfordshire, England, UK",(Causton)                        ,"Wallingford, Oxfordshire, South East, England, OX10 0AS, United Kingdom",51.5982316,-1.1252158
143,/title/tt0118401/,Midsomer Murders,"Long Crendon, Buckinghamshire, England, UK",,"Long Crendon, Buckinghamshire, South East, England, HP18 9BP, United Kingdom",51.7741526,-0.9994988
144,/title/tt0118401/,Midsomer Murders,"Stockers Farm Rickmanswoth, Hertfordshire, England, UK",,,,
145,/title/tt0460627/,Bones,"Stage 9, 20th Century Fox Studios - 10201 Pico Blvd., Century City, Los Angeles, California, USA",(FBI set)                        ,,,
146,/title/tt0460627/,Bones,"Washington, District of Columbia, USA",(establishing shots)                        ,"Washington, District of Columbia, 20230, United States of America",38.8949924,-77.0365581
147,/title/tt0455275/,Prison Break,"Joliet Prison - Collins Street, Joliet, Illinois, USA",,,,
148,/title/tt0455275/,Prison Break,"Building One, Studios at Las Colinas - 6301 North O'Connor Road, Irving, Texas, USA",(seasons 2 & 3)                        ,,,
149,/title/tt0455275/,Prison Break,"Dallas, Texas, USA",(Season 3)                        ,"Dallas, Dallas County, Texas, United States of America",32.7762719,-96.7968559
150,/title/tt0455275/,Prison Break,"Casablanca, Morocco",,"Casablanca ⵜⴰⴷⴷⴰⵔⵜ ⵜⵓⵎⵍⵉⵍⵜ الدار البيضاء, préfecture d'arrondissements de Casablanca-Anfa عمالة مقاطعات الدار البيضاء أنفا, Pachalik de Casablanca, Préfecture de Casablanca عمالة الدار البيضاء, Casablanca-Settat ⵜⵉⴳⵎⵉ ⵜⵓⵎⵍⵉⵍⵜ-ⵙⵟⵟⴰⵜ الدار البيضاء-سطات, 20250, Maroc",33.5950627,-7.6187768
151,/title/tt0455275/,Prison Break,"Vancouver, British Columbia, Canada",,"Vancouver, Metro Vancouver Regional District, British Columbia, Canada",49.2608724,-123.1139529
152,/title/tt0455275/,Prison Break,"Frisco, Texas, USA",,"Frisco, Collin County, Texas, United States of America",33.1506744,-96.8236116
153,/title/tt0455275/,Prison Break,"Stage 5, 20th Century Fox Studios - 10201 Pico Blvd., Century City, Los Angeles, California, USA",,,,
154,/title/tt0455275/,Prison Break,"Miami, Florida, USA",,"Miami, Miami-Dade County, Florida, United States of America",25.7742658,-80.1936589
155,/title/tt0455275/,Prison Break,"Fort Worth, Texas, USA",(Season 2) (Season 3)                        ,"Fort Worth, Tarrant County, Texas, United States of America",32.753177,-97.3327459
156,/title/tt0455275/,Prison Break,"Irving, Texas, USA",(Season 3)                        ,"Irving, Dallas County, Texas, United States of America",32.8295183,-96.9442177
157,/title/tt0455275/,Prison Break,"Decatur, Texas, USA",(Season 2)                        ,"Decatur, Wise County, Texas, 76234, United States of America",33.2342834,-97.5861393
158,/title/tt0455275/,Prison Break,"Mineral Wells, Texas, USA",(Season 2)                        ,"Mineral Wells, Palo Pinto County, Texas, 76067, United States of America",32.8084605,-98.1128223
159,/title/tt0455275/,Prison Break,"Little Elm, Texas, USA",(Season 2)                        ,"Little Elm, Denton County, Texas, 75068, United States of America",33.1626194,-96.9375051
160,/title/tt2433738/,Wentworth,"Oakleigh, Melbourne, Victoria, Australia",,"Nikos Oakleigh Quality Cakes, 25-27, Portman Street, Oakleigh, City of Monash, Victoria, 3166, Australia",-37.8999302,145.0898077472845
161,/title/tt2433738/,Wentworth,"Melbourne, Victoria, Australia",,"Melbourne, City of Melbourne, Victoria, 3000, Australia",-37.8142176,144.9631608
162,/title/tt2433738/,Wentworth,"80 Champion Rd, Newport, Victoria, Australia",(season 4 -)                        ,"Champion Road, Newport, City of Hobsons Bay, Victoria, 3016, Australia",-37.8573237,144.8882089
163,/title/tt2433738/,Wentworth,"Brunswick, Victoria, Australia",,"Brunswick, City of Moreland, Victoria, 3056, Australia",-37.7664715,144.9613103
164,/title/tt1796960/,Homeland,"Mooresville, North Carolina, USA",,"Mooresville, Iredell County, North Carolina, United States of America",35.5848596,-80.8100724
165,/title/tt1796960/,Homeland,"Kurfürstendamm, Charlottenburg, Berlin, Germany",(Restaurant scene)                        ,"Kurfürstendamm, Charlottenburg, Charlottenburg-Wilmersdorf, 10707, Deutschland",52.5006413,13.3126145
166,/title/tt1796960/,Homeland,"Schweizer Hof, Budapester Straße, Charlottenburg, Berlin, Germany",(hotel scenes)                        ,,,
167,/title/tt1796960/,Homeland,Israel,,ישראל,31.5313113,34.8667654
168,/title/tt1796960/,Homeland,"Clinton Diner, Maspeth, Queens, New York City, New York, USA",(Diner)                        ,,,
169,/title/tt0306414/,The Wire,"Baltimore, Maryland, USA",,"Baltimore, Maryland, United States of America",39.2908816,-76.610759
170,/title/tt1877830/,The Batman,"Necropolis Cemetery, Glasgow, Scotland, UK",,"Glasgow Necropolis, 70, Garngad, Glasgow, Glasgow City, Scotland, G4 0UZ, United Kingdom",55.8627117,-4.230764005000472
171,/title/tt1877830/,The Batman,"Hartwood Psychiatric Hospital, Shotts, Scotland, UK",,,,
172,/title/tt1877830/,The Batman,"London, England, UK",,"London, Greater London, England, United Kingdom",51.5073219,-0.1276474
173,/title/tt1877830/,The Batman,"Cardington Airship Hangars, Bedfordshire, England, UK",(studio)                        ,,,
174,/title/tt0773262/,Dexter,"1155 103rd St, Bay Harbor Islands, Florida, USA",(Dexter/Debra's apartment)                        ,"Dexter house, 1155, 103rd Street, Bay Harbor Islands, Miami-Dade County, Florida, 33154, United States of America",25.8942623,-80.1329918
175,/title/tt0773262/,Dexter,"Columbia/Sunset Gower Studios - 1438 N. Gower Street, Hollywood, Los Angeles, California, USA",(studio)                        ,,,
176,/title/tt0773262/,Dexter,"Alamitos Bay, Long Beach, California, USA",,"Alamitos Bay, Vista del Golfo, Naples, Long Beach, Los Angeles County, California, 90803, United States of America",33.7497397,-118.1181204
177,/title/tt0773262/,Dexter,"Belmont Shore, California, USA",(beach scenes)                        ,"Belmont Shore, Long Beach, Los Angeles County, California, 90803, United States of America",33.7572435,-118.1370107
178,/title/tt2193021/,Arrow,"Hatley Castle, Royal Roads, Colwood, British Columbia, Canada",(Queen Mansion)                        ,,,
179,/title/tt2193021/,Arrow,"Vancouver, British Columbia, Canada",,"Vancouver, Metro Vancouver Regional District, British Columbia, Canada",49.2608724,-123.1139529
180,/title/tt2193021/,Arrow,"Vancouver Film Studios, Vancouver, British Columbia, Canada",(studio)                        ,"Vancouver Film Studios, Renfrew-Collingwood, Vancouver, Metro Vancouver Regional District, British Columbia, Canada",49.2612189,-123.02658531247799
181,/title/tt2356777/,True Detective,"Arkansas, USA",(Season 3)                        ,"Arkansas, United States of America",35.2048883,-92.4479108
182,/title/tt2356777/,True Detective,"Los Angeles, California, USA",(Season 2)                        ,"Los Angeles, Los Angeles County, California, United States of America",34.0536909,-118.2427666
183,/title/tt5290382/,Mindhunter,"Pittsburgh, Pennsylvania, USA",,"Pittsburgh, Allegheny County, Pennsylvania, United States of America",40.4416941,-79.9900861
184,/title/tt5290382/,Mindhunter,"Moundsville, West Virginia, USA",(West Virginia State Penitentiary)                        ,"Moundsville, Marshall County, West Virginia, 26041, United States of America",39.9203526,-80.7431407
185,/title/tt3205802/,How to Get Away with Murder,"Los Angeles, California, USA",,"Los Angeles, Los Angeles County, California, United States of America",34.0536909,-118.2427666
186,/title/tt3205802/,How to Get Away with Murder,"Sunset Gower Studios - 1438 N. Gower Street, Hollywood, Los Angeles, California, USA",,,,
187,/title/tt0468569/,The Dark Knight,"Chicago, Illinois, USA",,"Chicago, Cook County, Illinois, United States of America",41.8755616,-87.6244212
188,/title/tt0468569/,The Dark Knight,"Battersea Power Station, Battersea, London, England, UK",,,,
189,/title/tt0468569/,The Dark Knight,"Brach's Candy Factory - 401 N. Cicero Street, Chicago, Illinois, USA",(Gotham Hospital exteriors)                        ,,,
190,/title/tt0468569/,The Dark Knight,"Twin Anchors Restaurant & Tavern - 1655 N. Sedgwick Street, Lincoln Park, Chicago, Illinois, USA",,"Twin Anchors Restaurant & Tavern, 1655, North Sedgwick Street, Old Town Village East, Lincoln Park, Chicago, Cook County, Illinois, 60614, United States of America",41.9127223,-87.638378
191,/title/tt0468569/,The Dark Knight,"South LaSalle St., Chicago, Illinois, USA",(the Joker's semi-truck flip)                        ,"South LaSalle Street, Loop, South Loop, Chicago, Cook County, Illinois, 60605, United States of America",41.8735789,-87.6316592
192,/title/tt0468569/,The Dark Knight,"Old Post Office, Chicago, Illinois, USA",(bank heist)                        ,"Chicago, Cook County, Illinois, United States of America",41.8755616,-87.6244212
193,/title/tt0468569/,The Dark Knight,"Senate House, University College London, Malet Street, Bloomsbury, London, England, UK",,,,
194,/title/tt0468569/,The Dark Knight,"University of Westminster, London, England, UK",,"University of Westminster, 309, Regent Street, Fitzrovia, City of Westminster, London, Greater London, England, W1B 2HP, United Kingdom",51.5168987,-0.14330516808711596
195,/title/tt0468569/,The Dark Knight,"IBM Building - 330 N Wabash, Chicago, Illinois, USA",(interiors)                        ,"IBM Building, 330, North Wabash Avenue, Near North Side, Chicago, Cook County, Illinois, 60611, United States of America",41.8886414,-87.62759765068148
196,/title/tt0468569/,The Dark Knight,"Pinewood Studios, Iver Heath, Buckinghamshire, England, UK",(studio)                        ,"Pinewood Studios, Pinewood Green, Iver, Iver Heath, Buckinghamshire, South East, England, SL0 0QJ, United Kingdom",51.54831515,-0.5346765566753087
197,/title/tt0468569/,The Dark Knight,"Victoria Harbour, Hong Kong, China",,"維多利亞港 Victoria Harbour, 香港 Hong Kong, China 中国",22.32481995,114.11989606265749
198,/title/tt0468569/,The Dark Knight,"Chertsey, Surrey, England, UK",,"Chertsey, Surrey, South East, England, United Kingdom",51.392296,-0.5038294
199,/title/tt0468569/,The Dark Knight,"Richard J. Daley Center - 55 W. Randolph Street, The Loop, Downtown, Chicago, Illinois, USA",,,,
200,/title/tt0468569/,The Dark Knight,"N Franklin Street, Chicago, Illinois, USA",(Bruce Wayne drives Lamborghini)                        ,"North Franklin Street, Loop, Chicago, Cook County, Illinois, 60606, United States of America",41.8842067,-87.6353675
201,/title/tt0468569/,The Dark Knight,"London, England, UK",,"London, Greater London, England, United Kingdom",51.5073219,-0.1276474
202,/title/tt0468569/,The Dark Knight,"Old Town, Near North Side, Chicago, Illinois, USA",,,,
203,/title/tt0468569/,The Dark Knight,"Navy Pier - 600 E. Grand Avenue, Near North Side, Chicago, Illinois, USA",,"Navy Pier, 600, East Grand Avenue, Near North Side, Chicago, Cook County, Illinois, 60611, United States of America",41.89179985,-87.60414466382959
204,/title/tt0468569/,The Dark Knight,"Criterion Theatre, Jermyn Street, St James's, London, England, UK",,,,
205,/title/tt0468569/,The Dark Knight,"Longcross, Surrey, England, UK",,"Longcross, Burma Road, Chobham, Runnymede, Surrey, South East, England, KT16 0EX, United Kingdom",51.385277,-0.5950836
206,/title/tt0468569/,The Dark Knight,"The Peninsula Hong Kong, Salisbury Road, Tsim Sha Tsui, Kowloon, Hong Kong, China",,,,
207,/title/tt0068646/,The Godfather,"Forza d'Agrò, Messina, Sicily, Italy",(as Corleone village)                        ,"Forza d'Agrò, Messina, Sicilia, 98030, Italia",37.9146664,15.3345935
208,/title/tt0068646/,The Godfather,"Mitchell Field, Garden City, Long Island, New York, USA",(Tollbooth scene)                        ,,,
209,/title/tt0068646/,The Godfather,"Jack Dempsey's Restaurant - Broadway & 49th Street, Manhattan, New York City, New York, USA",,,,
210,/title/tt0068646/,The Godfather,"3531 White Plains Road, Bronx, New York City, New York, USA",(Italian restaurant)                        ,"3531, White Plains Road, The Bronx, Bronx County, New York, 10467, United States of America",40.878386250000005,-73.86645359035717
211,/title/tt0068646/,The Godfather,"1 Allen Ave, Ross, California, USA",(Kay Adams' school.)                        ,"1, Allen Avenue, Ross, Marin County, California, 94957, United States of America",37.961778,-122.558607
212,/title/tt0068646/,The Godfather,"Mott Street, Manhattan, New York City, New York, USA",(Genco Olive Oil Co)                        ,"Mott Street, Little Italy, Manhattan Community Board 2, Five Points, New York County, New York, 10012, United States of America",40.7191187,-73.996449
213,/title/tt0068646/,The Godfather,"5th Avenue, Manhattan, New York City, New York, USA",(Best & Co. Store)                        ,"5th Avenue, East Harlem, Manhattan Community Board 11, Manhattan, New York County, New York, 10030, United States of America",40.8147478,-73.9361291
214,/title/tt0068646/,The Godfather,"Fieldstone Mansion, Riverdale, Bronx, New York City, New York, USA",,,,
215,/title/tt0068646/,The Godfather,"Staten Island, New York City, New York, USA",,"Staten Island, Richmond County, New York, United States of America",40.5834557,-74.1496048
216,/title/tt0068646/,The Godfather,"Church of St. Joachim and St. Anne on the grounds of The Mission of the Immaculate Virgin at Mount Loretto, Staten Island, New York City, New York, USA",(exteriors: church where the christening takes place)                        ,,,
217,/title/tt0068646/,The Godfather,"59th Street Bridge, Manhattan, New York City, New York, USA",,"Queensboro Bridge, West Road, Manhattan Community Board 8, Manhattan, New York County, New York, 10044, United States of America",40.75573455,-73.95189258066381
218,/title/tt0068646/,The Godfather,"Calvary Cemetery, Woodside, Queens, New York City, New York, USA",,,,
219,/title/tt0068646/,The Godfather,"Las Vegas, Nevada, USA",,"Las Vegas, Clark County, Nevada, United States of America",36.1672559,-115.1485163
220,/title/tt0068646/,The Godfather,"Radio City Music Hall - 1260 6th Avenue, Rockefeller Center, Manhattan, New York City, New York, USA",,,,
221,/title/tt0068646/,The Godfather,"Woodside, Queens, New York City, New York, USA",,"Woodside, Queens County, New York, 11377, United States of America",40.7453798,-73.9054145
222,/title/tt0068646/,The Godfather,"1999 East 5th Street Brooklyn, New York City, New York, USA",(Clemenza's home)                        ,"1999, East 5th Street, Gravesend, Brooklyn, Kings County, New York, 11223, United States of America",40.601702700000004,-73.96733943348895
223,/title/tt0068646/,The Godfather,"Liberty State Park - Morris Pesin Drive, Jersey City, New Jersey, USA",,,,
224,/title/tt0068646/,The Godfather,"Filmways Studios - 246 East 127th Street, East Harlem, Manhattan, New York City, New York, USA",(studio) (studio/ interiors Don Corleone's mansion.)                        ,,,
225,/title/tt0068646/,The Godfather,"Long Beach, Long Island, New York, USA",,"Long Beach, Nassau County, New York, 11561, United States of America",40.5885116,-73.657861
226,/title/tt0068646/,The Godfather,"New York City, New York, USA",,"New York, United States of America",40.7127281,-74.0060152
227,/title/tt0068646/,The Godfather,"Queens, New York City, New York, USA",,"Queens, Queens County, New York, United States of America",40.7498243,-73.7976337
228,/title/tt0068646/,The Godfather,"Long Island, New York, USA",,"Long Island, Suffolk County, New York, United States of America",40.85172235,-73.09921882199973
229,/title/tt0068646/,The Godfather,"Hollywood, Los Angeles, California, USA",,"Hollywood, Los Angeles, Los Angeles County, California, 90028-8127, United States of America",34.0980031,-118.329523
230,/title/tt0068646/,The Godfather,"NYC Health + Hospitals / Bellevue, 462 1st Avenue, New York, NY 10016, United States",(Don Corleone takes his son's body to undertakers)                        ,"NYC Health + Hospitals/Bellevue, 462, 1st Avenue, Kips Bay, Manhattan Community Board 6, Manhattan, New York County, New York, 10010, United States of America",40.73926685,-73.97535981845368
231,/title/tt0068646/,The Godfather,"Mineola, Long Island, New York, USA",(deserted airstrip)                        ,,,
232,/title/tt7661390/,Gangs of London,"St Clere Estate, Kent, England, UK",(Traveller's camp)                        ,,,
233,/title/tt7149730/,The Silencing,"Sudbury, Ontario, Canada",,"Sudbury, Sudbury District, Northeastern Ontario, Ontario, P3C 1S9, Canada",46.49272,-80.991211
234,/title/tt0106179/,The X Files,"Chilliwack, British Columbia, Canada",,"Chilliwack, Fraser Valley Regional District, British Columbia, Canada",49.157677,-121.9514307
235,/title/tt0106179/,The X Files,"20th Century Fox Studios - 10201 Pico Blvd., Century City, Los Angeles, California, USA",(studio) (studio - seasons 6 to 9)                        ,,,
236,/title/tt0106179/,The X Files,"Richmond, British Columbia, Canada",,"Richmond, Metro Vancouver Regional District, British Columbia, V6Y, Canada",49.163168,-123.137414
237,/title/tt0106179/,The X Files,"North Shore Studios, North Vancouver, British Columbia, Canada",(studio) (studio - seasons 1 to 5)                        ,,,
238,/title/tt0106179/,The X Files,"Delta, British Columbia, Canada",,"Delta, Metro Vancouver Regional District, British Columbia, Canada",49.0846258,-123.0579384
239,/title/tt0106179/,The X Files,"North Vancouver, British Columbia, Canada",,"North Vancouver, Metro Vancouver Regional District, British Columbia, V7M 1H9, Canada",49.3207133,-123.0737831
240,/title/tt0106179/,The X Files,"Ruskin Dam, Mission, British Columbia, Canada",,"Ruskin Dam, Mission, British Columbia, Canada",49.19604835,-122.40775772497682
241,/title/tt0106179/,The X Files,"Vancouver, British Columbia, Canada",,"Vancouver, Metro Vancouver Regional District, British Columbia, Canada",49.2608724,-123.1139529
242,/title/tt0106179/,The X Files,"Jackson Street, Maple Ridge, British Columbia, Canada",,,,
243,/title/tt0106179/,The X Files,"Washington, District of Columbia, USA",,"Washington, District of Columbia, 20230, United States of America",38.8949924,-77.0365581
244,/title/tt0106179/,The X Files,"Ashcroft, British Columbia, Canada",,"Ashcroft, Thompson-Nicola Regional District, British Columbia, Canada",50.7212409,-121.2835436
245,/title/tt0106179/,The X Files,"Los Angeles Center Studios - 450 S. Bixel Street, Downtown, Los Angeles, California, USA",,,,
246,/title/tt0106179/,The X Files,"Paramount Ranch - 2813 Cornell Road, Agoura, California, USA",,,,
247,/title/tt0106179/,The X Files,"Tustin, California, USA",,"Tustin, Orange County, California, United States of America",33.7458511,-117.826166
248,Code,Show Name,Location,Scene,"Location, Tucker County, West Virginia, United States of America",39.2138905,-79.6371124
249,/title/tt4916630/,Just Mercy,"East Point, Georgia, USA",(Dry Cleaners)                        ,"East Point, Georgia, 30344, United States of America",33.6795531,-84.4393724
250,/title/tt4916630/,Just Mercy,"Dexter Avenue, Montgomery, Alabama, USA",(location)                        ,"Dexter Avenue, Clisby Park, Montgomery, Montgomery County, Alabama, 36131, United States of America",32.377585,-86.3049744
251,/title/tt4916630/,Just Mercy,"Georgia, USA",,"Georgia, United States of America",32.3293809,-83.1137366
252,/title/tt4916630/,Just Mercy,"Alabama, USA",,"Alabama, United States of America",33.2588817,-86.8295337
253,/title/tt8688634/,21 Bridges,"Philadelphia, Pennsylvania, USA",(primary location)                        ,"Philadelphia, Philadelphia County, Pennsylvania, United States of America",39.9527237,-75.1635262
254,/title/tt8688634/,21 Bridges,"University City, Philadelphia, Pennsylvania, USA",,"University City, Philadelphia, Philadelphia County, Pennsylvania, 19104-2989, United States of America",39.9492795,-75.1896236
255,/title/tt8688634/,21 Bridges,"Tinto - 114 South 20th Street, Philadelphia, Pennsylvania, USA",,,,
256,/title/tt8688634/,21 Bridges,"SEPTA Fern Rock Transportation Station, Philadelphia, Pennsylvania, USA",,,,
257,/title/tt8688634/,21 Bridges,"New York City, New York, USA",,"New York, United States of America",40.7127281,-74.0060152
258,/title/tt3749900/,Gotham,"Steiner Studios - 15 Washington Avenue, Brooklyn Navy Yard, Brooklyn, New York City, New York, USA",(Sound Stage)                        ,,,
259,/title/tt3749900/,Gotham,"Richmond University Medical Center-Bayley Seton Hospital - North Shore, Staten Island, New York, USA",(Arkham Asylum)                        ,,,
260,/title/tt3749900/,Gotham,"Brooklyn, New York City, New York, USA",,"Brooklyn, Kings County, New York, United States of America",40.6501038,-73.9495823
261,/title/tt3749900/,Gotham,"North Shore, Staten Island, New York, USA",,,,
262,/title/tt3749900/,Gotham,"The Braes, Glen Cove, Long Island, New York, USA",,,,
263,/title/tt3749900/,Gotham,"Long Island, New York, USA",,"Long Island, Suffolk County, New York, United States of America",40.85172235,-73.09921882199973
264,/title/tt3749900/,Gotham,USA,,United States,39.7837304,-100.4458825
265,/title/tt9128874/,Van der Valk,"Amsterdam, Noord-Holland, Netherlands",(on location)                        ,"Amsterdam, Noord-Holland, Nederland",52.3727598,4.8936041
266,/title/tt4158110/,Mr. Robot,"New York City, New York, USA",(street scenes)                        ,"New York, United States of America",40.7127281,-74.0060152
267,/title/tt4158110/,Mr. Robot,"Phoenix, Arizona, USA","(Fry's Electronics, 3035 W Thunderbird Rd, Phoenix, AZ)                        ","Phoenix, Maricopa County, Arizona, United States of America",33.4484367,-112.0741417
268,/title/tt4158110/,Mr. Robot,"Broadway Stages, Kingsland Avenue, Greenpoint, Brooklyn, New York City, New York, USA",(studio)                        ,,,
269,/title/tt2372162/,Orange Is the New Black,"Brooklyn, New York City, New York, USA",,"Brooklyn, Kings County, New York, United States of America",40.6501038,-73.9495823
270,/title/tt2372162/,Orange Is the New Black,"Kaufman Astoria Studios - 3412 36th Street, Astoria, Queens, New York City, New York, USA",(studio)                        ,,,
271,/title/tt2372162/,Orange Is the New Black,"East Village, Manhattan, New York City, New York, USA",,"East Village, Manhattan Community Board 3, Manhattan, New York County, New York, United States of America",40.7292688,-73.9873613
272,/title/tt2805096/,Chicago P.D.,"Chicago, Illinois, USA",,"Chicago, Cook County, Illinois, United States of America",41.8755616,-87.6244212
273,/title/tt2805096/,Chicago P.D.,"Damen Silos, Chicago, Illinois, USA",(Silos)                        ,,,
274,/title/tt0993846/,The Wolf of Wall Street,"Portofino, Genoa, Liguria, Italy",(when Jordan and Naomi receive news of death of aunt Emma)                        ,"Portofino, Genova, Liguria, Italia",44.3036653,9.2093446
275,/title/tt0993846/,The Wolf of Wall Street,"Shalimar Diner, 63-68 Austin St, Rego Park, New York City, New York, USA",(Azoff approaches Belfort for work)                        ,,,
276,/title/tt0993846/,The Wolf of Wall Street,"White Plains, New York, USA",(location)                        ,"White Plains, Westchester County, New York, United States of America",41.0339862,-73.7629097
277,/title/tt0993846/,The Wolf of Wall Street,"Las Vegas, Nevada, USA",(location)                        ,"Las Vegas, Clark County, Nevada, United States of America",36.1672559,-115.1485163
278,/title/tt0993846/,The Wolf of Wall Street,"Mamaroneck, New York, USA",(location)                        ,"Mamaroneck, Town of Mamaroneck, Westchester County, New York, 10543, United States of America",40.9487097,-73.7326309
279,/title/tt0993846/,The Wolf of Wall Street,"300 East 55th Street, Manhattan, New York City, New York, USA",(Belfort's downtown apartment)                        ,"300, East 55th Street, Midtown East, Manhattan Community Board 6, Manhattan, New York County, New York, 10022, United States of America",40.757876,-73.96615
280,/title/tt0993846/,The Wolf of Wall Street,"Trump Tower - 725 Fifth Avenue, Manhattan, New York City, New York, USA",(Belfort caught with Naomi in limo)                        ,,,
281,/title/tt0993846/,The Wolf of Wall Street,"Air Hollywood - 13240 Weidner Street, Pacoima, Los Angeles, California, USA",(location)                        ,,,
282,/title/tt0993846/,The Wolf of Wall Street,"Brooklyn, New York City, New York, USA",(night shot of bridge)                        ,"Brooklyn, Kings County, New York, United States of America",40.6501038,-73.9495823
283,/title/tt0993846/,The Wolf of Wall Street,"JC Studios, Brooklyn, New York City, New York, USA",(location)                        ,,,
284,/title/tt0993846/,The Wolf of Wall Street,"Geneva, Canton de Genève, Switzerland",(view from swiss bank meeting room)                        ,"Genève, Switzerland",46.2017559,6.1466014
285,/title/tt0993846/,The Wolf of Wall Street,"Nassau Street, Manhattan, New York City, New York, USA",(location)                        ,"Nassau Street, Financial District, Manhattan Community Board 1, Manhattan, New York County, New York, 10038, United States of America",40.7116481,-74.0059028
286,/title/tt0993846/,The Wolf of Wall Street,"10 Vanderbilt Drive, Sands Point, Port Washington, New York, USA",(Belfort beach house)                        ,"10, Vanderbilt Drive, Sands Point, North Hempstead, Nassau County, New York, 11050, United States of America",40.864839700000005,-73.72149909044376
287,/title/tt0993846/,The Wolf of Wall Street,"Sands Point, Port Washington, New York, USA",,,,
288,/title/tt0993846/,The Wolf of Wall Street,"Port Washington, New York, USA",,"Port Washington, North Hempstead, Nassau County, New York, United States of America",40.8254914,-73.68128200830327
289,/title/tt0993846/,The Wolf of Wall Street,USA,,United States,39.7837304,-100.4458825
290,/title/tt9055008/,Evil,"New York, USA",,"New York, United States of America",40.7127281,-74.0060152
291,/title/tt0102926/,The Silence of the Lambs,"Bimini Airport, South Bimini Island, Bimini Islands, Bahamas",,,,
292,/title/tt0102926/,The Silence of the Lambs,"Lindbergh Avenue, Shaler Township, Pennsylvania, USA",(wrong house in Calumet City)                        ,,,
293,/title/tt0102926/,The Silence of the Lambs,"Bellaire, Ohio, USA","(bridge into Belvedere, Ohio)                        ","Bellaire, Belmont County, Ohio, United States of America",40.0161843,-80.7423054
294,/title/tt0102926/,The Silence of the Lambs,"Clay County, West Virginia, USA",,"Clay County, West Virginia, United States of America",38.4460004,-81.0718148
295,/title/tt0102926/,The Silence of the Lambs,"Old Allegheny County Jail - 5th Ave & Ross Street, Pittsburgh, Pennsylvania, USA",(as Baltimore State Forensic Hospital: interiors)                        ,"Old Allegheny County Jail, Ross Street, Downtown, Pittsburgh, Allegheny County, Pennsylvania, 15219, United States of America",40.438503100000005,-79.99543652789342
296,/title/tt0102926/,The Silence of the Lambs,"Carnegie Museum of Natural History - 4400 Forbes Avenue, Pittsburgh, Pennsylvania, USA",,"Carnegie Museum of Natural History, 4400, Forbes Avenue, North Oakland, Pittsburgh, Allegheny County, Pennsylvania, 15213, United States of America",40.4430084,-79.94991581649228
297,/title/tt0102926/,The Silence of the Lambs,"E 8th Ave & Amity St, Homestead, Pennsylvania, USA",(Moxley's Drugs exterior)                        ,,,
298,/title/tt0102926/,The Silence of the Lambs,"Pittsburgh International Airport, Pittsburgh, Pennsylvania, USA",(airport scenes)                        ,,,
299,/title/tt0102926/,The Silence of the Lambs,"Department of Labor Frances Perkins Building - 200 Constitution Avenue NW, Washington, District of Columbia, USA",,,,
300,/title/tt0102926/,The Silence of the Lambs,"Memphis, Tennessee, USA",(stock footage)                        ,"Memphis, Shelby County, Tennessee, United States of America",35.1490215,-90.0516285
301,/title/tt0102926/,The Silence of the Lambs,"Virginia, USA",,"Virginia, United States of America",37.1232245,-78.4927721
302,/title/tt0102926/,The Silence of the Lambs,"Ohio, USA",,"Ohio, United States of America",40.2253569,-82.6881395
303,/title/tt0102926/,The Silence of the Lambs,"Tennessee, USA",,"Tennessee, United States of America",35.7730076,-86.2820081
304,/title/tt0110912/,Pulp Fiction,"1435 Flower Street, Glendale, California, USA",(Jack Rabbit Slims;exterior)                        ,"1435, Flower Street, Grand Central Creative Campus, Glendale, Los Angeles County, California, 91201, United States of America",34.1624478380741,-118.29059071654669
305,/title/tt0110912/,Pulp Fiction,"3519 La Clede Avenue, Los Angeles, California, USA",(Lance's house)                        ,"3519, La Clede Avenue, Atwater Village, Los Angeles, Los Angeles County, California, 90039, United States of America",34.119096303030304,-118.25678783838384
306,/title/tt0110912/,Pulp Fiction,"A & R Auto Dismantlers - 12143 Branford Street, Sun Valley, California, USA",(Monster Joe's junkyard)                        ,,,
307,/title/tt0110912/,Pulp Fiction,"11827 Valerio Street, North Hollywood, California, USA",(Butch parks his car)                        ,,,
308,/title/tt0110912/,Pulp Fiction,"Atwater Avenue And Fletcher Drive, Los Angeles, California, USA",(Butch in his car encounters Marsellus Wallace)                        ,,,
309,/title/tt0110912/,Pulp Fiction,"4149 Kraft Avenue, Studio City, Los Angeles, California, USA",(Jimmie Dimmick's Home; The Bonnie Situation)                        ,,,
310,/title/tt0110912/,Pulp Fiction,"Raymond Theatre - 129 N. Raymond Avenue, Pasadena, California, USA",,,,
311,/title/tt0110912/,Pulp Fiction,"Riverside Dr. & Glendale Blvd., Silver Lake, Los Angeles, California, USA",,,,
312,/title/tt0110912/,Pulp Fiction,"Beverly Hills, California, USA",,"Beverly Hills, Los Angeles County, California, United States of America",34.0696501,-118.3963062
313,/title/tt0110912/,Pulp Fiction,"Los Angeles, California, USA",,"Los Angeles, Los Angeles County, California, United States of America",34.0536909,-118.2427666
314,/title/tt1502407/,Halloween,"Charleston, South Carolina, USA",,"Charleston, Charleston County, South Carolina, United States of America",32.7876012,-79.9402728
315,/title/tt1502407/,Halloween,"40 Fenwick Drive, Charleston, South Carolina, USA","(Laurie sees Michael in the second floor window, then fires her gun at him.)                        ","40, Fenwick Drive, The Crescent, Charleston, Charleston County, South Carolina, 29407, United States of America",32.777619,-79.971609
316,/title/tt1502407/,Halloween,"Military Magnet Academy - 2950 Carner Avenue, North Charleston, South Carolina, USA",(Smith's Grove Sanitarium where Michael is being held outside in the courtyard.)                        ,"Military Magnet Academy, Carner Avenue, North Charleston, Charleston County, South Carolina, 29405, United States of America",32.8502692,-79.9679366
317,/title/tt1502407/,Halloween,"330 President Street, Charleston, South Carolina, USA","(Michael walks along the side of this house, grabs a hammer from the garage, then goes inside while stalking a woman and then takes a knife from the kitchen.)                        ","330, President Street, Gadsden Green Homes, Charleston, Charleston County, South Carolina, 29403, United States of America",32.796180152699456,-79.95450632630369
318,/title/tt1502407/,Halloween,"19 Stocker Drive, Charleston, South Carolina, USA",(Shot of house with huge tree and kids running by while trick or treating.)                        ,"19, Stocker Drive, South Windermere, Charleston, Charleston County, South Carolina, 29407, United States of America",32.7789553138655,-79.97525456431178
319,/title/tt1502407/,Halloween,"41 Fenwick Drive, Charleston, South Carolina, USA",(Laurie talks to the Sheriff in front of this house telling him of her desire to kill Michael.)                        ,"41, Fenwick Drive, The Crescent, Charleston, Charleston County, South Carolina, 29407, United States of America",32.77644972823914,-79.97247921851361
320,/title/tt1502407/,Halloween,"Chicago Illinois, USA",(street scenes)                        ,"Chicago, Cook County, Illinois, United States of America",41.8755616,-87.6244212
321,/title/tt0385887/,Motherless Brooklyn,"Washington Square Park, New York, NY 10012, USA",(Protest Square)                        ,"Washington Square Park, Manhattan, New York County, New York, United States of America",40.73089125,-73.99758503833021
322,/title/tt0385887/,Motherless Brooklyn,"New York Transit Museum, Brooklyn, New York, USA",(Subway car filming)                        ,"New York Transit Museum, 99, Schermerhorn Street, Downtown Brooklyn, Brooklyn, Kings County, New York, 11201, United States of America",40.6905176,-73.9899802
323,/title/tt0385887/,Motherless Brooklyn,"Warner Brothers, Soundstage, Burbank, California, USA",(Vintage Penn station)                        ,,,
324,/title/tt0385887/,Motherless Brooklyn,"Brooklyn, New York, USA",,"Brooklyn, Kings County, New York, United States of America",40.6501038,-73.9495823
325,/title/tt0385887/,Motherless Brooklyn,"773 St. Nicholas Avenue, Harlem, New York, USA",(Jazz Club)                        ,"Saint Nicholas Avenue, Harlem, Manhattan Community Board 10, Manhattan, New York County, New York, 10040, United States of America",40.8172716,-73.9479368
326,/title/tt0385887/,Motherless Brooklyn,"Jones Beach, Meadowbrook State Parkway, Nassau County, New York, USA",(Old Toll Booth on the Triborough)                        ,,,
327,/title/tt0385887/,Motherless Brooklyn,"New York, USA",,"New York, United States of America",40.7127281,-74.0060152
328,/title/tt0385887/,Motherless Brooklyn,"Bedford Stuyvesant, New York, USA",(Fort Greene)                        ,"Bedford-Stuyvesant, Brooklyn, Kings County, New York, 11216, United States of America",40.6834364,-73.9412488
329,/title/tt2243973/,Hannibal,"Toronto, Ontario, Canada",,"Toronto, Peel, Golden Horseshoe, Ontario, Canada",43.6534817,-79.3839347
330,/title/tt2243973/,Hannibal,"Ontario, Canada",,"Ontario, Canada",50.000678,-86.000977
331,/title/tt5420376/,Riverdale,"530 E 41st Ave, Vancouver, British Columbia, Canada",(Riverdale High School)                        ,"John Oliver Secondary School, 530, East 41st Avenue, Riley Park, Vancouver, Metro Vancouver Regional District, British Columbia, V5W 1P3, Canada",49.23195665,-123.09259959764182
332,/title/tt5420376/,Riverdale,"Alouette Lake, Golden Ears Provincial Park, British Columbia, Canada",(Sweetwater River)                        ,,,
333,/title/tt5420376/,Riverdale,"3939 W 16th Ave, Vancouver , British Columbia, Canada",(Riverdale High School)                        ,"West 16th Avenue, Kitsilano, Vancouver, Metro Vancouver Regional District, British Columbia, V6J 2G1, Canada",49.2572819,-123.1524732
334,/title/tt5420376/,Riverdale,"21122 12 Avenue, Langley, British Columbia, Canada",(The Blossom Mansion)                        ,"21122, 12 Avenue, Fern Ridge, Township of Langley, Metro Vancouver Regional District, British Columbia, Canada",49.0230553,-122.6371592
335,/title/tt5420376/,Riverdale,"2037 East 3rd Avenue, Vancouver, British Columbia, Canada",(Archie's House)                        ,"East 3rd Avenue, Hastings-Sunrise, Vancouver, Metro Vancouver Regional District, British Columbia, V5M 3H8, Canada",49.267551,-123.0364668
336,/title/tt5420376/,Riverdale,"Cecil Green Park House - 6251 Cecil Green Park Road, Vancouver, British Columbia, Canada",(The Blossom Mansion)                        ,"Cecil Green Park House, Cecil Green Park Road, University of British Columbia, Electoral Area A, Metro Vancouver Regional District, British Columbia, V6T 1Z2, Canada",49.27137675,-123.25770394938536
337,/title/tt5420376/,Riverdale,"23320 Mavis Ave, Langley, British Columbia, Canada",(season 2 episode 1)                        ,"Mavis Avenue, Fort Langley, Township of Langley, Metro Vancouver Regional District, British Columbia, V1M 2S5, Canada",49.1699951,-122.5773166
338,/title/tt5420376/,Riverdale,"6741 224th Street, Langley, British Columbia, Canada",(Blossom Thistlehouse)                        ,,,
339,/title/tt5420376/,Riverdale,"Harbor Springs, Michigan, USA",(Riverdale Aerial Images)                        ,"Harbor Springs, Emmet County, Michigan, United States of America",45.431676,-84.991999
340,/title/tt5420376/,Riverdale,"9048 Glover Road, Langley, British Columbia, Canada",(The Riverdale Register)                        ,"Glover Road, Milner, Township of Langley, Metro Vancouver Regional District, British Columbia, V3A 0A3, Canada",49.1141879,-122.6417431
341,/title/tt5420376/,Riverdale,"20146 100a Avenue, Langley, British Columbia, Canada",(studio)                        ,"20146, 100A Avenue, Walnut Grove, Township of Langley, Metro Vancouver Regional District, British Columbia, V1M 0B1, Canada",49.1840481,-122.66246142171815
342,/title/tt5420376/,Riverdale,"Mission, British Columbia, Canada",,"Mission, British Columbia, Canada",49.1589351,-122.2835833
343,/title/tt5420376/,Riverdale,"British Columbia, Canada",,"British Columbia, Canada",55.001251,-125.002441
344,/title/tt5420376/,Riverdale,"Bowen Island, British Columbia, Canada",(Episode 2.14)                        ,"Bowen Island, Bowen Island Municipality, Metro Vancouver Regional District, British Columbia, Canada",49.37682385,-123.3693118710236
345,/title/tt7550000/,Project Power,"New Orleans, Louisiana, USA",,"New Orleans, Orleans Parish, Louisiana, United States of America",29.9499323,-90.0701156
346,/title/tt0443706/,Zodiac,"Ontario International Airport - 2900 E. Airport Drive, Ontario, California, USA",(location)                        ,,,
347,/title/tt0443706/,Zodiac,"4th Street, Downtown, Los Angeles, California, USA",(location)                        ,"Downtown, Los Angeles, Los Angeles County, California, United States of America",34.0428494,-118.2476732
348,/title/tt0443706/,Zodiac,"San Francisco Chronicle - 901 Mission St, San Francisco, California, USA",(interiors: newspaper building)                        ,,,
349,/title/tt0443706/,Zodiac,"Terminal Annex - 900 North Alameda Street, Chinatown, Los Angeles, California, USA",(newspaper building interiors)                        ,,,
350,/title/tt0443706/,Zodiac,"Ziegler's Hardware - 3948 Tweedy Blvd., South Gate, California, USA",(hardware store)                        ,,,
351,/title/tt0443706/,Zodiac,"San Francisco, California, USA",(location)                        ,"San Francisco, San Francisco City and County, California, United States of America",37.7790262,-122.4199061
352,/title/tt0443706/,Zodiac,"Original Joe's - 144 Taylor Street, Tenderloin, San Francisco, California, USA",(Robert and Melanie's first date)                        ,,,
353,/title/tt0443706/,Zodiac,"Long Beach, California, USA",(location)                        ,"Long Beach, Los Angeles County, California, United States of America",33.7690164,-118.1916048
354,/title/tt0443706/,Zodiac,"Rockwell Defense Plant - Bellflower & Imperial Highway, Downey, California, USA",,,,
355,/title/tt0443706/,Zodiac,"4440 W 126th Street, Hawthorne, California, USA",(Vallejo Police Department)                        ,"4440, West 126th Street, Hawthorne, Los Angeles County, California, 90250, United States of America",33.918135656621025,-118.35397511961048
356,/title/tt0443706/,Zodiac,"Douglas Street, Los Angeles, California, USA",(Bus stop)                        ,"Douglas Street, Craftsman Heights, Pasadena, Los Angeles County, California, 91103, United States of America",34.1657734,-118.140803
357,/title/tt0443706/,Zodiac,"Colonnade Wilshire Corporation - 3701 Wilshire Blvd # 407, Los Angeles, California, USA",(Robert and his daughter meet with Inspector David Toschi)                        ,,,
358,/title/tt0443706/,Zodiac,"Transbay Terminal - 144 1st. Street, San Francisco, California, USA","(Toschi makes phone call to Hall of Justice regarding new Zodiac letter, across from Greyhound Station)                        ",,,
359,/title/tt0443706/,Zodiac,"62 Varda Landing Rd, Sausalito, California, USA",(Paul Avery's houseboat)                        ,"62, Varda Landing Road, Waldo, Sausalito, Marin County, California, 94965, United States of America",37.87091256442476,-122.5010284410444
360,/title/tt0443706/,Zodiac,"Ziegler's Hardware & Supply, Inc. - 3948 Tweedy Blvd, South Gate, California, USA",(Graysmith finds Allen in hardware store)                        ,,,
361,/title/tt2368619/,Bastille Day,"Old Royal Naval College, Greenwich, London, England, UK",,"Old Royal Naval College, Park Row, East Greenwich, Royal Borough of Greenwich, London, Greater London, England, SE10 9NL, United Kingdom",51.4829661,-0.006257671681354558
362,/title/tt2368619/,Bastille Day,"Paris, Île-de-France, France",(16ème arrondissement)                        ,"Paris, Île-de-France, France métropolitaine, France",48.8566969,2.3514616
363,/title/tt2368619/,Bastille Day,"Avenue Gaston Roussel & Rue Paul de Kock, 93230 Romainville, France",(car scenes)                        ,,,
364,/title/tt9359220/,Young Wallander,"Vilnius, Lithuania",(on location)                        ,"Vilnius, Vilniaus miesto savivaldybė, Vilniaus apskritis, Lietuva",54.6870458,25.2829111
365,/title/tt2303687/,Line of Duty,"Belfast, County Antrim, Northern Ireland, UK",,"Belfast, County Antrim, Northern Ireland, BT1 5GS, United Kingdom",54.5964411,-5.9302761
366,/title/tt2303687/,Line of Duty,"Northern Ireland, UK",,"Northern Ireland, United Kingdom",54.6294982,-6.7654416
367,/title/tt0098844/,Law & Order,"Katz's Delicatessen - 205 East Houston Street, East Village, Manhattan, New York City, New York, USA",,,,
368,/title/tt0098844/,Law & Order,"Brooklyn, New York City, New York, USA",,"Brooklyn, Kings County, New York, United States of America",40.6501038,-73.9495823
369,/title/tt0098844/,Law & Order,"Hoboken, New Jersey, USA",,"Hoboken, Hudson County, New Jersey, United States of America",40.7433066,-74.0323752
370,/title/tt0098844/,Law & Order,"New York City, New York, USA",,"New York, United States of America",40.7127281,-74.0060152
371,/title/tt0098844/,Law & Order,"Pier 59 Studios, Chelsea Piers, Pier 59 - West 18th Street & West Side Highway, Chelsea, Manhattan, New York City, New York, USA",(studio)                        ,,,
372,/title/tt1196946/,The Mentalist,"Sacramento, California, USA",,"Sacramento, Sacramento County, California, United States of America",38.5815719,-121.4943996
373,/title/tt1196946/,The Mentalist,"Pico House - 410 N. Main Street, Downtown, Los Angeles, California, USA",(CBI Headquarters)                        ,,,
374,/title/tt1196946/,The Mentalist,"Dianne G. Van Hook University Center, College of the Canyons, Santa Clarita, California, USA",(Austin FBI Field Office)                        ,,,
375,/title/tt2017109/,Banshee,"Pittsburgh, Pennsylvania, USA",(season 4)                        ,"Pittsburgh, Allegheny County, Pennsylvania, United States of America",40.4416941,-79.9900861
376,/title/tt2017109/,Banshee,"Gastonia, North Carolina, USA",,"Gastonia, Gaston County, North Carolina, United States of America",35.2622158,-81.1838794
377,/title/tt2017109/,Banshee,"Waxhaw, North Carolina, USA",,"Waxhaw, Union County, North Carolina, United States of America",34.9248125,-80.7440174
378,/title/tt2017109/,Banshee,"Greenville, South Carolina, USA",,"Greenville, Greenville County, South Carolina, United States of America",34.851354,-82.3984882
379,/title/tt2017109/,Banshee,"Wilmington, North Carolina, USA",(location)                        ,"Wilmington, New Hanover County, North Carolina, United States of America",34.2257282,-77.9447107
380,/title/tt0114369/,Seven,"Pacific Electric Building, Los Angeles, California, USA",(Police Headquarters)                        ,,,
381,/title/tt0114369/,Seven,"Downtown, Los Angeles, California, USA",,"Downtown, Los Angeles, Los Angeles County, California, United States of America",34.0428494,-118.2476732
382,/title/tt0114369/,Seven,"Alexandria Hotel - 501 S. Spring Street, Downtown, Los Angeles, California, USA",(John Doe's apartment building)                        ,"Alexandria Hotel, 501, South Spring Street, Gallery Row, Downtown, Los Angeles, Los Angeles County, California, 90013, United States of America",34.04739884999999,-118.25014663366291
383,/title/tt0114369/,Seven,"Lancaster, California, USA",('What's in the box' ending)                        ,"Lancaster, Los Angeles County, California, United States of America",34.6981064,-118.1366153
384,/title/tt0114369/,Seven,"New York Pizza Express - 6302 Hollywood Boulevard, Los Angeles, California, USA","(Somerset & Mills eating pizza, building has been demolished.)                        ",,,
385,/title/tt0114369/,Seven,"Ambassador Hotel - 3400 Wilshire Boulevard, Los Angeles, California, USA",,,,
386,/title/tt0114369/,Seven,"Salon Pure - 117 E. 6th. Street, Los Angeles, California, USA",(Barbershop where Somerset & Mills await FBI information.)                        ,,,
387,/title/tt0114369/,Seven,"Chester Williams Building - 215 W. 5th. Street, Los Angeles, California, USA",(Somerset exits building in pursuit of John Doe.)                        ,,,
388,/title/tt0114369/,Seven,"Warner Brothers Burbank Studios - 4000 Warner Boulevard, Burbank, California, USA",(studio)                        ,,,
389,/title/tt0114369/,Seven,"California, USA",,"California, United States of America",36.7014631,-118.7559974
390,/title/tt0114369/,Seven,USA,,United States,39.7837304,-100.4458825
391,/title/tt0491738/,Psych,"White Rock, British Columbia, Canada",,"White Rock, Metro Vancouver Regional District, British Columbia, Canada",49.0235357,-122.7979246
392,/title/tt0491738/,Psych,"2756 O'Hara Ln, Surrey, British Columbia, Canada",,"2756, Ohara Lane, Crescent Beach, South Surrey, Surrey, Metro Vancouver Regional District, British Columbia, V4A 3V2, Canada",49.0529053,-122.8850513
393,/title/tt0491738/,Psych,"Coquitlam, British Columbia, Canada",,"Coquitlam, Metro Vancouver Regional District, British Columbia, Canada",49.2842958,-122.793281
394,/title/tt0491738/,Psych,"Vancouver, British Columbia, Canada",,"Vancouver, Metro Vancouver Regional District, British Columbia, Canada",49.2608724,-123.1139529
395,/title/tt2788432/,American Crime Story,"1006 N Rexford Drive, Beverly Hills, California, USA",(O.J. Simpson's house)                        ,"1006, North Rexford Drive, Beverly Hills, Los Angeles County, California, 90210, United States of America",34.0873851,-118.41157429064279
396,/title/tt2788432/,American Crime Story,"917 South Bundy Drive, Brentwood, Los Angeles, California, USA",(Nicole Simpson's condo exterior- set built in a driveway with use of CGI)                        ,"917, South Bundy Drive, Westgate, Brentwood, Los Angeles, Los Angeles County, California, 90049, United States of America",34.04819263376255,-118.4707208201633
397,/title/tt2788432/,American Crime Story,"3314 Club Drive, Los Angeles, California, USA",(Marcia Clark's house)                        ,"3314, Club Drive, Cheviot Hills, Los Angeles, Los Angeles County, California, 90064, United States of America",34.03261072447709,-118.40242116744938
398,/title/tt2788432/,American Crime Story,"Hollywood Forever Cemetery - 6000 Santa Monica Blvd., Hollywood, Los Angeles, California, USA",(Chapel & grave- Nicole Simpson's funeral)                        ,,,
399,/title/tt2788432/,American Crime Story,"Long Beach Freeway- Interstate 710, Alhambra, California, USA",(freeway chase scenes- doubling as the 405 freeway)                        ,,,
400,/title/tt2788432/,American Crime Story,"Chin Chin- 11740 San Vicente Blvd, Los Angeles, California, USA",(Kardashian Father's Day restaurant scenes)                        ,,,
401,/title/tt2788432/,American Crime Story,"Mount St. Mary's College, Doheny Mansion - 10 Chester Pl, Los Angeles, California, USA",(Dominick Dunne's dinner party)                        ,,,
402,/title/tt2788432/,American Crime Story,"Omni Los Angeles Hotel at California Plaza - 251 S Olive St, Los Angeles, California, USA",(jurors hotel)                        ,,,
403,/title/tt2788432/,American Crime Story,"Los Angeles Center Studios - 450 S. Bixel Street, Downtown, Los Angeles, California, USA",(interiors- court building and LAPD offices)                        ,,,
404,/title/tt2788432/,American Crime Story,"1999 Avenue of the Stars, Los Angeles, California, USA",(Robert Shapiro's office- interiors)                        ,"SunAmerica Center, 1999, Avenue of the Stars, Century City, Los Angeles, Los Angeles County, California, 90067, United States of America",34.05867885,-118.41657039399803
405,/title/tt2788432/,American Crime Story,"Le Petit Bistro - 631 N La Cienega Blvd, West Hollywood, California, USA",(F. Lee Bailey & Robert Shapiro's lunch)                        ,,,
406,/title/tt2788432/,American Crime Story,"The American Legion, Hollywood Post 43 - 2035 N Highland Ave, Los Angeles, California, USA",(birthday party in Oakland)                        ,,,
407,/title/tt2788432/,American Crime Story,"Stage 10, 20th Century Fox Studios - 10201 Pico Blvd., Century City, Los Angeles, California, USA",(studio)                        ,,,
408,/title/tt2788432/,American Crime Story,"Stone Harbor, New Jersey, USA",(Jersey Shore)                        ,"Stone Harbor, Cape May County, New Jersey, 08247, United States of America",39.0537129,-74.7584461
409,/title/tt2788432/,American Crime Story,"Wilmington, Delaware, USA",(Residence)                        ,"Wilmington, New Castle County, Delaware, United States of America",39.7459468,-75.546589
410,/title/tt11127690/,El practicante,"Barcelona, Barcelona, Catalonia, Spain",,"Barcelona, Avinguda de Barberà, Sant Oleguer, Sabadell, Vallès Occidental, Catalunya, 08203, España",41.5320947,2.1161527
411,/title/tt11127690/,El practicante,"Badalona, Barcelona, Catalonia, Spain",,"Badalona, carrer d'Eduard Maristany, Centre, Badalona, Barcelonès, Catalunya, 08911, España",41.4457071,2.2491007
412,/title/tt11127690/,El practicante,"Lleida, Lleida, Catalonia, Spain",,"Lleida, Segrià, Lleida, Catalunya, España",41.6147605,0.6267842
413,/title/tt11127690/,El practicante,"Terrassa, Barcelona, Catalonia, Spain",,"Terrassa, Plaça de l'Estació del Nord, Sant Pere, Terrassa, Vallès Occidental, Catalunya, 08221, España",41.5698673,2.0142622
414,/title/tt0099685/,Goodfellas,"New Rochelle, New York, USA",,"New Rochelle, Westchester County, New York, United States of America",40.9115386,-73.7826363
415,/title/tt0099685/,Goodfellas,"Tampa, Florida, USA",,"Tampa, Hillsborough County, Florida, United States of America",27.9477595,-82.458444
416,/title/tt0099685/,Goodfellas,"56-26 Maspeth Avenue, Maspeth, New York City, New York, USA",(Diner)                        ,"Maspeth Avenue, Queens, Queens County, New York, 11378, United States of America",40.723082,-73.91317
417,/title/tt0099685/,Goodfellas,"Marlboro, New Jersey, USA",(closing scene - Henry goes outside to get the paper)                        ,"Marlboro, Evesham Township, Burlington County, New Jersey, 08053-1710, United States of America",39.9028913,-74.9218327
418,/title/tt0099685/,Goodfellas,"2995 Richmond Avenue, Staten Island, New York City, New York, USA",,"Richmond Avenue, Staten Island, Richmond County, New York, 10312, United States of America",40.5649918,-74.1696309
419,/title/tt0099685/,Goodfellas,"1080 Inwood Terrace, Fort Lee, New Jersey, USA",(Henry & Karen's house after Henry's prison time.)                        ,"1080, Inwood Terrace, Fort Lee, Bergen County, New Jersey, 07024, United States of America",40.837541,-73.986038
420,/title/tt0099685/,Goodfellas,"Babbage Street, Richmond Hill, Queens, New York City, New York, USA",(two bodies found in the pink cadillac)                        ,"Babbage Street, Queens, Queens County, New York, 11418, United States of America",40.7017533,-73.8346235
421,/title/tt0099685/,Goodfellas,"Copacabana Nightclub - 10 East 60th Street, East Side, Manhattan, New York City, New York, USA",(kitchen scene: tracking shot)                        ,,,
422,/title/tt0099685/,Goodfellas,"George Washington Bridge, Manhattan, New York City, New York, USA",,"George Washington Bridge, Fort Washington Park Greenway, Hudson Heights, Manhattan Community Board 12, Manhattan, New York County, New York, 10040, United States of America",40.8516678,-73.952679334291
423,/title/tt0099685/,Goodfellas,"Salerno's Restaurant - 11711 Hillside Avenue, Richmond Hill, Queens, New York City, New York, USA",(Henry and Karen on date)                        ,,,
424,/title/tt0099685/,Goodfellas,"19 Alfred Lane, New Rochelle, New York, USA",(Karen's parents house)                        ,"19, Alfred Lane, Pinebrook Heights, New Rochelle, Westchester County, New York, 10804, United States of America",40.95373416502009,-73.78033481129604
425,/title/tt0099685/,Goodfellas,"Catalina Beach Club - 2041 Park Street, Atlantic Beach, Long Island, New York, USA",(upmarket beach club)                        ,,,
426,/title/tt0099685/,Goodfellas,"Fifth Avenue, Manhattan, New York City, New York, USA",,,,
427,/title/tt0099685/,Goodfellas,"Hawaii Kai Restaurant, 49th Street, Broadway, Manhattan, New York City, New York, USA",(Bamboo Lounge - funny guy scene)                        ,,,
428,/title/tt0099685/,Goodfellas,"Prospect Park, Brooklyn, New York City, New York, USA",,"Prospect Park, Windsor Terrace, Brooklyn, Kings County, New York, United States of America",40.661774300000005,-73.97108902901994
429,/title/tt0099685/,Goodfellas,"Richmond Avenue, Staten Island, New York City, New York, USA",(shopping mall: paranoid Henry Hill makes phone call about being tailed by a helicopter)                        ,"Richmond Avenue, Staten Island, Richmond County, New York, 10312, United States of America",40.5649918,-74.1696309
430,/title/tt0099685/,Goodfellas,"Valley Stream, Long Island, New York, USA",,,,
431,/title/tt0099685/,Goodfellas,"JFK International Airport, Jamaica, Queens, New York City, New York, USA",(cargo buildings: Idlewild Airport)                        ,,,
432,/title/tt0099685/,Goodfellas,"49th Street, Manhattan, New York City, New York, USA",,"49th Street, 7th Avenue, Theater District, Manhattan Community Board 5, Times Square, New York County, New York, 10019, United States of America",40.759901,-73.984139
433,/title/tt0099685/,Goodfellas,"Broadway, Manhattan, New York City, New York, USA",,"Broadway, Inwood, Manhattan Community Board 12, Manhattan, New York County, New York, 10463, United States of America",40.8732847,-73.911655
434,/title/tt0099685/,Goodfellas,"Gowanus Canal, Brooklyn, New York City, New York, USA",,"Gowanus Canal, Kings County, New York, 11231, United States of America",40.6748265,-73.9959036
435,/title/tt0099685/,Goodfellas,"Long Island Railroad, Richmond Hill, New York, USA",(two bodies found in pink cadillac)                        ,,,
436,/title/tt0099685/,Goodfellas,"Lower Manhattan, Manhattan, New York City, New York, USA",,"Lower East Side, Manhattan Community Board 3, Manhattan, New York County, New York, United States of America",40.7159357,-73.9868057
437,/title/tt0099685/,Goodfellas,"Maspeth, Queens, New York City, New York, USA",,"Maspeth, Queens County, New York, 11378, United States of America",40.723158,-73.912637
438,/title/tt0099685/,Goodfellas,"Oyster Bay, Long Island, New York, USA",,,,
439,/title/tt0099685/,Goodfellas,"Richmond Hill, Queens, New York City, New York, USA",,"Richmond Hill, Queens County, New York, 11418, United States of America",40.6994253,-73.8309672
440,/title/tt0099685/,Goodfellas,"Woodhaven, Queens, New York City, New York, USA",,"Woodhaven, Queens County, New York, 11421, United States of America",40.6892698,-73.8579131
441,/title/tt0099685/,Goodfellas,"Neir's Tavern - 87-48 78th Street, Woodhaven, New York, USA",,"Neir's Tavern, 87-48, 78th Street, Queens, Queens County, New York, 11421, United States of America",40.6898155,-73.8637009
442,/title/tt6048596/,The Sinner,"Congers, New York, USA",(on location)                        ,"Congers, Town of Clarkstown, Rockland County, New York, 10920, United States of America",41.146152,-73.9432951102816
443,/title/tt6048596/,The Sinner,"Charleston, South Carolina, USA",(on location)                        ,"Charleston, Charleston County, South Carolina, United States of America",32.7876012,-79.9402728
444,/title/tt6048596/,The Sinner,"Yonkers, New York, USA",(Carl's Taproom)                        ,"Yonkers, Westchester County, New York, United States of America",40.9312099,-73.8987469
445,/title/tt6048596/,The Sinner,"Brooklyn, New York, USA",(on location)                        ,"Brooklyn, Kings County, New York, United States of America",40.6501038,-73.9495823
446,/title/tt1888075/,Death in Paradise,"Guadeloupe, Départements d'Outre-Mer, France",,,,
447,/title/tt0285331/,24,"Ontario International Airport - 2900 E. Airport Drive, Ontario, California, USA",(season 5)                        ,,,
448,/title/tt0285331/,24,"Union Station - 800 N. Alameda Street, Downtown, Los Angeles, California, USA",(Season Four)                        ,,,
449,/title/tt0285331/,24,"Fort MacArthur, San Pedro, Los Angeles, California, USA",(season 4: exteriors for where Hellers are held captive; Barlow-Saxton bunkers)                        ,,,
450,/title/tt0285331/,24,"Malibu City Hall - 23815 Stuart Ranch Road, Malibu, California, USA",(various locations in season two)                        ,,,
451,/title/tt0285331/,24,"Santa Clarita, California, USA",,"Santa Clarita, Los Angeles County, California, United States of America",34.3916641,-118.542586
452,/title/tt0285331/,24,USA,,United States,39.7837304,-100.4458825
453,/title/tt3402236/,Murder on the Orient Express,"Valletta, Malta",(Harbour)                        ,"Valletta, Xlokk, Malta",35.8989818,14.5136759
454,/title/tt3402236/,Murder on the Orient Express,"Sursee, Kanton Luzern, Switzerland",(landscapes shot from running steam train)                        ,"Sursee, Luzern, 6210, Switzerland",47.1740371,8.1089654
455,/title/tt3402236/,Murder on the Orient Express,"Longcross Studios, Chobham Lane, Longcross, Surrey, England, UK",(re-creation of the Orient Express)                        ,,,
456,/title/tt3402236/,Murder on the Orient Express,Italy,,Italia,42.6384261,12.674297
457,/title/tt3402236/,Murder on the Orient Express,"Department of Customs, CIx-Xatt ta' Lascaris, Il-Belt Valletta, Malta",,,,
458,/title/tt3402236/,Murder on the Orient Express,UK,,United Kingdom,54.7023545,-3.2765753
459,/title/tt3402236/,Murder on the Orient Express,"Lower Courtyard, Fort St Elmo, Valletta VLT 1741, Malta",,,,
460,/title/tt3402236/,Murder on the Orient Express,"Piazza D'Armi, Fort St Elmo, Valletta VLT 1741, Malta",,,,
461,/title/tt3502248/,Bosch,"1870 Blue Heights Dr, Los Angeles, California, USA",(Bosch's Apartment)                        ,"1870, Blue Heights Drive, Hollywood Hills West, Los Angeles, Los Angeles County, California, 90069, United States of America",34.10298340681257,-118.37938657385594
462,/title/tt3502248/,Bosch,"Bradbury Building - 304 S. Broadway, Downtown, Los Angeles, California, USA",(Howard Elias's Law Office)                        ,"Bradbury Building, 300-310, South Broadway, Historic Core District, Downtown, Los Angeles, Los Angeles County, California, 90013, United States of America",34.05047545,-118.24780750292649
463,/title/tt3502248/,Bosch,"Los Angeles Police Department, Hollywood Station - 1358 Wilcox Ave, Los Angeles, California, USA",,,,
464,/title/tt3502248/,Bosch,"Glendale, California, USA",(Glendale Police Dept.)                        ,"Glendale, Los Angeles County, California, United States of America",34.1469416,-118.2478471
465,/title/tt3502248/,Bosch,"Millennium Biltmore Hotel - 506 S Grand Avenue, Downtown, Los Angeles, California, USA",(rendezvous scenes)                        ,"Millennium Biltmore Hotel, 506, South Grand Avenue, Financial District, Downtown, Los Angeles, Los Angeles County, California, 90071, United States of America",34.049275,-118.25352705575739
466,/title/tt7335184/,You,"1575 York Ave, New York, USA",(Logos Book Store doubling for Mooney's where Joe works)                        ,"Logos Bookstore, 1575, York Avenue, Yorkville, Manhattan Community Board 8, Manhattan, New York County, New York, 10128, United States of America",40.7744668,-73.9484218
467,/title/tt7335184/,You,"New York City, New York, USA",,"New York, United States of America",40.7127281,-74.0060152
468,/title/tt7335184/,You,"308 E 139th Street, Mott Haven, Bronx, New York City, New York, USA",(Joe and Paco's Apartment Building)                        ,"308, East 139th Street, The Bronx, Bronx County, New York, 10454, United States of America",40.8107501,-73.92518490867373
469,/title/tt7335184/,You,"Los Angeles, California, USA",(Season 2)                        ,"Los Angeles, Los Angeles County, California, United States of America",34.0536909,-118.2427666
470,/title/tt7335184/,You,"Long Island City, Queens, New York City, New York, USA",,"Long Island City, Borden Avenue, Queens, Queens County, New York, 11109, United States of America",40.7415095,-73.9569751
471,/title/tt7335184/,You,USA,,United States,39.7837304,-100.4458825
472,/title/tt1064899/,Queen of the South,Morocco,,Maroc / ⵍⵎⵖⵔⵉⴱ / المغرب,31.1728205,-7.3362482
473,/title/tt1064899/,Queen of the South,"Dallas, Texas, USA",,"Dallas, Dallas County, Texas, United States of America",32.7762719,-96.7968559
474,/title/tt1064899/,Queen of the South,"Waxahachie, Texas, USA",,"Waxahachie, Ellis County, Texas, 75165, United States of America",32.3944908,-96.8439365
475,/title/tt1064899/,Queen of the South,Malta,,Malta,35.8885993,14.4476911
476,/title/tt1502397/,Bad Boys for Life,"Atlanta, Georgia, USA",,"Atlanta, Georgia, United States of America",33.7490987,-84.3901849
477,/title/tt1502397/,Bad Boys for Life,"Naucalpan, Estado de México, Mexico",,"Naucalpan, Naucalpan de Juárez, Estado de México, 53580, México",19.4785796,-99.2328791
478,/title/tt1489428/,Justified,"Green Valley, California, USA","(Harlan, KY)                        ","Green Valley, Los Angeles County, California, United States of America",34.6216542,-118.4139702
479,/title/tt1489428/,Justified,"Kittanning, Pennsylvania, USA",,"Kittanning, Armstrong County, Pennsylvania, United States of America",40.8164531,-79.5219893
480,/title/tt1489428/,Justified,"Santa Clarita, California, USA",,"Santa Clarita, Los Angeles County, California, United States of America",34.3916641,-118.542586
481,/title/tt1489428/,Justified,"Pasadena, California, USA",,"Pasadena, Los Angeles County, California, United States of America",34.1476452,-118.1444779
482,/title/tt2707408/,Narcos,"Bogotá, Colombia",,"Bogotá, Bogotá Distrito Capital, 11001, Colombia",4.59808,-74.0760439
483,/title/tt2707408/,Narcos,"Cartagena, Colombia",,"Cartagena de Indias, Dique, Colombia",10.4195841,-75.5271224
484,/title/tt0455944/,The Equalizer,"Haverhill, Massachusetts, USA",(Home Mart)                        ,"Haverhill, Essex County, Massachusetts, 01830, United States of America",42.7777829,-71.0767724
485,/title/tt0455944/,The Equalizer,"Castle Hill, Crane Estate - 280 Argilla Road, Ipswich, Massachusetts, USA",(Pushkin's Moscow mansion)                        ,,,
486,/title/tt0455944/,The Equalizer,"Fore River Shipyard, Quincy, Massachusetts, USA",(Ship Explosion)                        ,,,
487,/title/tt0455944/,The Equalizer,"Haverhill, Massachusetts, USA",,"Haverhill, Essex County, Massachusetts, 01830, United States of America",42.7777829,-71.0767724
488,/title/tt0455944/,The Equalizer,"470 Meridian St, East Boston Massachusetts, USA",(location)                        ,"470, Meridian Street, Eagle Hill, East Boston, Boston, Suffolk County, Massachusetts, 02128, United States of America",42.383322,-71.039424
489,/title/tt0455944/,The Equalizer,"330 Mt Auburn St, Cambridge, Massachusetts, USA",(location)                        ,"Mount Auburn Hospital, 330, Mount Auburn Street, Coolidge Hill, Cambridge, Middlesex County, Massachusetts, 02138, United States of America",42.3741033,-71.13417575971958
490,/title/tt0455944/,The Equalizer,"Maya's Burritos, 136 Broadway, Chelsea, MA 02150, USA",(Ralphie's mother's restaurant)                        ,,,
491,/title/tt1466074/,Columbo,"Universal Studios - 100 Universal City Plaza, Universal City, California, USA",(studio)                        ,,,
492,/title/tt1595859/,Blue Bloods,"Clinton Diner, Maspeth, Queens, New York City, New York, USA",(restaurant)                        ,,,
493,/title/tt5727208/,Uncut Gems,"Okiep, Northern Cape, South Africa",(opening scene)                        ,"O'Kiep, Nama Khoi Local Municipality, Namakwa District Municipality, Northern Cape, South Africa",-29.5968707,17.8796318
494,/title/tt5727208/,Uncut Gems,"New York City, New York, USA",,"New York, United States of America",40.7127281,-74.0060152
495,/title/tt5727208/,Uncut Gems,"New York, USA",,"New York, United States of America",40.7127281,-74.0060152
496,/title/tt7040874/,A Simple Favor,"Unionville, Ontario, Canada","(street, bridge)                        ","Unionville, Unionville GO bus loop, Markham, York Region, Golden Horseshoe, Ontario, L3R 4Z8, Canada",43.8520439,-79.3146995
497,/title/tt7040874/,A Simple Favor,"Toronto, Ontario, Canada",,"Toronto, Peel, Golden Horseshoe, Ontario, Canada",43.6534817,-79.3839347
498,/title/tt7040874/,A Simple Favor,"The Dutch, 131 Sullivan St., New York City, New York, USA",(as 'Ristorante Basilico' at 1: 22: 45)                        ,"The Dutch, 131, Sullivan Street, Greenwich Village, Manhattan Community Board 2, Manhattan, New York County, New York, 10012, United States of America",40.7265551,-74.0021692
499,/title/tt7040874/,A Simple Favor,Canada,,Canada,61.0666922,-107.9917071
500,/title/tt2911666/,John Wick,"Calvary Cemetery, Woodside, Queens, New York City, New York, USA",,,,
501,/title/tt2911666/,John Wick,"New York City, New York, USA",,"New York, United States of America",40.7127281,-74.0060152
502,/title/tt2911666/,John Wick,"Haru Sushi, 82 Beaver St, New York City, New York, USA",(The Continental Hotel Exterior)                        ,,,
503,/title/tt2911666/,John Wick,"Brooklyn Bridge Park, New York City, New York, USA",,"Brooklyn Bridge Park, New York County, New York, United States of America",40.697909800000005,-73.99919420783075
504,/title/tt2911666/,John Wick,"112 Lower Horseshoe, Mill Neck, New York City, New York, USA",(John Wick's House)                        ,,,
505,/title/tt2911666/,John Wick,"Pine Scrap Metal, Laurel Hill Blvd, Queens, New York, USA",(Aurelio's Chop Shop Exterior)                        ,,,
506,/title/tt2911666/,John Wick,"Surrogate's Court - 31 Chamber's Street, Lower Manhattan, Manhattan, New York City, New York, USA",(Red Circle Club exterior)                        ,,,
507,/title/tt2911666/,John Wick,"120 Lower Horseshoe, Mill Neck, New York City, New York, USA",(John Wick's House)                        ,,,
508,/title/tt2911666/,John Wick,"160 E 83rd St, Upper East Side, Manhattan, New York City, New York, USA",(Marcus' house)                        ,"160, East 83rd Street, Yorkville, Manhattan Community Board 8, Manhattan, New York County, New York, 10028, United States of America",40.77707365,-73.9563275329068
509,/title/tt2911666/,John Wick,USA,,United States,39.7837304,-100.4458825
510,/title/tt2911666/,John Wick,"New York, USA",,"New York, United States of America",40.7127281,-74.0060152
511,/title/tt7349662/,BlacKkKlansman,"Ossining, New York, USA",(as Colorado Springs)                        ,"Ossining, Town of Ossining, Westchester County, New York, 10562, United States of America",41.1613168,-73.8620367
512,/title/tt7349662/,BlacKkKlansman,"New York, USA",,"New York, United States of America",40.7127281,-74.0060152
513,/title/tt1600194/,Hawaii Five-0,"O'ahu, Hawaii, USA",,"Oʻahu, Mililani, Honolulu County, Hawaii, United States of America",21.48349555,-158.03640389298
514,Code,Show Name,Location,Scene,"Location, Tucker County, West Virginia, United States of America",39.2138905,-79.6371124
515,/title/tt1043813/,Titans,"Hamilton, Ontario, Canada",,"Hamilton, Golden Horseshoe, Ontario, L8P 0B3, Canada",43.2560802,-79.8728583
516,/title/tt1043813/,Titans,"Chicago Illinois, USA",,"Chicago, Cook County, Illinois, United States of America",41.8755616,-87.6244212
517,/title/tt0116282/,Fargo,"Fargo, North Dakota, USA",(snow exteriors)                        ,"Fargo, Cass County, North Dakota, United States of America",46.877229,-96.789821
518,/title/tt0116282/,Fargo,"Embers Restaurant - 7525 Wayzata Boulevard, St. Louis Park, Minnesota, USA",,,,
519,/title/tt0116282/,Fargo,"Chanhassen Dinner Theatre, Chanhassen, Minnesota, USA",(José Feliciano concert)                        ,"Chanhassen Dinner Theatre, 501, West 78th Street, Carver Beach, Chanhassen, Carver County, Minnesota, 55317, United States of America",44.861581900000004,-93.5339071170754
520,/title/tt0116282/,Fargo,"Edina City Hall - 4801 W. 50th Street, Edina, Minnesota, USA",(Brainerd Police Department interiors)                        ,"Edina City Hall, 4801, West 50th Street, 50th and France, Fulton, Edina, Hennepin County, Minnesota, 55424, United States of America",44.911093,-93.34733183395795
521,/title/tt0116282/,Fargo,"Stillwater, Minnesota, USA",,"Stillwater, Washington County, Minnesota, 55082, United States of America",45.0564041,-92.8134982
522,/title/tt0116282/,Fargo,"Brainerd, Minnesota, USA",,"Brainerd, Crow Wing, Minnesota, 56401, United States of America",46.3580221,-94.2008288
523,/title/tt0116282/,Fargo,"St. Louis Park, Minnesota, USA",,"Saint Louis Park, Hennepin County, Minnesota, United States of America",44.9475726,-93.3569023
524,/title/tt0116282/,Fargo,"Stockman's Truck Stop, South St. Paul, Minnesota, USA",,,,
525,/title/tt0116282/,Fargo,"Richfield, Minnesota, USA",,"Richfield, Hennepin County, Minnesota, United States of America",44.8766431,-93.2877877
526,/title/tt0116282/,Fargo,"Willernie, Minnesota, USA",,"Willernie, Washington County, Minnesota, 55090, United States of America",45.0541329,-92.9566037
527,/title/tt0116282/,Fargo,"Hitching Post Motel, Forest Lake, Minnesota, USA",(location)                        ,,,
528,/title/tt0116282/,Fargo,"Edina, Minnesota, USA",,"Edina, Hennepin County, Minnesota, United States of America",44.8897027,-93.3501222
529,/title/tt3920596/,Big Little Lies,"Monterey, California, USA",,"Monterey County, California, United States of America",36.2231079,-121.3877428
530,/title/tt3920596/,Big Little Lies,"Carmel, California, USA",,"Carmel, Roseville, Placer County, California, United States of America",38.75511285,-121.35330894827251
531,/title/tt3920596/,Big Little Lies,"Pebble Beach, California, USA",,"Pebble Beach, Monterey County, California, 93953, United States of America",36.5672414,-121.9442134
532,/title/tt3920596/,Big Little Lies,"Pasadena, California, USA",,"Pasadena, Los Angeles County, California, United States of America",34.1476452,-118.1444779
533,/title/tt3920596/,Big Little Lies,"30760 Broad Beach Road, Malibu, California, USA",(Madeline's House)                        ,"30760, Broad Beach Road, Trancas, Malibu, Los Angeles County, California, 90265, United States of America",34.03143491678087,-118.84478920142335
534,/title/tt3920596/,Big Little Lies,"636 Crater Camp Drive, Calabasas, California, USA",(Bonnie's House)                        ,,,
535,/title/tt3920596/,Big Little Lies,"Kenter Canyon Elementary School, 645 North Kenter Avenue, Brentwood, California, USA",(Otter Bay Elementary School)                        ,,,
536,/title/tt3920596/,Big Little Lies,"1 Surf Way, Monterey, California, USA",(Celeste's New Apartment)                        ,"1, Surf Way, Del Monte, Monterey, Monterey County, California, 93940, United States of America",36.6049036,-121.86714300075873
537,/title/tt3920596/,Big Little Lies,"27326 Winding Way, Malibu, California, USA",(Renata's House)                        ,"27326, Winding Way, Malibu, Los Angeles County, California, 90265, United States of America",34.03124160624789,-118.77531870569477
