,Code,Show Name,Location,Scene,geocodedLocation,latitude,longitude
0,/title/tt12939836/,,"Berlin, Germany",(on location),"Berlin, 10117, Deutschland",52.5170365,13.3888599
1,/title/tt12939836/,,"Frankfurt, Germany",(interview) (interiors for interviews),"Frankfurt am Main, Hessen, 60311, Deutschland",50.1106444,8.6820917
2,/title/tt11823076/,,"Oklahoma, USA",,"Oklahoma, United States of America",34.9550817,-97.2684063
3,/title/tt2395695/,,"Northern California, California, USA",,"Northern Penstock, Napa County, California, United States of America",38.5134811,-122.1047011
4,/title/tt1319900/,,"Yuma, Arizona, USA",,"Yuma, Yuma County, Arizona, 85364, United States of America",32.6926588,-114.6276157
5,/title/tt1319900/,,"Globe, Arizona, USA",,"Globe, Gila County, Arizona, United States of America",33.3959623,-110.7871344
6,/title/tt1319900/,,"Ajo, Arizona, USA",,"Ajo, Pima County, Arizona, 85321, United States of America",32.3771926,-112.8645745
7,/title/tt1319900/,,"Tucson, Arizona, USA",,"Tucson, Pima County, Arizona, United States of America",32.2228765,-110.9748477
8,/title/tt1319900/,,"Bisbee, Arizona, USA",,"Bisbee, Cochise County, Arizona, United States of America",31.4481547,-109.9284084
9,/title/tt1319900/,,"Goldfield, Arizona, USA",,"Goldfield Mountains, Gilbert, Maricopa County, Arizona, United States of America",33.5200461,-111.5134671
10,/title/tt1319900/,,"Prescott, Arizona, USA",,"Prescott, Yavapai County, Arizona, United States of America",34.5399962,-112.4687616
11,/title/tt1319900/,,"The Domes, Casa Grande, Arizona, USA",,,,
12,/title/tt1319900/,,"Jerome Grand Hotel- 200 Hill Street Jerome, Arizona, USA",,,,
13,/title/tt1319900/,,"Superstition Mountains, Arizona, USA",,"Superstition Mountains, Pinal County, Arizona, United States of America",33.4286606,-111.4181856
14,/title/tt4736550/,,Thailand,,ประเทศไทย,14.8971921,100.83273
15,/title/tt4736550/,,"England, UK",,"England, United Kingdom",52.7954791,-0.5402402866174321
16,/title/tt4803766/,,"Patagonia, Argentina",(Season 3),"Patagonia, Municipio de Alto Río Senguer, Departamento Río Senguer, Chubut, Argentina",-44.99006975,-70.81731046588706
17,/title/tt4382552/,,"Comal County, Texas, USA",,"Comal County, Texas, United States of America",29.7979704,-98.2690787
18,/title/tt4382552/,,"2 East Drive, North Miami Beach, Florida, USA",(scenes at Riley Reynolds' house),"2, East Drive, North Miami Beach, Miami-Dade County, Florida, 33162, United States of America",25.933770699999997,-80.20080694677793
19,/title/tt4382552/,,"Redneck Heaven - 701 North Watson Road, Arlington, Texas, USA",(sequence at the restaurant where Tressa Silguero works),,,
20,/title/tt4382552/,,"The Cheese Course - 3451 Northeast 1st Avenue #100, Miami, Florida, USA","(sequence with John Anthony, Rachel Bernard, Tressa Silguero, and Riley Reynolds)",,,
21,/title/tt4382552/,,"North Miami Beach, Florida, USA",,"North Miami Beach, Miami-Dade County, Florida, 33162, United States of America",25.9331488,-80.1625463
22,/title/tt4382552/,,USA,,United States,39.7837304,-100.4458825
23,/title/tt10394738/,,"New York City, New York, USA",,"New York, United States of America",40.7127281,-74.0060152
24,/title/tt0403778/,,"Bojnice, Slovakia",,"Bojnice, Trenčianský kraj, Západné Slovensko, 972 01, Slovensko",48.7799591,18.5821986
25,/title/tt0403778/,,"Anchorage, Alaska, USA",,"Anchorage, Alaska, United States of America",61.2163129,-149.8948523
26,/title/tt0403778/,,"Chicago, Illinois, USA",,"Chicago, Cook County, Illinois, United States of America",41.8755616,-87.6244212
27,/title/tt0403778/,,"Kyiv, Ukraine",,"Київ, Україна",50.4500336,30.5241361
28,/title/tt0403778/,,Luxembourg,,Lëtzebuerg,49.8158683,6.1296751
29,/title/tt0403778/,,"Milwaukee, Wisconsin, USA",,"Milwaukee, Milwaukee County, Wisconsin, United States of America",43.0349931,-87.922497
30,/title/tt0403778/,,"Montana, USA",,"Montana, United States of America",47.3752671,-109.6387579
31,/title/tt0403778/,,"Naperville, Illinois, USA",,"Naperville, DuPage County, Illinois, United States of America",41.7728699,-88.1479278
32,/title/tt0403778/,,"Prague, Czech Republic",,"Praha, okres Hlavní město Praha, Hlavní město Praha, Praha, Česká republika",50.0874654,14.4212535
33,/title/tt0403778/,,"Toronto, Ontario, Canada",,"Toronto, Golden Horseshoe, Ontario, Canada",43.6534817,-79.3839347
34,/title/tt0403778/,,"Volgograd, Russia",,"Волгоград, Волгоградская область, Южный федеральный округ, Россия",48.7081906,44.5153353
35,/title/tt7775622/,,"Yosemite, California, USA",,"Yosemite National Park, PO box 577, Mariposa County, California, 95389, United States of America",37.84054795,-119.51658779802511
36,/title/tt7775622/,,"Las Vegas, Nevada, USA",,"Las Vegas, Clark County, Nevada, United States of America",36.1672559,-115.1485163
37,/title/tt5788462/,,"Ortona, Abruzzo, Italy",(Rocco's home town),"Ortona, Chieti, Abruzzo, 66026, Italia",42.349643,14.403913
38,/title/tt5788462/,,Italy,,Italia,42.6384261,12.674297
39,/title/tt5788462/,,Hungary,,Magyarország,47.1817585,19.5060937
40,/title/tt7664504/,,"Mount Mary Retreat Centre, Hamilton, Ontario, Canada",(School scenes),,,
41,/title/tt7664504/,,"Ann Arbor, Michigan, USA",,"Ann Arbor, Washtenaw County, Michigan, United States of America",42.2681569,-83.7312291
42,/title/tt11394182/,,"San Francisco, California, USA",,"San Francisco, San Francisco City and County, California, United States of America",37.7790262,-122.4199061
43,/title/tt11394182/,,Hong Kong,,"香港島 Hong Kong Island, 香港 Hong Kong, China 中国",22.2793278,114.1628131
44,/title/tt11394182/,,"Copenhagen, Denmark",,"København, Københavns Kommune, Region Hovedstaden, 1357, Danmark",55.6867243,12.5700724
45,/title/tt0959858/,,"John O'Groats, Highland, Scotland, UK",,"John O'Groats, A99, Craft Village, John o' Groats, Caithness, Scotland, KW1 4YX, United Kingdom",58.6440081,-3.070033
46,/title/tt0383126/,,"Naval Air Station Alameda, Alameda, California, USA",,,,
47,/title/tt0383126/,,"M5 Industries - 1268 Missouri Street, San Francisco, California, USA",,"M5 Industries Inc., 1268, Missouri Street, Potrero Terrace, San Francisco, San Francisco City and County, California, 94124, United States of America",37.7503503,-122.39569246381093
48,/title/tt0383126/,,"Oakland International Airport - 1 Airport Drive, Oakland, California, USA",,"Oakland International Airport, Airport Drive, Oakland, Alameda County, California, 94614, United States of America",37.7131093,-122.2123989
49,/title/tt0383126/,,"Tracy Municipal Airport - 5749 S Tracy Blvd., Tracy, California, USA",,"Tracy Municipal Airport, South Tracy Boulevard, Tracy, San Joaquin County, California, 95377, United States of America",37.68625835,-121.43898286040837
50,/title/tt0383126/,,"Oakland, California, USA",,"Oakland, Alameda County, California, United States of America",37.8044557,-122.2713563
51,/title/tt0383126/,,"South San Francisco Police Department - 33 Arroyo Dr., South San Francisco, California, USA",,"South San Francisco Police Department, 33, Arroyo Drive, Baden, South San Francisco, San Mateo County, California, 94080, United States of America",37.6556757,-122.4366679
52,/title/tt0383126/,,"San Francisco, California, USA",,"San Francisco, San Francisco City and County, California, United States of America",37.7790262,-122.4199061
53,/title/tt0383126/,,"Los Angeles County Museum of Art - 5905 Wilshire Blvd., Hancock Park, Los Angeles, California, USA",,,,
54,/title/tt0388644/,,Germany,,Deutschland,51.0834196,10.4234469
55,/title/tt1935156/,,"California, USA",,"California, United States of America",36.7014631,-118.7559974
56,/title/tt1935156/,,"Paris, France",,"Paris, Île-de-France, France métropolitaine, 75004, France",48.8566969,2.3514616
57,/title/tt1935156/,,France,,France,46.603354,1.8883335
58,/title/tt8991268/,,"Skopje, Macedonia","(Skopje, North Macedonia)","Скопје, Општина Центар, Град Скопје, Скопски СР, Македонија",41.9960924,21.4316495
59,/title/tt0077533/,,"Guanajuato, Mexico",,"Guanajuato, México",20.9876996,-101.0
60,/title/tt0077533/,,"San Francisco, California, USA",,"San Francisco, San Francisco City and County, California, United States of America",37.7790262,-122.4199061
61,/title/tt0322802/,,"Portland, Oregon, USA",,"Portland, Multnomah County, Oregon, United States of America",45.5202471,-122.6741949
62,/title/tt0322802/,,"London, England, UK",,"London, Greater London, England, United Kingdom",51.5073219,-0.1276474
63,/title/tt0322802/,,"Miami, Florida, USA",,"Miami, Miami-Dade County, Florida, United States of America",25.7742658,-80.1936589
64,/title/tt0322802/,,"Tokyo, Japan",,"東京都, 日本 (Japan)",35.6828387,139.7594549
65,/title/tt0322802/,,"Amsterdam, Noord-Holland, Netherlands",,"Amsterdam, Noord-Holland, Nederland",52.3727598,4.8936041
66,/title/tt0085809/,,"Embarcadero Freeway, San Francisco, California, USA",(demolished due to 1989 Loma Prieta Earthquake damage),"Southern Embarcadero Freeway, Dogpatch, San Francisco, San Francisco City and County, California, 41907, United States of America",37.7581398,-122.3922043
67,/title/tt0085809/,,"Canyon de Chelly National Monument, Arizona, USA",,"Canyon de Chelly National Monument, Apache County, Arizona, United States of America",36.1552818,-109.5089952
68,/title/tt0085809/,,"Grand Central Station, Manhattan, New York City, New York, USA",,"Grand Central Terminal, 89, East 42nd Street, Midtown East, Manhattan Community Board 5, Manhattan, New York County, New York, 10017, United States of America",40.752701200000004,-73.97724987363358
69,/title/tt0085809/,,"Monument Valley, Utah, USA",,"Monument, Disera Boulevard, Magna, Salt Lake County, Utah, 84044, United States of America",40.7143227,-112.1045506
70,/title/tt0085809/,,"Chicago, Illinois, USA",,"Chicago, Cook County, Illinois, United States of America",41.8755616,-87.6244212
71,/title/tt0085809/,,"Grand Canyon National Park, Arizona, USA",,"Grand Canyon National Park, Coconino County, Arizona, United States of America",36.307854750000004,-112.29289603702432
72,/title/tt0085809/,,"Los Angeles International Airport - 1 World Way, Los Angeles, California, USA",,,,
73,/title/tt0085809/,,"New York City, New York, USA",,"New York, United States of America",40.7127281,-74.0060152
74,/title/tt0085809/,,"St. Louis, Missouri, USA",(Pruitt-Igoe),"Saint Louis, City of Saint Louis, Missouri, 63102-1102, United States of America",38.6264178,-90.1998378
75,/title/tt0085809/,,"Goosenecks State Park - State Highway 316, Mexican Hat, Utah, USA",,"Goosenecks State Park, UT 316, Mexican Hat, San Juan County, Utah, United States of America",37.1743604,-109.92678256244466
76,/title/tt0085809/,,"Los Angeles, California, USA",,"Los Angeles, Los Angeles County, California, United States of America",34.0536909,-118.2427666
77,/title/tt0085809/,,"Waimea Canyon, Kaua'i, Hawaii, USA",,"Waimea Canyon State Park, Kokee Road, Kekaha, Kauaʻi County, Hawaii, 96752, United States of America",22.070789599999998,-159.66494975713584
78,/title/tt0446809/,,"International Waters, Bering Sea",,,,
79,/title/tt1152758/,,"Pittsburgh ,Pennsylvania, USA",,"Pittsburgh, Allegheny County, Pennsylvania, United States of America",40.4416941,-79.9900861
80,/title/tt1152758/,,"Sunnyvale, California, USA",,"Sunnyvale, Santa Clara County, California, United States of America",37.3688301,-122.0363496
81,/title/tt9159182/,,"Avenue Six Studios, 7900 Haskell Avenue, Van Nuys, California, USA",(studio),,,
82,/title/tt6333060/,,"Moscow, Russia",,"Москва, Центральный административный округ, Москва, Центральный федеральный округ, Россия",55.7504461,37.6174943
83,/title/tt2964642/,,"Kavik River Camp, Alaska, USA",,"Kavik River Camp, North Slope, Alaska, United States of America",69.67505965000001,-146.90117229063276
84,/title/tt2964642/,,"Eagle, Alaska, USA",,"Eagle, Unorganized Borough, Alaska, 99738, United States of America",64.7853016,-141.2072871
85,/title/tt2964642/,,"Arctic National Wildlife Refuge, Alaska, USA",,"Arctic National Wildlife Refuge, Alaska, 99747, United States of America",68.45635705000001,-143.61048251073333
86,/title/tt2964642/,,"Calico Bluff, Alaska, USA",,"Calico Bluff, Unorganized Borough, Alaska, United States of America",64.9119673,-141.1910003321447
87,/title/tt2964642/,,"Wiseman, Alaska, USA",,"Wiseman, Dalton Highway, Wiseman, Unorganized Borough, Alaska, United States of America",67.44623250000001,-150.10604868259767
88,/title/tt6918740/,,"Rocky Mount, Virginia, USA",,"Rocky Mount, Franklin County, Virginia, United States of America",36.9962007,-79.8909474
89,/title/tt6918740/,,"Boulder, Colorado, USA",,"Boulder, Boulder County, Colorado, United States of America",40.0149856,-105.2705456
90,/title/tt6918740/,,"Dothan, Alabama, USA",,"Dothan, Houston, Alabama, United States of America",31.2237434,-85.3933906
91,/title/tt6918740/,,"Luling, Louisiana, USA",,"Luling, St. Charles Parish, Louisiana, 70070, United States of America",29.9321498,-90.3664695
92,/title/tt6918740/,,"Cleveland, Tennessee, USA",,"Cleveland, Bradley County, Tennessee, United States of America",35.1595182,-84.8766115
93,/title/tt3444312/,,"Utah, USA",,"Utah, United States of America",39.4225192,-111.7143584
94,/title/tt12163674/,,"Douglas, Arizona, USA",(Location),"Douglas, Cochise County, Arizona, United States of America",31.462229999999998,-109.59394273100952
95,/title/tt12163674/,,"Guadalajara, Jalisco, Mexico",(Location),"Guadalajara, Jalisco, 44360, México",20.6720375,-103.3383962
96,/title/tt1533395/,,Canada,,Canada,61.0666922,-107.9917071
97,/title/tt1533395/,,"Lake Erie, Ontario, Canada",,,,
98,/title/tt1533395/,,"Sulawesi, Indonesia",,"Sulawesi, Bakekau, Poso, Sulawesi Tengah, Indonesia",-1.9758004,120.29488558399481
99,/title/tt1533395/,,Antarctica,,Antarctica,-79.4063075,0.3149312
100,/title/tt1533395/,,Madagascar,,Madagasikara,-18.9249604,46.4416422
101,/title/tt1533395/,,Malaysia,,Malaysia,4.5693754,102.2656823
102,/title/tt1533395/,,"Luangwa River, Zambia",,"Luangwa, Mpika District, Muchinga Province, Zambia",-12.6884288,32.0644569
103,/title/tt1533395/,,Pacific Ocean,,"Pacific Ocean, Gulf View Executive Homes, Talomo, Davao City, Davao Region, 8024, Philippines",7.0427772,125.5367255
104,/title/tt1533395/,,"Antarctic peninsula, Antarctica",,,,
105,/title/tt1533395/,,"Ross Ice Shelf, Antarctica",,,,
106,/title/tt1533395/,,"Deception Island, Antarctica",,,,
107,/title/tt1533395/,,"Pantanal, Brazil",,"Parque Nacional do Pantanal Matogrossense, Poconé, Microrregião do Alto Pantanal, Região Geográfica Intermediária de Cuiabá, Mato Grosso, Região Centro-Oeste, Brasil",-17.675068449999998,-57.45533629711478
108,/title/tt1533395/,,Brazil,,Brasil,-10.3333333,-53.2
109,/title/tt1533395/,,Niue,,Niuē,-19.0536414,-169.8613411
110,/title/tt1533395/,,"East Africa, Africa",,"E, Block E, Mikheil Tsiskarishvili Street, აფრიკა, ისანი-სამგორის რაიონი, თბილისი, 0121, Georgia / საქართველო",41.67119675,44.91265488767313
111,/title/tt1533395/,,"Kasanka National Park, Zambia",,"Kasanka National Park, RD733, Muchinga Province, Zambia",-12.52918545,30.229312207434596
112,/title/tt1533395/,,Tonga,,Tonga,-19.9160819,-175.2026424
113,/title/tt1533395/,,Oceania,,Oceania,-18.3128,138.5156
114,/title/tt1533395/,,Japan,,日本,36.5748441,139.2394179
115,/title/tt1533395/,,Belize,,Belize,16.8259793,-88.7600927
116,/title/tt1533395/,,"Andes, Peru",,"Andes, San Juan de Lurigancho, Lima, 15401, Peru",-12.0283189,-77.0056816
117,/title/tt1533395/,,"Little Tobago, Trinidad and Tobago",,"Little Tobago, Trinidad and Tobago",11.3008042,-60.50134709777887
118,/title/tt1533395/,,"Dassen Island, South Africa",,"Dassen Island, Western Cape, South Africa",-33.423204999999996,18.08633075892857
119,/title/tt1533395/,,"Wyoming, USA",,"Wyoming, United States of America",43.1700264,-107.5685348
120,/title/tt1533395/,,"Lake Bogoria, Kenya",,"Lake Bogoria, Baringo, Kenya",0.26636384999999996,36.10178280956215
121,/title/tt1533395/,,"Patagonia, Chile",,"Patagonia, Población Curicó, Villorrio Puente Colorado, Curicó, Provincia de Curicó, Región del Maule, 3340000, Chile",-34.973797,-71.223646
122,/title/tt1533395/,,"Mono Lake, California, USA",,"Mono Lake, Mono County, California, United States of America",38.00790545,-118.96756824798109
123,/title/tt1533395/,,"Minnesota, USA",,"Minnesota, United States of America",45.9896587,-94.6113288
124,/title/tt1533395/,,"Mount Kenya, Kenya",,"Batian, Embu, East Kenya, Kenya",-0.152707,37.3092138
125,/title/tt1533395/,,"England, UK",,"England, United Kingdom",52.7954791,-0.5402402866174321
126,/title/tt1533395/,,"Alaska, USA",,"Alaska, United States of America",64.4459613,-149.680909
127,/title/tt1533395/,,"Bandhavgarh National Park, India",,"Bandhavgarh National Park/Tiger Reserve, Umaria, Madhya Pradesh, India",23.6444125,81.02450230866748
128,/title/tt1533395/,,"Sea Lion Island, Falkland Islands",,"Sea Lion Island, Islas Malvinas, Falkland Islands",-52.43469075,-59.11578942479929
129,/title/tt1533395/,,"Mount Erebus, Antarctica",,,,
130,/title/tt1533395/,,"British Columbia, Canada",,"British Columbia, Canada",55.001251,-125.002441
131,/title/tt1533395/,,"Great Barrier Reef, Queensland, Australia",,"Great barrier reef, Coral Sea, Mackay Regional, Queensland, Australia",-19.1013672,146.9558555
132,/title/tt1533395/,,"Florida, USA",,"Florida, United States of America",27.7567667,-81.4639835
133,/title/tt1533395/,,"Socotra, Yemen",,"سقطرى, مديرية حديبو, محافظة أرخبيل سقطرى, اليَمَن al-Yaman",12.5074541,53.892999176662144
134,/title/tt1533395/,,"Awash National Park, Ethiopia",,"Awash National Park, 4, Metahara, East Shewa, ኦሮሚያ ክልል / Oromia, Ethiopia",8.9940466,39.979955043529856
135,/title/tt1533395/,,"Kamikochi, Japan",,"上高地, 林間ルート, 松本市, 長野県, 日本 (Japan)",36.2462449,137.6355354
136,/title/tt1533395/,,Thailand,,ประเทศไทย,14.8971921,100.83273
137,/title/tt1533395/,,"Bossou, Guinea",,"Bossou, Lola, Nzérékoré, Guinée",7.648746,-8.5053697
138,/title/tt1645089/,,China,,中国,35.000074,104.999927
139,/title/tt1645089/,,France,,France,46.603354,1.8883335
140,/title/tt1645089/,,USA,,United States,39.7837304,-100.4458825
141,/title/tt1645089/,,"White House - 1600 Pennsylvania Avenue NW, Washington, District of Columbia, USA",,"White House, 1600, Pennsylvania Avenue Northwest, Washington, District of Columbia, 20500, United States of America",38.8976998,-77.03655348862276
142,/title/tt0081846/,,"Navajo Reservation, New Mexico, USA",,"Navajo Reservoir, NM 539, San Juan County, New Mexico, United States of America",36.8012772,-107.6068026
143,/title/tt0081846/,,"Alaska, USA",,"Alaska, United States of America",64.4459613,-149.680909
144,/title/tt0081846/,,"Hollywood, Los Angeles, California, USA",,"Hollywood, Los Angeles, Los Angeles County, California, 90028-8127, United States of America",34.0980031,-118.329523
145,/title/tt0081846/,,"New York City, New York, USA",,"New York, United States of America",40.7127281,-74.0060152
146,/title/tt0081846/,,"Rome, Lazio, Italy",,"Roma Capitale, Lazio, Italia",41.85223935,12.631036615953583
147,/title/tt0081846/,,"Angkor Wat, Siem Reap, Cambodia",,"អង្គរវត្ត, Sandstone Cause Way, ក្រុងសៀមរាប, ខេត្តសៀមរាប, Cambodia",13.41249965,103.86656937305514
148,/title/tt5278506/,,"Los Angeles, California, USA",(Secret Back Alley Meeting with David Starr),"Los Angeles, Los Angeles County, California, United States of America",34.0536909,-118.2427666
149,/title/tt5278506/,,"Garden City, Long Island, New York, USA",(Stakeout),"Long Island, Lake Parkway, Assembly Point, Cleverdale, Queensbury, Warren County, New York, 12820, United States of America",43.483661,-73.65503571170086
150,/title/tt5278506/,,"Auckland, New Zealand",,"Auckland, 1010, New Zealand",-36.852095,174.7631803
151,/title/tt8760684/,,"Cape Canaveral, Florida, USA",,"Cape Canaveral, Brevard County, Florida, United States of America",28.45077,-80.52662
152,/title/tt8760684/,,"Johnson Space Center - 2101 NASA Rd., Houston, Texas, USA",,,,
153,/title/tt9617456/,,Syria,,سوريا,34.6401861,39.0494106
154,/title/tt0846789/,,USA,,United States,39.7837304,-100.4458825
155,/title/tt1549918/,,"Los Angeles, California, USA",(charger),"Los Angeles, Los Angeles County, California, United States of America",34.0536909,-118.2427666
156,/title/tt1549918/,,"Boise, Idaho, USA",(karmann ghia),"Boise, Ada County, Idaho, United States of America",43.6166163,-116.200886
157,/title/tt1549918/,,"San Francisco, California, USA",(chevy truck),"San Francisco, San Francisco City and County, California, United States of America",37.7790262,-122.4199061
158,/title/tt1584016/,,"Gladstone, Michigan, USA",,"Gladstone, Delta County, Michigan, United States of America",45.852744,-87.021805
159,/title/tt1584016/,,"Michigan, USA",,"Michigan, United States of America",43.6211955,-84.6824346
160,/title/tt1584016/,,USA,,United States,39.7837304,-100.4458825
161,/title/tt0427312/,,"Alaska, USA",,"Alaska, United States of America",64.4459613,-149.680909
162,/title/tt2375605/,,"Jakarta, Indonesia",,"Daerah Khusus Ibukota Jakarta, Indonesia",-6.1753942,106.827183
163,/title/tt0094574/,,"City Hall - 100 N. Garfield Avenue, Pasadena, California, USA",(Introduction),,,
164,/title/tt0094574/,,"Burbank, California, USA",,"Burbank, Los Angeles County, California, United States of America",34.1816482,-118.3258554
165,/title/tt0094574/,,"Paramount Ranch - 2813 Cornell Road, Agoura, California, USA","(Robert Stack story intros in Western town & other areas for several episodes; Karl Malden intros, one episode)",,,
166,/title/tt0094574/,,"Gettysburg, Pennsylvania, USA",,"Gettysburg, Adams County, Pennsylvania, United States of America",39.8308973,-77.231012
167,/title/tt0094574/,,"Houston, Texas, USA",,"Houston, Harris County, Texas, United States of America",29.7589382,-95.3676974
168,/title/tt0094574/,,"Miami, Florida, USA",,"Miami, Miami-Dade County, Florida, United States of America",25.7742658,-80.1936589
169,/title/tt0094574/,,"New York City, New York, USA",,"New York, United States of America",40.7127281,-74.0060152
170,/title/tt0094574/,,"Seattle, Washington, USA",,"Seattle, King County, Washington, United States of America",47.6038321,-122.3300624
171,/title/tt0094574/,,"St. Louis, Missouri, USA",,"Saint Louis, City of Saint Louis, Missouri, 63102-1102, United States of America",38.6264178,-90.1998378
172,/title/tt0094574/,,"Bannack, Montana, USA",,"Bannack, Beaverhead County, Montana, United States of America",45.1610337,-112.9955907
173,/title/tt0094574/,,"Miles City, Montana, USA",,"Miles City, Custer County, Montana, 59301, United States of America",46.4085273,-105.840981
174,/title/tt0094574/,,"Bigfork, Montana, USA",,"Bigfork, Flathead County, Montana, United States of America",48.0679255,-114.09666640516207
175,/title/tt0094574/,,"Great Falls, Montana, USA",,"Great Falls, Cascade County, Montana, United States of America",47.5048851,-111.2918908
176,/title/tt0094574/,,"Bozeman, Montana, USA",,"Bozeman, Gallatin County, Montana, United States of America",45.6794293,-111.0440474
177,/title/tt0094574/,,"Big Bear Valley, San Bernardino National Forest, California, USA",,,,
178,/title/tt0094574/,,"Los Angeles City Hall - 200 North Spring Street, Downtown, Los Angeles, California, USA",,"Los Angeles City Hall, 200, North Spring Street, Civic Center, Downtown, Los Angeles, Los Angeles County, California, 90012, United States of America",34.0537767,-118.2428987
179,/title/tt0094574/,,"Little Rock, Arkansas, USA",,"Little Rock, Arkansas, United States of America",34.7464809,-92.2895948
180,/title/tt0094574/,,"Peekskill, New York, USA",,"Peekskill, Westchester County, New York, 10566, United States of America",41.289811,-73.9204922
181,/title/tt9351980/,,China,,中国,35.000074,104.999927
182,/title/tt0770802/,,"Mecca, Saudi Arabia",,"مكة, منطقة مكة المكرمة, 24231, Saudi Arabia / السعودية",21.420847,39.826869
183,/title/tt0770802/,,"Leh, Ladakh, Jammu & Kashmir, India",,,,
184,/title/tt0770802/,,"Himalayas, Nepal",,"Himalayas, Khumjung, Khumbupasanglahmu, सोलुखुम्बु, प्रदेश नं. १, Nepal",27.985688,86.9163367
185,/title/tt0770802/,,"West Bank, Israel",,"Experts Turnkey Solutions, Mecca Street, رام الله, البالوع, البيرة, שטח C, יהודה ושומרון, 00970, Palestinian Territory",31.9222926,35.2146235
186,/title/tt0770802/,,"Chateau de Versailles, Paris, France",,"Château de Versailles, Avenue de Paris, Notre-Dame, Versailles, Yvelines, Île-de-France, France métropolitaine, 78000, France",48.8030593,2.1274975
187,/title/tt0770802/,,"Dubai, United Arab Emirates",,"دبي, تلال الإمارات, دبي, United Arab Emirates",25.0750095,55.18876088183319
188,/title/tt0770802/,,"Museum of Egyptian Antiquities, Midan el-Tahir, Cairo, Egypt",,,,
189,/title/tt0770802/,,"Namib Desert, Namibia",,"Namib Desert Lodge, Hardap Region, Namibia",-24.1165286,15.9045939
190,/title/tt0770802/,,"Cebu City, Cebu, Philippines",,"Cebu City, Cebu, Central Visayas, 6000, Philippines",10.3095549,123.8931107
191,/title/tt0770802/,,"Epupa Falls, Angola",,,,
192,/title/tt0770802/,,"Wailing Wall, Old City, Jerusalem, Israel",,"רחבת הכותל המערבי, העיר העתיקה, ירושלים, מחוז ירושלים, no, ישראל",31.776473699999997,35.233922482041855
193,/title/tt0770802/,,"Cappadocia, Turkey",(location),"Kapadokya, Göreme, Nevşehir merkez, Nevşehir, İç Anadolu Bölgesi, 50650, Türkiye",38.646806,34.8491554
194,/title/tt0770802/,,"Zhengzhou, Henan, China",,"郑州市, 二七区, 河南省, China 中国",34.7591877,113.6524076
195,/title/tt0770802/,,"Omo valley, Ethiopia",,"Omo Valley (low lands) View Point, Konso Special Woreda, ደቡብ ብሔሮች ብሔረሰቦችና ሕዝቦች ክልል / Southern Nations Nationalities Peoples, Ethiopia",5.3579517,37.1503864
196,/title/tt0770802/,,"Accra, Ghana",,"Accra, Accra Metropolitan, Greater Accra Region, 000000, Ghana",5.5600141,-0.2057437
197,/title/tt0770802/,,"Seoul, South Korea",,"서울, 대한민국",37.5666791,126.9782914
198,/title/tt0770802/,,"Arches National Park, Utah, USA",,"Arches National Park, Grand County, Utah, United States of America",38.7315573,-109.56302781715105
199,/title/tt0770802/,,"Yellowstone National Park, Wyoming, USA",,"Yellowstone National Park, Park County, Wyoming, United States of America",44.6200885,-110.56075745943113
200,/title/tt0770802/,,"Istanbul, Turkey",(location),"İstanbul, Beyazıt Meydanı, Beyazıt Mahallesi, Fatih, İstanbul, Marmara Bölgesi, 34126, Türkiye",41.0096215,28.9651867
201,/title/tt0770802/,,"São Paulo, São Paulo, Brazil",,"São Paulo, Região Imediata de São Paulo, Região Metropolitana de São Paulo, Região Geográfica Intermediária de São Paulo, São Paulo, Região Sudeste, Brasil",-23.5506507,-46.6333824
202,/title/tt0770802/,,"Sainte-Chapelle, Paris, France",,"Sainte-Chapelle, 8, Boulevard du Palais, Quartier Saint-Germain-l'Auxerrois, Quartier Les Îles, Paris, Île-de-France, France métropolitaine, 75004, France",48.8553933,2.34499406295433
203,/title/tt0770802/,,"Aiguille du Midi, Chamonix, Haute-Savoie, France",,"Aiguille du Midi, Chamonix-Mont-Blanc, Bonneville, Haute-Savoie, Auvergne-Rhône-Alpes, France métropolitaine, 74400, France",45.8787077,6.8874075
204,/title/tt0770802/,,"Notre Dame Cathedral, Paris, France",,"Cathédrale Notre-Dame, 6, Parvis Notre-Dame - Place Jean-Paul II, Quartier Les Îles, Paris, Île-de-France, France métropolitaine, 75004, France",48.85293705,2.3500501225000026
205,/title/tt0770802/,,"Hong Kong, China",,"香港島 Hong Kong Island, 香港 Hong Kong, China 中国",22.2793278,114.1628131
206,/title/tt0770802/,,"Palermo, Sicily, Italy",,"Palermo, Sicilia, Italia",38.1112268,13.3524434
207,/title/tt0770802/,,"Osaka, Japan",,"大阪府, 日本 (Japan)",34.6198813,135.490357
208,/title/tt0770802/,,"Kyoto, Japan",,"京都市, 京都府, 日本 (Japan)",35.021041,135.7556075
209,/title/tt0770802/,,"Manila, Metro Manila, Philippines",,"Manila, First District, Metro Manila, Philippines",14.5907332,120.9809674
210,/title/tt0770802/,,"Bangkok, Thailand",,"กรุงเทพมหานคร, เขตพระนคร, กรุงเทพมหานคร, 10200, ประเทศไทย",13.7542529,100.493087
211,/title/tt0770802/,,"Aadlen Brothers Auto Wrecking - 11590 Tuxford St., Sun Valley, Los Angeles, California, USA",,,,
212,/title/tt0770802/,,"Mono Lake, California, USA",,"Mono Lake, Mono County, California, United States of America",38.00790545,-118.96756824798109
213,/title/tt0770802/,,"Fresno, California, USA",,"Fresno, Fresno County, California, United States of America",36.7295295,-119.70886126075588
214,/title/tt0770802/,,"Irvine, California, USA",,"Irvine, Orange County, California, United States of America",33.6856969,-117.8259819
215,/title/tt0770802/,,"Kilauea Volcano, Hawai'i Volcanoes National Park, Hawaii, USA",,,,
216,/title/tt6189052/,,"New York City, New York, USA",,"New York, United States of America",40.7127281,-74.0060152
217,/title/tt6189052/,,"Berkeley, California, USA",,"Berkeley, Alameda County, California, United States of America",37.8708393,-122.2728639
218,/title/tt6189052/,,"San Diego, California, USA",,"San Diego, San Diego County, California, United States of America",32.7174209,-117.1627714
219,/title/tt6189052/,,"Brooklyn, New York, USA",,"Brooklyn, Kings County, New York, United States of America",40.6501038,-73.9495823
220,/title/tt6189052/,,"Las Vegas, Nevada, USA",,"Las Vegas, Clark County, Nevada, United States of America",36.1672559,-115.1485163
221,/title/tt11394184/,,"Washington, District of Columbia, USA",(Court Arguments),"Washington, District of Columbia, 20230, United States of America",38.8949924,-77.0365581
222,/title/tt0103767/,,"Hagia Sophia, Istanbul, Turkey",,"Ayasofya-i Kebir Câmi-i Şerifi, Soğukçeşme Sokağı, Cankurtaran, Cankurtaran Mahallesi, Fatih, İstanbul, Marmara Bölgesi, 34122, Türkiye",41.008508649999996,28.980009932000005
223,/title/tt0103767/,,"Galata Mevlevi Temple, Istanbul, Turkey",,"Galata Mevlevi House Museum, Galip Dede Caddesi, Şahkulu, Beyoğlu, İstanbul, Marmara Bölgesi, 34421, Türkiye",41.0281923,28.9744388
224,/title/tt0103767/,,"Mount Everest, Nepal",,"珠穆朗玛峰/सगरमाथा, Khumjung, Khumbupasanglahmu, सोलुखुम्बु, प्रदेश नं. १, Nepal",27.9878675,86.9248308
225,/title/tt0103767/,,"Borobudur, Magelang, Central Java, Indonesia",,"Borobudur, Jalan Salaman - Mungkid, Tegalarum, Magelang, Jawa Tengah, 56553, Indonesia",-7.60793475,110.20389767341086
226,/title/tt0103767/,,"Candi Perwara, Indonesia",,,,
227,/title/tt0103767/,,"Durbar Square, Nepal",,,,
228,/title/tt0103767/,,"Himalayas, Nepal",,"Himalayas, Khumjung, Khumbupasanglahmu, सोलुखुम्बु, प्रदेश नं. १, Nepal",27.985688,86.9163367
229,/title/tt0103767/,,"Jogjakarta-Prambanan, Indonesia",,"Prambanan, Jalan Prawirotaman, Brontokusuman, Mergangsan, Kota Yogyakarta, Daerah Istimewa Yogyakarta, 55153, Indonesia",-7.8193397,110.3698962
230,/title/tt0103767/,,"Kediri-Gudang Garam Cigarette Factory, Kediri, Indonesia",,,,
231,/title/tt0103767/,,"Pasupati, Nepal",,"Pasupati Nagar, Suryodaya, इलाम, प्रदेश नं. १, Nepal",26.946718750000002,88.09632692320542
232,/title/tt0103767/,,"Tampak Siring, Indonesia",,"Tampak Siring, Bali, 80561, Indonesia",-8.4251942,115.3090247
233,/title/tt0103767/,,"Temple Gunung Kawi, Tampaksiring, Bali, Indonesia",,,,
234,/title/tt0103767/,,"Rajasthan, India",,"Rajasthan, India",26.8105777,73.7684549
235,/title/tt0103767/,,"Arches National Park, Utah, USA",,"Arches National Park, Grand County, Utah, United States of America",38.7315573,-109.56302781715105
236,/title/tt0103767/,,"Canyon de Chelly National Monument, Arizona, USA",,"Canyon de Chelly National Monument, Apache County, Arizona, United States of America",36.1552818,-109.5089952
237,/title/tt0103767/,,"Ciudad Blanca - Cementerio General, Guayaquil, Guayas, Ecuador",,,,
238,/title/tt0103767/,,"Favela da Rocinha, Rio de Janeiro, Rio de Janeiro, Brazil",,,,
239,/title/tt0103767/,,"Ganges River, India",,"Ganga, Ghazipur, Uttar Pradesh, 233001, India",25.6052693,83.7038469
240,/title/tt0103767/,,"Jadarta-Istigial Mosque, Indonesia",,,,
241,/title/tt0103767/,,"Kasunanan Palace, Indonesia",,,,
242,/title/tt0103767/,,"Luxor, Egypt",,"الأقصر, Egypt / مصر",25.702096,32.647186
243,/title/tt0103767/,,"Mecca, Saudi Arabia",,"مكة, منطقة مكة المكرمة, 24231, Saudi Arabia / السعودية",21.420847,39.826869
244,/title/tt0103767/,,"Persepolis, Iran",,"تخت جمشید, خیابان سپاهیان, حومه شهر مرودشت, بخش مرکزی شهرستان مرودشت, شهرستان مرودشت, استان فارس, ایران",29.93516685,52.89040414267539
245,/title/tt0103767/,,"White House, Canyon de Chelly National Monument, Arizona, USA",,"Canyon de Chelly National Monument, Apache County, Arizona, United States of America",36.14335015,-109.44164310135152
246,/title/tt0103767/,,"Tucson, Arizona, USA",,"Tucson, Pima County, Arizona, United States of America",32.2228765,-110.9748477
247,/title/tt0103767/,,"Black Mesa, Arizona, USA",,"Black Mesa, Mohave County, Arizona, United States of America",34.9525042,-114.3271791
248,/title/tt0103767/,,"Aerospace Maintenance & Regeneration Centre, Davis-Monthan Air Force Base, Tucson, Arizona, USA",,,,
249,/title/tt0103767/,,"American Express Corporation, Phoenix, Arizona, USA",,,,
250,/title/tt0103767/,,Australia,,Australia,-24.7761086,134.755
251,/title/tt0103767/,,"Bang Pa-ln, Thailand",,,,
252,/title/tt0103767/,,"Barrio Mapasingue, Ecuador",,"Mapasingue, Tarqui, Guayaquil, Guayas, Ecuador",-2.1536035,-79.9239369
253,/title/tt0103767/,,"Bayon, Angkor Thom, Siem Reap, Cambodia",,,,
254,/title/tt0103767/,,"Big Sur, California, USA",,"Big Sur, Monterey County, California, 93920-9998, United States of America",36.270241,-121.8074545
255,/title/tt0103767/,,"Bytom, Slaskie, Poland",,"Bytom, Górnośląsko-Zagłębiowska Metropolia, województwo śląskie, Polska",50.3657432,18.87153251609449
256,/title/tt0103767/,,"Cairo, Egypt",,"القاهرة, Egypt / مصر",30.048819,31.243666
257,/title/tt0103767/,,"Carajás Animal Reserve, Pará, Brazil",,,,
258,/title/tt0103767/,,"Cathédrale de Chartres - 18 Cloitre Notre Dame, Eure-et-Loir, France",,,,
259,/title/tt0103767/,,"Chartres, Eure-et-Loir, France",,"Chartres, Eure-et-Loir, Centre-Val de Loire, France métropolitaine, 28000, France",48.4438601,1.4881434
260,/title/tt0103767/,,"Church of the Holy Sepulchre, Old City, Jerusalem, Israel",,"כנסיית הקבר, פיאצה, הרובע הנוצרי, העיר העתיקה, ירושלים, מחוז ירושלים, no, ישראל",31.778380499999997,35.229787850696205
261,/title/tt0103767/,,"Davis-Monthan Air Force Base, Tucson, Arizona, USA",,"Davis-Monthan Air Force Base, Tucson, Pima County, Arizona, United States of America",32.17079565,-110.86990239630313
262,/title/tt0103767/,,"General De Guayaquil, Ecuador",,"Ecuador, Lorenzo de Garaycoa, La bahia, Ayacucho, Parroquia Ayacucho, Guayaquil, Guayas, 090308, Ecuador",-2.1990477,-79.8879772
263,/title/tt0103767/,,"Grand Central Station, Manhattan, New York City, New York, USA",,"Grand Central Terminal, 89, East 42nd Street, Midtown East, Manhattan Community Board 5, Manhattan, New York County, New York, 10017, United States of America",40.752701200000004,-73.97724987363358
264,/title/tt0103767/,,"Green Plaza Capsule Hotel, Japan",,,,
265,/title/tt0103767/,,"Guayaquil, Ecuador",,"Guayaquil, Guayas, Ecuador",-2.1899066,-79.887726
266,/title/tt0103767/,,"Helmsley Building - 250 Park Avenue, Manhattan, New York City, New York, USA",,,,
267,/title/tt0103767/,,"Iguazú Waterfalls, Misiones, Argentina",,,,
268,/title/tt0103767/,,"Isfahan, Iran",,"شهر اصفهان, بخش مرکزی شهرستان اصفهان, شهرستان اصفهان, استان اصفهان, ایران",32.6707877,51.6650002
269,/title/tt0103767/,,"JVE Yokosuka Factory, Kanagawa, Japan",,,,
270,/title/tt0103767/,,"Jim Jim Falls, Northern Territory, Australia",,"Jim Jim Falls, Northern Territory, Australia",-13.2726273,132.8399348
271,/title/tt0103767/,,"Kakadu National Park, Northern Territory, Australia",,"Kakadu National Park, Kakadu, West Arnhem Region, Northern Territory, 0886, Australia",-13.0487014,132.53628093942888
272,/title/tt0103767/,,"Kitt Peak National Observatory, Arizona, USA",,,,
273,/title/tt0103767/,,"Kowloon, Hong Kong, China",,"九龍 Kowloon, 香港 Hong Kong, China 中国",22.3116452,114.1767885
274,/title/tt0103767/,,"Kyoto, Japan",,"京都市, 京都府, 日本 (Japan)",35.021041,135.7556075
275,/title/tt0103767/,,"Li River, China",,"漓江, 桂林市, 广西壮族自治区, 541906, China 中国",25.1828092,110.4216484
276,/title/tt0103767/,,"Mara Kichwan Tembo Manyatta, Kenya",,,,
277,/title/tt0103767/,,"Massai Mara, Kenya",,"Massaï Mara, Rue de la Clef, Le Vieux Lille, Vieux Lille, Lille, Nord, Hauts-de-France, France métropolitaine, 59000, France",50.6391136,3.0648302
278,/title/tt0103767/,,"Meiji Shrine, Yoyogi Park, Shibuya, Japan",,,,
279,/title/tt0103767/,,"NMB Factory, Thailand",,"NMB, ถนนรามคำแหง, แขวงหัวหมาก, เขตบางกะปิ, กรุงเทพมหานคร, 10241, ประเทศไทย",13.757205200000001,100.62189271974029
280,/title/tt0103767/,,"Nara, Japan",,"奈良県, 日本 (Japan)",34.2963089,135.8816819
281,/title/tt0103767/,,"New York City, New York, USA",,"New York, United States of America",40.7127281,-74.0060152
282,/title/tt0103767/,,"Northern Territory, Australia",,"Northern Territory, Australia",-19.8516101,133.2303375
283,/title/tt0103767/,,"Patpong, Thailand",,"Thanon Phatpong 1, แขวงสุริยวงศ์, เขตบางรัก, กรุงเทพมหานคร, 10500, ประเทศไทย",13.7293049,100.5315435
284,/title/tt0103767/,,"Phnom Penh, Cambodia",,"រាជធានីភ្នំពេញ, ខណ្ឌដូនពេញ, រាជធានីភ្នំពេញ, 11213, Cambodia",11.568271,104.9224426
285,/title/tt0103767/,,"Presh Khan, Cambodia",,,,
286,/title/tt0103767/,,"Qin Shi Huang, China",,"秦食煌, 55, 农民巷, 东岗西路街道, 兰州市 (Lanzhou), 甘肃省, 730001, China 中国",36.0534334,103.8497291
287,/title/tt0103767/,,"Ramasseum, Egypt",,,,
288,/title/tt0103767/,,"Represa Samuel/Dam & Lake, Rondônia, Brazil",,,,
289,/title/tt0103767/,,"Rio de Janeiro, Rio de Janeiro, Brazil",,"Rio de Janeiro, Região Geográfica Imediata do Rio de Janeiro, Região Metropolitana do Rio de Janeiro, Região Geográfica Intermediária do Rio de Janeiro, Rio de Janeiro, Região Sudeste, Brasil",-22.9110137,-43.2093727
290,/title/tt0103767/,,"Sansho-Ji Temple, Nara, Japan",,,,
291,/title/tt0103767/,,"Shiprock, New Mexico, USA",,"Shiprock, San Juan County, New Mexico, 87420, United States of America",36.786424,-108.6847042
292,/title/tt0103767/,,"Siem Reap, Cambodia",,"ក្រុងសៀមរាប, ខេត្តសៀមរាប, 17524, Cambodia",13.3617562,103.8590321
293,/title/tt0103767/,,"Sonsam Kosal Killing Fields, Cambodia",,,,
294,/title/tt0103767/,,"St. Peter Basilica, Vatican City",,,,
295,/title/tt0103767/,,"Ta Proum, Cambodia",,,,
296,/title/tt0103767/,,"The Great Pyramids, Giza Plateau, Giza, Egypt",,,,
297,/title/tt0103767/,,"Tiwi Islands, Northern Territory, Australia",,"Tiwi Islands Region, Northern Territory, Australia",-11.5521995,130.9722454816863
298,/title/tt0103767/,,"Tomoe Shizune & Hakutobo, Suginami-ku, Tokyo, Japan",,,,
299,/title/tt0103767/,,"Tuol Sleng Museum, Cambodia",,"Tuol Sleng Genocide Museum, 13, ផ្លូវ ១១៣, សង្កាត់បឹងកេងកងទី ៣, ខណ្ឌបឹងកេងកង, រាជធានីភ្នំពេញ, 12304, Cambodia",11.549447149999999,104.91766618656071
300,/title/tt0103767/,,"Uluru/Ayers Rock, Uluru-Kata Tjuta National Park, Northern Territory, Australia",,,,
301,/title/tt0103767/,,"Varanasi, Uttar Pradesh, India",,"Varanasi, Vārānasi, Varanasi, Uttar Pradesh, 221007, India",25.3356491,83.0076292
302,/title/tt0103767/,,"Wat Arun, Bangkok Yai, Bangkok, Thailand",,"Wat Arun, 158, Thanon Wang Doem, วัดอรุณ, บางกอกใหญ่, แขวงวัดอรุณ, เขตบางกอกใหญ่, กรุงเทพมหานคร, 10600, ประเทศไทย",13.743913150000001,100.48848833622938
303,/title/tt0103767/,,"Western Wall, Old City, Jerusalem, Israel",,"הכותל המערבי, גשר המוגרבים, הרובע היהודי, העיר העתיקה, ירושלים, מחוז ירושלים, no, ישראל",31.776734949999998,35.23446114230339
304,/title/tt0103767/,,"Xi'an, Shaanxi, China",,"西安市, 未央区 (Weiyang), 陕西省, China 中国",34.3468421,108.9365887
305,/title/tt0103767/,,"Yellow Water, Kakadu National Park, Northern Territory, Australia",,,,
306,/title/tt9498102/,,"Revelstoke, British Columbia, Canada",,"Revelstoke, Columbia-Shuswap Regional District, British Columbia, Canada",50.998045,-118.1956709
307,/title/tt9498102/,,"Osoyos, British Columbia, Canada",,,,
308,/title/tt4044364/,,"Berlin, Germany",,"Berlin, 10117, Deutschland",52.5170365,13.3888599
309,/title/tt4044364/,,"London, England, UK",,"London, Greater London, England, United Kingdom",51.5073219,-0.1276474
310,/title/tt4044364/,,USA,,United States,39.7837304,-100.4458825
311,/title/tt4044364/,,"Hong Kong, China",,"香港島 Hong Kong Island, 香港 Hong Kong, China 中国",22.2793278,114.1628131
312,/title/tt4044364/,,Russia,,Россия,64.6863136,97.7453061
313,/title/tt4044364/,,Brazil,,Brasil,-10.3333333,-53.2
314,/title/tt4044364/,,UK,,United Kingdom,54.7023545,-3.2765753
315,/title/tt4044364/,,"Mira Hotel, Kowloon, Hong Kong, China",,,,
316,/title/tt1291547/,,"Animal Acres - 5200 Escondido Canyon Road, Acton, California, USA",,,,
317,/title/tt1291547/,,"Las Vegas, Nevada, USA",,"Las Vegas, Clark County, Nevada, United States of America",36.1672559,-115.1485163
318,/title/tt1291547/,,"Berkeley, California, USA",,"Berkeley, Alameda County, California, United States of America",37.8708393,-122.2728639
319,/title/tt1291547/,,"Marina del Rey, California, USA",,"Marina del Rey, Los Angeles County, California, 90292, United States of America",33.9776848,-118.4486479
320,/title/tt1291547/,,"Northridge, Los Angeles, California, USA",(Los Angeles),"Northridge, Los Angeles, Los Angeles County, California, 91324, United States of America",34.2345615,-118.5369316
321,/title/tt1291547/,,"St. George, Utah, USA",,"St. George, Washington County, Utah, United States of America",37.104153,-113.5841313
322,/title/tt1291547/,,"Treasure Island, San Francisco Bay, California, USA",,"Treasure Island, San Francisco, San Francisco City and County, California, 94130, United States of America",37.8233541,-122.37015310228705
323,/title/tt1291547/,,"Los Angeles, California, USA",,"Los Angeles, Los Angeles County, California, United States of America",34.0536909,-118.2427666
324,/title/tt1291547/,,"West Hollywood, California, USA",,"West Hollywood, Los Angeles County, California, United States of America",34.0923014,-118.3692894
325,/title/tt11464016/,,Spain,,España,39.3262345,-4.8380649
326,/title/tt0399877/,,"Hillsboro, Oregon, USA",,"Hillsboro, Washington County, Oregon, United States of America",45.5228939,-122.989827
327,/title/tt0399877/,,"St. Patrick's Catholic Church, Portland, Oregon, USA",(Polish wedding),,,
328,/title/tt0399877/,,"University of Washington, Seattle, Washington, USA",(interview),"University of Washington, 12th Avenue Northeast, Portage Bay, University District, Seattle, King County, Washington, 98195, United States of America",47.6543238,-122.30800894320257
329,/title/tt8969332/,,"Ventura County, California, USA",,"Ventura County, California, United States of America",34.4458248,-119.0779359
330,/title/tt0123338/,,"West 57th Street, Manhattan, New York City, New York, USA",(studio),"West 57th Street, Hell's Kitchen, Manhattan Community Board 4, Manhattan, New York County, New York, 10019, United States of America",40.7714466,-73.9940769
331,/title/tt6508926/,,"Poland Spring, Maine, USA",,"Poland Spring, Poland, Androscoggin County, Maine, 04230, United States of America",44.075133,-70.4162989
332,/title/tt0390521/,,"Chicago, Illinois, USA",,"Chicago, Cook County, Illinois, United States of America",41.8755616,-87.6244212
333,/title/tt0390521/,,"Naperville High School, Naperville, Illinois, USA",,"Naperville, North Center Street, Naperville, DuPage County, Illinois, 60540, United States of America",41.7797704,-88.1460471
334,/title/tt0390521/,,"Beckley, West Virginia, USA",,"Beckley, Raleigh County, West Virginia, 25801, United States of America",37.7781702,-81.1881557
335,/title/tt0390521/,,"Chinatown, Manhattan, New York City, New York, USA",,"Chinatown, Manhattan Community Board 2, Manhattan, New York County, New York, United States of America",40.7164913,-73.9962504
336,/title/tt0390521/,,"Los Angeles, California, USA",,"Los Angeles, Los Angeles County, California, United States of America",34.0536909,-118.2427666
337,/title/tt0390521/,,"Manhattan, New York City, New York, USA",,"Manhattan, New York County, New York, United States of America",40.7896239,-73.9598939
338,/title/tt0390521/,,"McDonalds, 3rd Avenue & 8th Street, New York City, New York, USA",,,,
339,/title/tt0390521/,,"Mercer Street Medical, Mercer Street, New York City, New York, USA",,,,
340,/title/tt0390521/,,"New York University, Greenwich Village, Manhattan, New York City, New York, USA",,"New York University, Schwartz Plaza, Greenwich Village, Manhattan Community Board 2, Manhattan, New York County, New York, 10012, United States of America",40.72925325,-73.99625393609625
341,/title/tt0390521/,,"Seattle, Washington, USA",,"Seattle, King County, Washington, United States of America",47.6038321,-122.3300624
342,/title/tt0390521/,,"West Virginia, USA",,"West Virginia, United States of America",38.4758406,-80.8408415
343,/title/tt0013257/,,"Hellerup Studios, Hellerup, Sjælland, Denmark",(studio),,,
344,/title/tt8632862/,,"West Virginia, USA",(Teacher Strike),"West Virginia, United States of America",38.4758406,-80.8408415
345,/title/tt8632862/,,USA,,United States,39.7837304,-100.4458825
346,/title/tt1933854/,,"Belgravia, London, England, UK",,"Belgravia, City of Westminster, London, Greater London, England, SW1X 8QA, United Kingdom",51.4982128,-0.1534998
347,/title/tt2390276/,,"Hope, British Columbia, Canada",,"Hope, British Columbia, Canada",49.3799438,-121.4413515
348,/title/tt8300324/,,"Florida, USA",,"Florida, United States of America",27.7567667,-81.4639835
349,/title/tt0493430/,,"New Orleans, Louisiana, USA",,"New Orleans, Orleans Parish, Louisiana, United States of America",29.9499323,-90.0701156
350,/title/tt0493430/,,"West Chester, Pennsylvania, USA",,"West Chester, Chester County, Pennsylvania, 19383, United States of America",39.9597213,-75.6059638
351,/title/tt0493430/,,"Los Angeles, California, USA",,"Los Angeles, Los Angeles County, California, United States of America",34.0536909,-118.2427666
352,/title/tt0493430/,,"Miami, Florida, USA",,"Miami, Miami-Dade County, Florida, United States of America",25.7742658,-80.1936589
353,/title/tt1584813/,,"Paris, France",,"Paris, Île-de-France, France métropolitaine, 75004, France",48.8566969,2.3514616
354,/title/tt1584813/,,"Rovaniemi, Finland",,"Rovaniemi, Rovaniemen seutukunta, Lappi, Manner-Suomi, Suomi",66.4976214,25.7192101
355,/title/tt0102015/,,Philippines,,Philippines,12.7503486,122.7312101
356,/title/tt12681044/,,"Bellbrook, Ohio, USA",(Site of SELECTION Class 020),"Bellbrook, Greene County, Ohio, 45305, United States of America",39.6358399,-84.0701766
357,/title/tt6322264/,,Mexico,(El Hongo prison),"Ciudad de México, 06060, México",19.4326296,-99.1331785
358,/title/tt6322264/,,"Piotrków Trybunalski, Lódzkie, Poland",(prison),"Piotrków Trybunalski, województwo łódzkie, 97-300, Polska",51.412841400000005,19.688801329018943
359,/title/tt8363914/,,"Buckhead Theatre, 3110 Roswell Rd NE, Atlanta, Georgia, USA",,"The Buckhead Theatre, 3110, Roswell Road, Buckhead, Atlanta, Georgia, 30305, United States of America",33.840379150000004,-84.37991331584703
360,/title/tt5807292/,,UK,,United Kingdom,54.7023545,-3.2765753
361,/title/tt2545118/,,"Puget Sound, Washington, USA",(location),"Puget Sound, Admiral Way, Edmonds, Snohomish County, Washington, 98020, United States of America",47.8331514,-122.4345806
362,/title/tt1966604/,,"Phoenix, Arizona, USA",,"Phoenix, Maricopa County, Arizona, United States of America",33.4484367,-112.0741417
363,/title/tt0310793/,,"Flint, Michigan, USA",,"Flint, Genesee County, Michigan, United States of America",43.0161693,-83.6900211
364,/title/tt0310793/,,"Auburn Hills, Michigan, USA",,"Auburn Hills, Oakland County, Michigan, United States of America",42.6875323,-83.2341028
365,/title/tt0310793/,,"Burbank, California, USA",,"Burbank, Los Angeles County, California, United States of America",34.1816482,-118.3258554
366,/title/tt0310793/,,"Decker, Michigan, USA",,"Decker, Lamotte Township, Sanilac County, Michigan, 48426, United States of America",43.4589093,-83.0507754
367,/title/tt0310793/,,"Fenton, Michigan, USA",,"Fenton, Genesee County, Michigan, 48430, United States of America",42.7978061,-83.7049498
368,/title/tt0310793/,,"Los Angeles, California, USA",,"Los Angeles, Los Angeles County, California, United States of America",34.0536909,-118.2427666
369,/title/tt0310793/,,"New York City, New York, USA",,"New York, United States of America",40.7127281,-74.0060152
370,/title/tt0310793/,,"Sarnia, Ontario, Canada",,"Sarnia, Lambton County, Southwestern Ontario, Ontario, Canada",42.9746137,-82.4065585
371,/title/tt2125608/,,"Cape Town, South Africa",,"Cape Town, City of Cape Town, Western Cape, 8001, South Africa",-33.928992,18.417396
372,/title/tt2125608/,,"Detroit Institute of Arts Museum, Detroit, Michigan, USA",,"Detroit Institute of Arts, 5200, Woodward Avenue, Midtown, Detroit, Wayne County, Michigan, 48202, United States of America",42.3595105,-83.06452586249985
373,/title/tt2125608/,,South Africa,,South Africa,-28.8166236,24.991639
374,/title/tt2125608/,,"Mabu Vinyl Music Store - 2 Rheede St, Cape Town, South Africa",,,,
375,/title/tt2125608/,,"Hollywood, Los Angeles, California, USA",,"Hollywood, Los Angeles, Los Angeles County, California, 90028-8127, United States of America",34.0980031,-118.329523
376,/title/tt0361596/,,"Chicago, Illinois, USA",,"Chicago, Cook County, Illinois, United States of America",41.8755616,-87.6244212
377,/title/tt0361596/,,"Flint, Michigan, USA",,"Flint, Genesee County, Michigan, United States of America",43.0161693,-83.6900211
378,/title/tt0361596/,,"Kentucky, USA",,"Kentucky, United States of America",37.5726028,-85.1551411
379,/title/tt0361596/,,"Walter Reed Army Medical Center - 6900 Georgia Avenue NW, Washington, District of Columbia, USA",,,,
380,/title/tt3674140/,,"Aimorés, Minas Gerais, Brazil","(Salgado's hometown, Instituto Terra)","Aimorés, Microrregião Aimorés, Região Geográfica Intermediária de Governador Valadares, Minas Gerais, Região Sudeste, Brasil",-19.4917754,-41.0615603
381,/title/tt3674140/,,"Pará, Brazil",(Zo'é tribe),"Pará, Região Norte, Brasil",-4.7493933,-52.8973006
382,/title/tt3674140/,,Brazil,,Brasil,-10.3333333,-53.2
383,/title/tt3674140/,,Indonesia,,Indonesia,-2.4833826,117.8902853
384,/title/tt0421099/,,"Hereford, Herefordshire, England, UK",,"Hereford, Herefordshire, England, HR1 2NB, United Kingdom",52.0553813,-2.7151735
385,/title/tt11536510/,,Canada,(First country of my trip),Canada,61.0666922,-107.9917071
386,/title/tt11536510/,,South Korea,(Third country of my trip),대한민국,36.638392,127.6961188
387,/title/tt11536510/,,Cambodia,(Fifth country of my trip),ព្រះរាជាណាចក្រ​កម្ពុជា,13.5066394,104.869423
388,/title/tt11536510/,,Sri Lanka,(Seventh country of my trip),ශ්‍රී ලංකාව இலங்கை,7.5554942,80.7137847
389,/title/tt0218043/,,"Anaheim, California, USA",,"Anaheim, Orange County, California, United States of America",33.8347516,-117.911732
390,/title/tt0218043/,,"WWF Headquarters, Stamford, Connecticut, USA",,,,
391,/title/tt0218043/,,"Arco Arena - One Sports Parkway, Sacramento, California, USA",,,,
392,/title/tt0218043/,,"Hayward, California, USA",,"Hayward, Alameda County, California, United States of America",37.6688205,-122.0807964
393,/title/tt0218043/,,"Long Island, New York, USA",,"Long Island, Suffolk County, New York, United States of America",40.85172235,-73.09921882199973
394,/title/tt0218043/,,"Orlando, Florida, USA",,"Orlando, Orange County, Florida, United States of America",28.5421109,-81.3790304
395,/title/tt0218043/,,"Sacramento, California, USA",,"Sacramento, Sacramento County, California, United States of America",38.5815719,-121.4943996
396,/title/tt3260524/,,"St. Charles, Illinois, USA",,"St. Charles, Kane County, Illinois, 60174, United States of America",41.9139509,-88.31253
397,/title/tt3260524/,,"Edmonton, Alberta, Canada",,"Edmonton, Alberta, Canada",53.535411,-113.507996
398,/title/tt3260524/,,"Moose Jaw, Saskatchewan, Canada",,"Moose Jaw, Census Division No. 7, Saskatchewan, Canada",50.401515,-105.542908
399,/title/tt3260524/,,"Lafleche, Saskatchewan, Canada",,"Lafleche, Census Divsion No. 3, Saskatchewan, S0H 2K0, Canada",49.7036348,-106.5747404
400,/title/tt3260524/,,"N 3rd Ave & Chestnut Ave, St. Charles, Illinois, USA",(Pat and Terry's home--southwest corner),,,
401,/title/tt11656800/,,"Chateau de Versailles, Versailles, Yvelines, France",(Palace of Versailles),"Château de Versailles, Cour du Dauphin, Notre-Dame, Versailles, Yvelines, Île-de-France, France métropolitaine, 78000, France",48.804425249999994,2.120285270992599
402,/title/tt0108961/,,"Burslem, Stoke-on-Trent, Staffordshire, England, UK",,,,
403,/title/tt0108961/,,"11 Tranmere Grove, Ipswich, Suffolk, England, UK",,"Tranmere Grove, Castle Hill, Ipswich, Suffolk, East of England, England, IP1 6DT, United Kingdom",52.0770317,1.1318204
404,/title/tt0108961/,,"14 Chesterfield Drive, Ipswich, Suffolk, England, UK",,"Chesterfield Drive, Castle Hill, Ipswich, Suffolk, East of England, England, IP1 6DW, United Kingdom",52.0763285,1.1312091
405,/title/tt0108961/,,"18 Chesterfield Drive, Ipswich, Suffolk, England, UK",,"Chesterfield Drive, Castle Hill, Ipswich, Suffolk, East of England, England, IP1 6DW, United Kingdom",52.0763285,1.1312091
406,/title/tt0108961/,,"7 Tranmere Grove, Ipswich, Suffolk, England, UK",,"Tranmere Grove, Castle Hill, Ipswich, Suffolk, East of England, England, IP1 6DT, United Kingdom",52.0770317,1.1318204
407,/title/tt0108961/,,"Ancaster, Lincolnshire, England, UK",,"Ancaster, Lincolnshire, East Midlands, England, NG32 3QL, United Kingdom",52.9857374,-0.5345307
408,/title/tt0108961/,,"Aston Eyre, Gloucestershire, England, UK",,,,
409,/title/tt0108961/,,"Basing House, Hampshire, England, UK",,"Basing House, The Street, Little Basing, Old Basing and Lychpit, Basingstoke and Deane, Hampshire, South East, England, RG24 7BH, United Kingdom",51.2697937,-1.0522522
410,/title/tt0108961/,,"Bawsey, Norfolk, England, UK",,"Bawsey, King's Lynn and West Norfolk, Norfolk, East of England, England, United Kingdom",52.750503,0.489251
411,/title/tt0108961/,,"Birdoswald, Cumbria, England, UK",,"Birdoswald Roman Fort, Newby Bridge > A69 Public Footpath, Upper Denton, Corby Hill, Carlisle, Cumbria, North East England, England, CA8 2LX, United Kingdom",54.98963145,-2.6024958809107974
412,/title/tt0108961/,,"Blaenavon, Torfaen, Gwent, Wales, UK",,,,
413,/title/tt0108961/,,"Boleigh, Cornwall, England, UK",,"Boleigh, St. Buryan, Lamorna, Cornwall, South West England, England, TR19 6, United Kingdom",50.0687461,-5.5837328783694575
414,/title/tt0108961/,,"Bursledon, Hampshire, England, UK",,"Bursledon, Eastleigh, Hampshire, South East, England, United Kingdom",50.887926199999995,-1.313562851029953
415,/title/tt0108961/,,"Castle Hill, Ipswich, Suffolk, England, UK",,"Castle Hill, Ipswich, Suffolk, East of England, England, IP1 6BT, United Kingdom",52.0779758,1.1376194
416,/title/tt0108961/,,"Castleford, West Yorkshire, England, UK",,"Castleford, Powell Street, Wakefield, West Yorkshire, Yorkshire and the Humber, England, WF10 1DX, United Kingdom",53.7240751,-1.3551009
417,/title/tt0108961/,,"Cheshunt, Hertfordshire, England, UK",,"Cheshunt, Broxbourne, Hertfordshire, East of England, England, EN8 9BW, United Kingdom",51.702052,-0.0335908
418,/title/tt0108961/,,"Cirencester, Gloucestershire, England, UK",,"Cirencester, Gloucestershire, South West England, England, GL7, United Kingdom",51.717131,-1.9680873
419,/title/tt0108961/,,"Dénia, Alicante, Comunitat Valenciana, Spain",,"Dénia, la Marina Alta, Alacant / Alicante, Comunitat Valenciana, España",38.8408382,0.1061105
420,/title/tt0108961/,,"Downpatrick, County Down, Northern Ireland, UK",,"Downpatrick, County Down, Northern Ireland, BT30 6EU, United Kingdom",54.3279335,-5.71649
421,/title/tt0108961/,,"Ely Cathedral, Chapter House, The College, Ely, Cambridgeshire, England, UK",,,,
422,/title/tt0108961/,,"Finlaggan, Islay, Argyll and Bute, Scotland, UK",,,,
423,/title/tt0108961/,,"Govan, Glasgow, Strathclyde, Scotland, UK",,,,
424,/title/tt0108961/,,"Greenwich, London, England, UK",,"Greenwich, Greater London, England, SE10 9HF, United Kingdom",51.4820845,-0.0045417
425,/title/tt0108961/,,"Hartlepool, County Durham, England, UK",,"Hartlepool, North East England, England, TS24 7EQ, United Kingdom",54.6857276,-1.2093696
426,/title/tt0108961/,,"High Ercall, Shropshire, England, UK",,"Child's Ercall, Shropshire, West Midlands, England, United Kingdom",52.81550875,-2.4912595677778224
427,/title/tt0108961/,,"Hylton, Sunderland, Tyne & Wear, England, UK",,"Hylton Castle, Washington Road, Hylton Red House Estate, Sunderland, Tyne and Wear, North East England, England, SR5 3JB, United Kingdom",54.92253705,-1.4432598675575634
428,/title/tt0108961/,,"Ironbridge, Shropshire, England, UK",,"Ironbridge Power Station, Buildwas, Broseley, Shropshire, West Midlands, England, TF8 7BL, United Kingdom",52.63267235,-2.514028910072887
429,/title/tt0108961/,,"Kinlochbervie, Highland, Scotland, UK",,"Kinlochbervie, Sutherland, Scotland, IV27 4RY, United Kingdom",58.4589947,-5.0503871
430,/title/tt0108961/,,"Launceston, Cornwall, England, UK",,"Launceston, Cornwall, South West England, England, PL15 8AA, United Kingdom",50.6365062,-4.3604432
431,/title/tt0108961/,,"Leven, Fife, Scotland, UK",,"Leven, Fife, Scotland, KY8 4NQ, United Kingdom",56.1954351,-2.99692
432,/title/tt0108961/,,"Llangorse, Powys, Wales, UK",,"Llangorse, Powys, Cymru / Wales, LD3 7UD, United Kingdom",51.9409267,-3.2582463
433,/title/tt0108961/,,"Mallorca, Balearic Islands, Spain",,"Mallorca, Sencelles, Pla de Mallorca, Illes Balears, España",39.6134018,2.8804305326400756
434,/title/tt0108961/,,"Maryland, USA",,"Maryland, United States of America",39.5162234,-76.9382069
435,/title/tt0108961/,,"Mine Howe, Orkney, Scotland, UK",,,,
436,/title/tt0108961/,,"Much Wenlock, Shropshire, England, UK",,"Much Wenlock, Shropshire, West Midlands, England, TF13 6BT, United Kingdom",52.5957012,-2.5582016
437,/title/tt0108961/,,"Navan, County Armagh, Northern Ireland, UK",,"Navan, Armagh, County Armagh, Northern Ireland, United Kingdom",54.3492514,-6.69589068044783
438,/title/tt0108961/,,"Normanton, Lincolnshire, England, UK",,"Normanton, Lincolnshire, East Midlands, England, United Kingdom",53.00641985,-0.5861116787942073
439,/title/tt0108961/,,"Papcastle, Cumbria, England, UK",,"Papcastle, Allerdale, Cumbria, North West England, England, CA13 0JZ, United Kingdom",54.6697137,-3.3808596
440,/title/tt0108961/,,"Peak District, Derbyshire, England, UK",,"Peak District National Park, Hazlebadge CP, Derbyshire Dales, Derbyshire, East Midlands, England, United Kingdom",53.315827350000006,-1.7270339677790583
441,/title/tt0108961/,,"Raunds, Northamptonshire, England, UK",,"Raunds, Northamptonshire, East Midlands, England, NN9 6NG, United Kingdom",52.3422233,-0.5344753
442,/title/tt0108961/,,"Ribchester, Lancashire, England, UK",,"Ribchester, Lancashire, North West England, England, PR3 3ZR, United Kingdom",53.8121041,-2.536348
443,/title/tt0108961/,,"Rycote Chapel, Thame, Oxfordshire, England, UK",,"Rycote Lane, Thame, South Oxfordshire, Oxfordshire, South East, England, OX9 2FY, United Kingdom",51.7449366,-0.9983696
444,/title/tt0108961/,,"Sanday, Orkney, Scotland, UK",,"Sanday, Orkney Islands, Scotland, United Kingdom",59.24840415,-2.582431851851428
445,/title/tt0108961/,,"Sedgefield, County Durham, England, UK",,"Sedgefield, County Durham, North East England, England, TS21 2BX, United Kingdom",54.6538278,-1.4538006
446,/title/tt0108961/,,"Smallhythe, Kent, England, UK",,"Smallhythe Place, Small Hythe Road, Tenterden, Ashford, Kent, South East, England, TN30 7NF, United Kingdom",51.03813055,0.6993326268958361
447,/title/tt0108961/,,"Stanton Harcourt, Oxfordshire, England, UK",,"Stanton Harcourt, Oxfordshire, South East, England, OX29 5TD, United Kingdom",51.7479629,-1.4039487
448,/title/tt0108961/,,"Syndale, Kent, England, UK",,"Syndale Bottom, Swale, Kent, South East, England, ME13 0RJ, United Kingdom",51.3125373,0.8535764
449,/title/tt0108961/,,"Teignmouth, Devon, England, UK",,"Teignmouth, Teignbridge, Devon, South West England, England, TQ14 8AJ, United Kingdom",50.5462805,-3.4958207
450,/title/tt0108961/,,"Thetford, Norfolk, England, UK",,"Thetford, Breckland, Norfolk, East of England, England, United Kingdom",52.42931905,0.7239059303289652
451,/title/tt0108961/,,"Tintagel, Cornwall, England, UK",,"Tintagel, Cornwall, South West England, England, PL34 0DP, United Kingdom",50.6642063,-4.7526181
452,/title/tt0108961/,,"Turkdean, Gloucestershire, England, UK",,"Turkdean, Cotswold, Gloucestershire, South West England, England, GL54 3NP, United Kingdom",51.856573,-1.8458473
453,/title/tt0108961/,,"Waddon, Dorset, England, UK",,"Waddon, Portesham, Dorset, South West England, England, DT3 4ER, United Kingdom",50.6701367,-2.5381521
454,/title/tt0108961/,,"Winchester, Hampshire, England, UK",,"Winchester, Hampshire, South East, England, United Kingdom",51.0612766,-1.3131692
455,/title/tt0108961/,,"Wittenham, Oxfordshire, England, UK",,"Long Wittenham, Oxfordshire, South East, England, OX14 4QH, United Kingdom",51.641101,-1.2097904
456,/title/tt0108961/,,"York, North Yorkshire, England, UK",,"York, Yorkshire and the Humber, England, YO1 8SG, United Kingdom",53.9590555,-1.0815361
457,/title/tt8258074/,,"Vancouver, British Columbia, Canada",,"Vancouver, Metro Vancouver Regional District, British Columbia, Canada",49.2608724,-123.1139529
458,/title/tt8258074/,,"Washington State University, Pullman, Washington, USA",,"Washington State University, Northeast Lake Street, Pullman, Whitman County, Washington, 99164, United States of America",46.73357155,-117.1452758931733
459,/title/tt8258074/,,"Telluride, Colorado, USA",,"Telluride, San Miguel County, Colorado, United States of America",37.9374939,-107.8122852
460,/title/tt8258074/,,"Oakdale, California, USA",,"Oakdale, Stanislaus County, California, United States of America",37.7564046,-120.79928025678466
461,/title/tt8258074/,,"New York City, New York, USA",,"New York, United States of America",40.7127281,-74.0060152
462,/title/tt8904630/,,"Washington, District of Columbia, USA",,"Washington, District of Columbia, 20230, United States of America",38.8949924,-77.0365581
463,/title/tt8904630/,,"San Francisco, California, USA",,"San Francisco, San Francisco City and County, California, United States of America",37.7790262,-122.4199061
464,/title/tt0379557/,,"Chamonix, Haute-Savoie, France",,"Chamonix-Mont-Blanc, Bonneville, Haute-Savoie, Auvergne-Rhône-Alpes, France métropolitaine, 74400, France",45.9246705,6.8727506
465,/title/tt0379557/,,Peru,,Perú,-6.8699697,-75.0458515
466,/title/tt0379557/,,Switzerland,,Schweiz/Suisse/Svizzera/Svizra,46.7985624,8.2319736
467,/title/tt3511124/,,Peru,,Perú,-6.8699697,-75.0458515
468,/title/tt10793982/,,Iran,,ایران,32.6475314,54.5643516
469,/title/tt0025913/,,"Reichsparteitag-Gelände, Nuremberg, Bavaria, Germany",,,,
470,/title/tt11394200/,,"Chechnya, Russia",,"Чечня, Северо-Кавказский федеральный округ, Россия",43.3976147,45.6985005
471,/title/tt0076578/,,"Gold's Gym - 360 Hampton Drive, Venice, Los Angeles, California, USA",,,,
472,/title/tt0076578/,,"Terminal Island, Wilmington, Los Angeles, California, USA",,,,
473,/title/tt0076578/,,"Sardinia, Italy",(on location),"Sardegna, Austis, Nuoro, Sardegna, 08030, Italia",40.06160405,9.097753806553065
474,/title/tt0076578/,,"New York City, New York, USA",,"New York, United States of America",40.7127281,-74.0060152
475,/title/tt10524262/,,"Santa Fe, New Mexico, USA",(location),"Santa Fe, Santa Fe County, New Mexico, United States of America",35.6869996,-105.9377997
476,/title/tt10524262/,,"Lima, Ohio, USA",(location),"Lima, Allen County, Ohio, United States of America",40.7399785,-84.105006
477,/title/tt0019760/,,"Kharkov, Ukraine",,"Харків, Шевченківський район, Харківська міська рада, Харківська область, Україна",49.9902794,36.2303893
478,/title/tt0019760/,,"Moscow, Russia",,"Москва, Центральный административный округ, Москва, Центральный федеральный округ, Россия",55.7504461,37.6174943
479,/title/tt9573980/,,"Simi Valley, California, USA",,"Simi Valley, Ventura County, California, United States of America",34.2694474,-118.781482
480,/title/tt0206501/,,"Sumatra, Indonesia","(episode ""Wave that Shook the World"")","Sumatra, Kecamatan Langgam, Kabupaten Pelalawan, Riau, Indonesia",-0.142924,101.62414321577288
481,/title/tt0206501/,,"Kamala Beach, Thailand","(episode ""Wave that Shook the World"")","Kamala Beach, Rim Hat Road, กมลา, ภูเก็ต, จังหวัดภูเก็ต, 83120, ประเทศไทย",7.9580664,98.28326722396648
482,/title/tt0206501/,,"Pacific Tsunami Warning Center - 91-270 Fort Weaver Road, Ewa Beach, O'ahu, Hawaii, USA","(episode ""Wave that Shook the World"")",,,
483,/title/tt0206501/,,"Surin Beach, Thailand","(episode ""Wave that Shook the World"")","Surin Beach, Soi Haddsurin 8, Surin, ภูเก็ต, จังหวัดภูเก็ต, ประเทศไทย",7.976264049999999,98.27834341744114
484,/title/tt9159144/,,"Pie in the Sky Studio, Toronto, Ontario, Canada",,,,
485,/title/tt0100332/,,"The Imperial Elks Lodge - 160 West 129th Street, Manhattan, New York City, New York, USA",,,,
486,/title/tt0996994/,,"Luverne, Minnesota, USA",,"Luverne, Rock County, Minnesota, 56156, United States of America",43.6542342,-96.2127811
487,/title/tt0996994/,,"Waterbury, Connecticut, USA",,"Waterbury, New Haven County, Connecticut, United States of America",41.5538091,-73.0438362
488,/title/tt9355194/,,"Park Avenue Armory, New York City, New York, USA",,"Park Avenue Armory, 643, Park Avenue, Carnegie Hill, Manhattan Community Board 8, Manhattan, New York County, New York, 10037, United States of America",40.76723335,-73.96550355223997
489,/title/tt7476236/,,"Denver, Colorado, USA",,"Denver, Denver County, Colorado, United States of America",39.7392364,-104.9848623
490,/title/tt12267100/,,"Arctic National Wildlife Refuge, Alaska, USA",,"Arctic National Wildlife Refuge, Alaska, 99747, United States of America",68.45635705000001,-143.61048251073333
491,/title/tt2092588/,,"South Pole, Antarctica",,,,
492,/title/tt2092588/,,Greenland,,Kalaallit Nunaat,77.6192349,-42.8125967
493,/title/tt2092588/,,Antarctica,,Antarctica,-79.4063075,0.3149312
494,/title/tt2092588/,,Southern Ocean,,Southern Ocean,-59.9999999,89.9999999
495,/title/tt2092588/,,"Mount Erebus, Antarctica",,,,
496,/title/tt2092588/,,"Beardmore Glacier, Antarctica",,,,
497,/title/tt2092588/,,"Ross Island, Antarctica",,,,
498,/title/tt2092588/,,"Extreme North, Russia",,"Экстрим, 34, улица Богдана Хмельницкого, Советский район, Астрахань, городской округ Астрахань, Астраханская область, Южный федеральный округ, 414000, Россия",46.3357758,48.0223268
499,/title/tt2092588/,,"Wood Buffalo National Park, Alberta, Canada",,"Wood Buffalo National Park, Alberta, Canada",59.37801665,-112.7332002619035
500,/title/tt2092588/,,"Siberia, Russia",,"Сибирь, Богучанский район, Красноярский край, Сибирский федеральный округ, Россия",60.0,100.0
501,/title/tt2092588/,,"Chukotka, Russia",,"Чукотский автономный округ, Дальневосточный федеральный округ, Россия",66.0006475,169.4900869
502,/title/tt2092588/,,"Alaska, USA",,"Alaska, United States of America",64.4459613,-149.680909
503,/title/tt2092588/,,"Amundsen-Scott South Pole Station, Antarctica",,,,
504,/title/tt2092588/,,"Barrow, Alaska, USA",,"Point Barrow, North Slope, Alaska, United States of America",71.387113,-156.4809618
505,/title/tt2092588/,,"Hay River, Northwest Territories, Canada",,"Hay River, Northwest Territories, X0E 0R8, Canada",60.8155874,-115.7866099
506,/title/tt8884430/,,"New York City, New York, USA",,"New York, United States of America",40.7127281,-74.0060152
507,/title/tt7178226/,,"Ghouta, Syria",,"الغوطة, جسرين, منطقة مرکز ريف دمشق, محافظة ريف دمشق, Sūriyya سوريا",33.5,36.3833333
508,/title/tt9577852/,,"Studio Instrumental Rentals, Manhattan, New York City, New York, USA",(location),,,
509,/title/tt9577852/,,"Providence, Rhode Island, USA",(location),"Providence, Providence County, Rhode Island, United States of America",41.8239891,-71.4128343
510,/title/tt9577852/,,"Clinton Correctional Facility, New Jersey, USA",(location),,,
511,/title/tt9577852/,,"High St & Winthrop St, Taunton, Massachusetts, USA",(Just before Jimmy Carter footage camera moves northeast towards Winthrop Street Baptist Church - steeple since removed),"Winthrop Street, Wades Corner, Taunton, Bristol County, Massachusetts, 02764, United States of America",41.882256,-71.153364
512,/title/tt9577852/,,"Plimouth Plantation - 137 Warren Avenue, Plymouth, Massachusetts, USA",(Man passes out leaflets in front of Mayflower II and Ginsberg talks about pilgrims/indians),"Plimouth Plantation, 137, Warren Avenue, Beach Park, Plymouth, Plymouth County, Massachusetts, 02360, United States of America",41.942602,-70.624432
513,/title/tt9577852/,,"Plymouth Memorial Hall - 83 Court St, Plymouth, Massachusetts, USA",(interview) (first concert; tickets being sold at a card table just before Sharon Stone interview),"Plymouth, 385, Court Street, Cordage, Plymouth, Plymouth County, Massachusetts, 02360-7310, United States of America",41.9812299,-70.6904474
514,/title/tt9577852/,,"Manhattan, New York City, New York, USA",,"Manhattan, New York County, New York, United States of America",40.7896239,-73.9598939
515,/title/tt9577852/,,"New York, USA",,"New York, United States of America",40.7127281,-74.0060152
516,/title/tt9577852/,,"Rhode Island, USA",,"Rhode Island, United States of America",41.7962409,-71.5992372
517,/title/tt9577852/,,"Taunton, Massachusetts, USA",,"Taunton, Bristol County, Massachusetts, United States of America",41.8946107,-71.11113
518,/title/tt9577852/,,"Newport, Rhode Island, USA",,"Newport, Newport County, Rhode Island, 02840, United States of America",41.4899827,-71.3137707
519,/title/tt9577852/,,Canada,,Canada,61.0666922,-107.9917071
520,/title/tt8999972/,,"Komati Springs, Mpumalanga, South Africa",(exterior and interior locations),,,
521,/title/tt1020109/,,Peru,,Perú,-6.8699697,-75.0458515
522,/title/tt1330065/,,Romania,,România,45.9852129,24.6859225
523,/title/tt1330065/,,UK,,United Kingdom,54.7023545,-3.2765753
524,/title/tt0094416/,,"Concord, Massachusetts, USA","(episode ""Patriots Day"")","Concord, Middlesex County, Massachusetts, 01742, United States of America",42.4605189,-71.3488963
525,/title/tt8351520/,,"Birmingham, England, UK",,"Birmingham, West Midlands Combined Authority, West Midlands, England, United Kingdom",52.4796992,-1.9026911
526,/title/tt8351520/,,"Dover, England, UK",,"Dover, Kent, South East, England, United Kingdom",51.1251275,1.3134228
527,/title/tt0109508/,,"New York City, New York, USA",,"New York, United States of America",40.7127281,-74.0060152
528,/title/tt0109508/,,"San Francisco, California, USA",,"San Francisco, San Francisco City and County, California, United States of America",37.7790262,-122.4199061
529,/title/tt5375040/,,Afghanistan,,افغانستان,33.7680065,66.2385139
530,/title/tt5375040/,,"Queens, New York City, New York, USA",,"Queens, Queens County, New York, United States of America",40.7498243,-73.7976337
531,/title/tt5375040/,,"Nodaway County, Alabama, USA",,,,
532,/title/tt6323306/,,"New York, USA",,"New York, United States of America",40.7127281,-74.0060152
533,/title/tt6323306/,,"Seattle, Washington, USA",,"Seattle, King County, Washington, United States of America",47.6038321,-122.3300624
534,/title/tt6323306/,,"Paris, France",,"Paris, Île-de-France, France métropolitaine, 75004, France",48.8566969,2.3514616
535,/title/tt0068837/,,"Shreveport, Louisiana, USA",,"Shreveport, Caddo Parish, Louisiana, United States of America",32.5221828,-93.7651944
536,/title/tt0068837/,,USA,,United States,39.7837304,-100.4458825
537,/title/tt8564902/,,Germany,,Deutschland,51.0834196,10.4234469
538,/title/tt3197274/,,"Los Angeles, California, USA",,"Los Angeles, Los Angeles County, California, United States of America",34.0536909,-118.2427666
539,/title/tt0077838/,,"Metro-Goldwyn-Mayer Studios - 10202 W. Washington Blvd., Culver City, California, USA",(location),,,
540,/title/tt8099236/,,"Buenos Aires, Federal District, Argentina",(interior and exterior locations),,,
541,/title/tt8099236/,,"Buenaventura, La Mancha, Spain",(interior and exterior locations),"Buenaventura, Sierra de San Vicente, Toledo, Castilla-La Mancha, 45634, España",40.1766024,-4.8498756
542,/title/tt8099236/,,"Pedro Bernardo, Avila, Spain",(exterior locations),"Pedro Bernardo, Ávila, Castilla y León, España",40.2439312,-4.9108472
543,/title/tt12292428/,,"Berkeley, California, USA","(University of California, Berkeley)","Berkeley, Alameda County, California, United States of America",37.8708393,-122.2728639
544,/title/tt12292428/,,"Burlington, Vermont, USA",(Population Media Center),"Burlington, Chittenden County, Vermont, United States of America",44.4762975,-73.2135472
545,/title/tt12292428/,,"St. Paul, Minnesota, USA",(University of Minnesota),"St. Paul, Ramsey County, Minnesota, United States of America",44.9504037,-93.1015026
546,/title/tt12292428/,,"Chicago, Illinois, USA",(Rush University Medical Center),"Chicago, Cook County, Illinois, United States of America",41.8755616,-87.6244212
547,/title/tt6600720/,,Germany,,Deutschland,51.0834196,10.4234469
548,/title/tt2870648/,,"London, England, UK",,"London, Greater London, England, United Kingdom",51.5073219,-0.1276474
549,/title/tt2515086/,,"New York City, New York, USA",,"New York, United States of America",40.7127281,-74.0060152
550,/title/tt2515086/,,"Paley Terrace, East Bowling, Bradford, West Yorkshire, England, UK",,"Paley Terrace, Bowling, Bradford, West Yorkshire, Yorkshire and the Humber, England, BD4 7HS, United Kingdom",53.7836151,-1.7362428
551,/title/tt2515086/,,"Baildon, Shipley, Bradford, West Yorkshire, England, UK",,"Baildon, Hoyle Court Avenue, Baildon, Bradford, West Yorkshire, Yorkshire and the Humber, England, BD17, United Kingdom",53.8501789,-1.7536925
552,/title/tt2515086/,,"Shipley, Bradford, West Yorkshire, England, UK",,"Shipley, Bradford, West Yorkshire, Yorkshire and the Humber, England, BD18 3RL, United Kingdom",53.8321814,-1.7779777
553,/title/tt2545428/,,"Jackson Hole, Wyoming, USA",,"Jackson Hole, Teton County, Wyoming, United States of America",43.684103,-110.44362483445289
554,/title/tt0493459/,,"Hollywood Hills, Los Angeles, California, USA",,"Hollywood Hills, Los Angeles, Los Angeles County, California, United States of America",34.1311792,-118.3355474
555,/title/tt0493459/,,"La Verne, California, USA",,"La Verne, Los Angeles County, California, 91750, United States of America",34.1008426,-117.7678355
556,/title/tt0493459/,,USA,,United States,39.7837304,-100.4458825
557,/title/tt1313104/,,"Tokyo, Japan",(location),"東京都, 日本 (Japan)",35.6828387,139.7594549
558,/title/tt11162304/,,"London, England, UK",,"London, Greater London, England, United Kingdom",51.5073219,-0.1276474
559,/title/tt11162304/,,"Madrid, Madrid, Spain",,"Madrid, Área metropolitana de Madrid y Corredor del Henares, Comunidad de Madrid, 28001, España",40.4167047,-3.7035825
560,/title/tt6611256/,,"Los Angeles, California, USA",,"Los Angeles, Los Angeles County, California, United States of America",34.0536909,-118.2427666
561,/title/tt6611256/,,"North Hollywood, California, USA",,"North Hollywood, Los Angeles, Los Angeles County, California, 91601-3121, United States of America",34.1729044,-118.3740371
562,/title/tt6611256/,,"Woodland Hills, Los Angeles, California, USA",,"Woodland Hills, Los Angeles, Los Angeles County, California, 91364, United States of America",34.1684364,-118.6058382
563,/title/tt7018574/,,"XMA World Headquarters - North Hollywood, Los Angeles, California, USA",,,,
564,/title/tt7018574/,,"Joining All Movement - Reseda, California, USA",,,,
565,/title/tt7018574/,,"Rick Seaman's Stunt Driving School - Chatsworth, California, USA",,,,
566,/title/tt7018574/,,USA,,United States,39.7837304,-100.4458825
567,/title/tt0342172/,,"Great Neck, Long Island, New York, USA",,"Great Neck, North Hempstead, Nassau County, New York, 11023, United States of America",40.8006567,-73.7284647
568,/title/tt0342172/,,"New York City, New York, USA",,"New York, United States of America",40.7127281,-74.0060152
569,/title/tt0342172/,,"Long Island, New York, USA",,"Long Island, Suffolk County, New York, United States of America",40.85172235,-73.09921882199973
570,/title/tt0342172/,,"New York, USA",,"New York, United States of America",40.7127281,-74.0060152
571,/title/tt1058058/,,"Manhattan, New York City, New York, USA",,"Manhattan, New York County, New York, United States of America",40.7896239,-73.9598939
572,/title/tt0110057/,,"University of Illinois, Champaign-Urbana, Illinois, USA",,,,
573,/title/tt0110057/,,"St. Joseph High School, 10900 West Cermak Road, Westchester, Illinois, USA",,,,
574,/title/tt0110057/,,"Chicago Stadium - 1800 W. Madison Street, Near West Side, Chicago, Illinois, USA",,,,
575,/title/tt0110057/,,"Jadwin Gymnasium, Princeton University, Princeton, New Jersey, USA",,,,
576,/title/tt0110057/,,"Westchester, Illinois, USA",,"Westchester, Proviso Township, Cook County, Illinois, 60154, United States of America",41.8505866,-87.8820048
577,/title/tt4257858/,,"California, USA",,"California, United States of America",36.7014631,-118.7559974
578,/title/tt11394188/,,"San Francisco, California, USA",,"San Francisco, San Francisco City and County, California, United States of America",37.7790262,-122.4199061
579,/title/tt5258388/,,"Los Angeles, California, USA",,"Los Angeles, Los Angeles County, California, United States of America",34.0536909,-118.2427666
580,/title/tt5258388/,,"Washington, District of Columbia, USA",,"Washington, District of Columbia, 20230, United States of America",38.8949924,-77.0365581
581,/title/tt5258388/,,"Dallas, Texas, USA",,"Dallas, Dallas County, Texas, United States of America",32.7762719,-96.7968559
582,/title/tt12606876/,,USA,(New York),United States,39.7837304,-100.4458825
583,/title/tt0963967/,,"Kuta Beach, Kuta, Badung, Bali, Indonesia",(Bondi Rescue Bali),"Kuta, Bali, JALAN BHINEKA JATI JAYA XI, Indonesia",-8.7278354,115.1730049
584,/title/tt5446858/,,"Moscow, Russia",,"Москва, Центральный административный округ, Москва, Центральный федеральный округ, Россия",55.7504461,37.6174943
585,/title/tt5446858/,,"Moscow International Business Center, Moscow, Russia",(skyscrapers),"Москва, Центральный административный округ, Москва, Центральный федеральный округ, Россия",55.7504461,37.6174943
586,/title/tt5446858/,,"Hamburg, Germany",,"Hamburg, Deutschland",53.5437641,10.0099133
587,/title/tt5446858/,,"Washington, District of Columbia, USA",,"Washington, District of Columbia, 20230, United States of America",38.8949924,-77.0365581
588,/title/tt0408409/,,"Redlands, California, USA",,"Redlands, San Bernardino County, California, United States of America",34.055735,-117.1888961
589,/title/tt1068912/,,"Alaska, USA",,"Alaska, United States of America",64.4459613,-149.680909
590,/title/tt1068912/,,"Yukon, Canada",,"Yukon, Canada",63.000147,-136.002502
591,/title/tt1068912/,,"BHP-Ekati, Northwest Territories, Canada",,,,
592,/title/tt1068912/,,"Deadhorse, Alaska, USA",,"Deadhorse, North Slope, Alaska, United States of America",70.2006973,-148.4598151
593,/title/tt1068912/,,"Fairbanks, Alaska, USA",,"Fairbanks, Fairbanks North Star, Alaska, United States of America",64.837845,-147.716675
594,/title/tt1068912/,,"Northwest Territories, Canada",,"Northwest Territories, Canada",65.0000004,-118.0
595,/title/tt1068912/,,"Yellowknife, Northwest Territories, Canada",,"Yellowknife, North Slave Region, Northwest Territories, Canada",62.4540807,-114.377385
596,/title/tt3892434/,,USA,,United States,39.7837304,-100.4458825
597,/title/tt0090015/,,"Chelmno nad Nerem, Wielkopolskie, Poland",,"Chełmno, gmina Dąbie, powiat kolski, województwo wielkopolskie, 62-660, Polska",52.1128131,18.7515947
598,/title/tt0090015/,,"Sobibór, Lubelskie, Poland",(woods near Sobibór Extermination Camp),"Sobibór, gmina Włodawa, powiat włodawski, województwo lubelskie, Polska",51.4727122,23.6435584
599,/title/tt0090015/,,Poland,,Polska,52.215933,19.134422
600,/title/tt0090015/,,"Berlin, Germany",,"Berlin, 10117, Deutschland",52.5170365,13.3888599
601,/title/tt0090015/,,"Frankfurt am Main, Hesse, Germany",,"Frankfurt am Main, Hessen, 60311, Deutschland",50.1106444,8.6820917
602,/title/tt0090015/,,"Grabów, Lódzkie, Poland",(village near Chelmno Extermination Camp),"Grabów, gmina Grabów, powiat łęczycki, województwo łódzkie, 99-150, Polska",52.12736,19.00855
603,/title/tt0090015/,,"Wlodawa, Lubelskie, Poland",(town near Sobibór Extermination Camp),"Włodawa, powiat włodawski, województwo lubelskie, 22-200, Polska",51.5466782,23.5540247
604,/title/tt0090015/,,"Kolo, Wielkopolskie, Poland",(town near Chelmno Extermination Camp),"Koło, powiat kolski, województwo wielkopolskie, Polska",52.2019866,18.6359912
605,/title/tt0090015/,,"Corfu, Greece",,"Κέρκυρα, Δήμος Κέρκυρας, Περιφερειακή Ενότητα Κέρκυρας, Περιφέρεια Ιονίων Νήσων, Αποκεντρωμένη Διοίκηση Πελοποννήσου, Δυτικής Ελλάδας και Ιονίου, 49100, Ελλάδα",39.591337,19.859618918733858
606,/title/tt0090015/,,"Washington, District of Columbia, USA",,"Washington, District of Columbia, 20230, United States of America",38.8949924,-77.0365581
607,/title/tt0090015/,,"Cincinnati, Ohio, USA",(interview) (interview with Paula Biren),"Cincinnati, Hamilton County, Ohio, United States of America",39.1014537,-84.5124602
608,/title/tt0090015/,,Switzerland,,Schweiz/Suisse/Svizzera/Svizra,46.7985624,8.2319736
609,/title/tt0090015/,,USA,,United States,39.7837304,-100.4458825
610,/title/tt0090015/,,"Oswiecim, Malopolskie, Poland",,"Oświęcim, powiat oświęcimski, województwo małopolskie, Polska",50.0382443,19.2214053
611,/title/tt0090015/,,"Lódz, Lódzkie, Poland",,"Łódź, województwo łódzkie, Polska",51.7687323,19.4569911
612,/title/tt0090015/,,"Sobibór Extermination Camp, Sobibór, Lubelskie, Poland",(memorial),"Były Niemiecki obóz zagłady Sobibór, Aleja Pamięci, Sobibór, gmina Włodawa, powiat włodawski, województwo lubelskie, Polska",51.44787085,23.59336616284009
613,/title/tt0090015/,,"Middle Bridge, Basel, Kanton Basel Stadt, Switzerland",(interview) (interview with Richard Glazar) (background),,,
614,/title/tt0090015/,,"Narew River, Podlaskie, Poland",,"Narew, Kruszewo, gmina Choroszcz, powiat białostocki, województwo podlaskie, Polska",53.1249097,22.812367
615,/title/tt0090015/,,"Ben Shemen Forest, Israel",,"יער בן-שמן, מועצה אזורית חבל מודיעין, נפת רמלה, מחוז המרכז, no, ישראל",31.935925750000003,34.95979125398883
616,/title/tt0090015/,,"Jerusalem, Israel",,"ירושלים, מחוז ירושלים, no, ישראל",31.778345,35.2250786
617,/title/tt0090015/,,"Braunau am Inn, Upper Austria, Austria",(interview) (interview with Franz Suchomel),"Braunau am Inn, Bezirk Braunau am Inn, Oberösterreich, 5280, Österreich",48.253136,13.039506
618,/title/tt0090015/,,"Warsaw, Mazowieckie, Poland",,"Warszawa, województwo mazowieckie, Polska",52.2319581,21.0067249
619,/title/tt0072962/,,"Orly Airport, Orly, Val-de-Marne, France",(Access highways.),"Hilton Garden Inn Paris Orly Airport, 4, Place des États-Unis, Parc ICADE Paris Orly-Rungis, Rungis, Arrondissement de L'Haÿ-les-Roses, Val-de-Marne, Île-de-France, France métropolitaine, 94150, France",48.748477050000005,2.35572229362018
620,/title/tt0072962/,,"Chartres, Eure-et-Loir, France","(Cathedral exteriors in misty air, and close-ups of the facade.)","Chartres, Eure-et-Loir, Centre-Val de Loire, France métropolitaine, 28000, France",48.4438601,1.4881434
621,/title/tt0072962/,,"Toussaint, Haute Normandie, Seine Maritime, France",,,,
622,/title/tt1155592/,,France,,France,46.603354,1.8883335
623,/title/tt1155592/,,USA,,United States,39.7837304,-100.4458825
624,/title/tt1155592/,,"Paris, France",,"Paris, Île-de-France, France métropolitaine, 75004, France",48.8566969,2.3514616
625,/title/tt1155592/,,"New York City, New York, USA",,"New York, United States of America",40.7127281,-74.0060152
626,/title/tt1155592/,,"Sydney Opera House - 2 Macquarie Street, Sydney, New South Wales, Australia",(archive footage),"Sydney Opera House, 2, Macquarie Street, Sydney, Council of the City of Sydney, New South Wales, 2000, Australia",-33.85719805,151.21512338473752
627,/title/tt8923482/,,"Utah, USA",,"Utah, United States of America",39.4225192,-111.7143584
628,/title/tt0063477/,,"Manhattan, New York City, New York, USA",,"Manhattan, New York County, New York, United States of America",40.7896239,-73.9598939
629,/title/tt0063477/,,"New York, USA",,"New York, United States of America",40.7127281,-74.0060152
630,/title/tt0063477/,,"Pennsylvania Station, New York City, New York, USA",(Final public scene),"Pennsylvania Station, 234, West 31st Street, Chelsea, Manhattan Community Board 5, Manhattan, New York County, New York, 10001, United States of America",40.7502382,-73.9928111
631,/title/tt10011296/,,"Tierra Del Fuego, Archipiélago de Tierra del Fuego",,,,
632,/title/tt10011296/,,Australia,(Star Wars Prop Fighter),Australia,-24.7761086,134.755
633,/title/tt0815241/,,"'s-Gravenhage, Zuid-Holland, Netherlands",,"Den Haag, Zuid-Holland, Nederland",52.0799838,4.3113461
634,/title/tt0815241/,,"Charlotte, North Carolina, USA","(Truckers Chapel; incorrectly identified as Raleigh, NC in the film)","Charlotte, Mecklenburg County, North Carolina, United States of America",35.2272,-80.843083
635,/title/tt0815241/,,"Grand Central Station, Manhattan, New York City, New York, USA",,"Grand Central Terminal, 89, East 42nd Street, Midtown East, Manhattan Community Board 5, Manhattan, New York County, New York, 10017, United States of America",40.752701200000004,-73.97724987363358
636,/title/tt0815241/,,"Jefferson Memorial - 900 Ohio Drive SW, Washington, District of Columbia, USA",,"Jefferson Memorial, Ohio Drive Southwest, Southwest, Washington, District of Columbia, 20227, United States of America",38.881406299999995,-77.03655117790537
637,/title/tt0815241/,,"Megiddo, Israel",,"מגידו, נפת יזרעאל, מחוז הצפון, ישראל",32.5786915,35.1806937
638,/title/tt0815241/,,"Orlando, Florida, USA",,"Orlando, Orange County, Florida, United States of America",28.5421109,-81.3790304
639,/title/tt0815241/,,"Raleigh, North Carolina, USA",,"Raleigh, Wake County, North Carolina, United States of America",35.7803977,-78.6390989
640,/title/tt0815241/,,"San Fernando, California, USA",,"San Fernando, Los Angeles County, California, 91340, United States of America",34.28497,-118.437652
641,/title/tt0815241/,,"Salt Lake City, Utah, USA",,"Salt Lake City, Salt Lake County, Utah, United States of America",40.7596198,-111.8867975
642,/title/tt6574240/,,"New York City, New York, USA",(one location),"New York, United States of America",40.7127281,-74.0060152
643,/title/tt6574240/,,Bahamas,(one location),The Bahamas,24.7736546,-78.0000547
644,/title/tt6574240/,,"San Diego, California, USA",(one location),"San Diego, San Diego County, California, United States of America",32.7174209,-117.1627714
645,/title/tt6574240/,,"Miami Beach, Florida, USA",(some scenes),"Miami Beach, Miami-Dade County, Florida, United States of America",25.7929198,-80.1353006
646,/title/tt0078701/,,"Acton, Massachusetts, USA",,"Acton, Middlesex County, Massachusetts, United States of America",42.4850931,-71.43284
647,/title/tt0078701/,,"Belmont, Massachusetts, USA",,"Belmont, Middlesex County, Massachusetts, United States of America",42.3959296,-71.1786655
648,/title/tt0078701/,,"Boston, Massachusetts, USA",,"Boston, Suffolk County, Massachusetts, United States of America",42.3602534,-71.0582912
649,/title/tt0078701/,,"Brookline, Massachusetts, USA",,"Brookline, Norfolk County, Massachusetts, United States of America",42.3317642,-71.1211635
650,/title/tt0078701/,,"Charlestown, Massachusetts, USA",,"Charlestown, Boston, Suffolk County, Massachusetts, 02129, United States of America",42.3778749,-71.0619957
651,/title/tt0078701/,,"Dorchester, Boston, Massachusetts, USA",,"Dorchester, Boston, Suffolk County, Massachusetts, 02124, United States of America",42.2973205,-71.0744952
652,/title/tt0078701/,,"Key West, Florida Keys, Florida, USA",,,,
653,/title/tt0078701/,,"Lexington, Massachusetts, USA",,"Lexington, Middlesex County, Massachusetts, United States of America",42.4473175,-71.2245003
654,/title/tt0078701/,,"Manchester-by-the-Sea, Massachusetts, USA",,"Manchester-by-the-Sea, Essex County, Massachusetts, 01944, United States of America",42.577873,-70.7689354
655,/title/tt0078701/,,"Miami, Florida, USA",,"Miami, Miami-Dade County, Florida, United States of America",25.7742658,-80.1936589
656,/title/tt0078701/,,"Nantucket, Massachusetts, USA",,"Nantucket, Nantucket County, Massachusetts, United States of America",41.2851566,-70.0984222
657,/title/tt0078701/,,"New Orleans, Louisiana, USA",,"New Orleans, Orleans Parish, Louisiana, United States of America",29.9499323,-90.0701156
658,/title/tt0078701/,,"Phoenix, Arizona, USA",,"Phoenix, Maricopa County, Arizona, United States of America",33.4484367,-112.0741417
659,/title/tt0078701/,,"Salem, Massachusetts, USA",,"Salem, Essex County, Massachusetts, 01970, United States of America",42.5195292,-70.8967226
660,/title/tt0078701/,,"Santa Barbara, California, USA",,"Santa Barbara, Santa Barbara County, California, United States of America",34.4221319,-119.7026673
661,/title/tt0078701/,,"Savannah, Georgia, USA",,"Savannah, Chatham County, Georgia, United States of America",32.0809263,-81.0911768
662,/title/tt0078701/,,"Tucson, Arizona, USA",,"Tucson, Pima County, Arizona, United States of America",32.2228765,-110.9748477
663,/title/tt0078701/,,"Wayland, Massachusetts, USA",,"Wayland, Middlesex County, Massachusetts, 01778, United States of America",42.3632063,-71.3606721
664,/title/tt0078701/,,"Westwood, Massachusetts, USA",,"Westwood, Norfolk County, Massachusetts, 02090-1444, United States of America",42.2139873,-71.2244987
665,/title/tt0078701/,,"Woburn, Massachusetts, USA",,"Woburn, Middlesex County, Massachusetts, United States of America",42.4792618,-71.1522766
666,/title/tt9358044/,,"Salem, Massachusetts, USA",,"Salem, Essex County, Massachusetts, 01970, United States of America",42.5195292,-70.8967226
667,/title/tt9358044/,,"Tallahassee, Florida, USA",,"Tallahassee, Leon County, Florida, United States of America",30.4380832,-84.2809332
668,/title/tt9358044/,,"Jefferson City, Missouri, USA",,"Jefferson City, Cole County, Missouri, United States of America",38.577359,-92.1724265
669,/title/tt9358044/,,"New York City, New York, USA",,"New York, United States of America",40.7127281,-74.0060152
670,/title/tt9358044/,,"Santa Cruz, California, USA",,"Santa Cruz County, California, United States of America",37.050096,-121.9905908
671,/title/tt9358044/,,"Tucson, Arizona, USA",,"Tucson, Pima County, Arizona, United States of America",32.2228765,-110.9748477
672,/title/tt9358044/,,UK,,United Kingdom,54.7023545,-3.2765753
673,/title/tt9358044/,,"Seattle , Washington, USA",(Blood Drive),"Seattle, King County, Washington, United States of America",47.6038321,-122.3300624
674,/title/tt0446622/,,"Dallas, Texas, USA",,"Dallas, Dallas County, Texas, United States of America",32.7762719,-96.7968559
675,/title/tt9358052/,,"New York City, New York, USA",,"New York, United States of America",40.7127281,-74.0060152
676,/title/tt9358052/,,"West Virginia, USA",,"West Virginia, United States of America",38.4758406,-80.8408415
677,/title/tt9358052/,,"Washington, District of Columbia, USA",,"Washington, District of Columbia, 20230, United States of America",38.8949924,-77.0365581
678,/title/tt9358052/,,"Nevada, USA",,"Nevada, United States of America",39.5158825,-116.8537227
679,/title/tt7150512/,,USA,(location),United States,39.7837304,-100.4458825
680,/title/tt7150512/,,Sweden,(location),Sverige,59.6749712,14.5208584
681,/title/tt0074605/,,"Brookside, Kentucky, USA",,"Brookside, Harlan County, Kentucky, 40801, United States of America",36.8592562,-83.249344
