,Code,Show Name,Location,Scene,geocodedLocation,latitude,longitude
0,/title/tt1520211/,,"Senoia, Georgia, USA",,"Senoia Tree farm, Redbone, Lamar County, Georgia, United States of America",33.004109549999995,-84.12504155771607
1,/title/tt1520211/,,"Atlanta, Georgia, USA",,"Atlanta, Georgia, United States of America",33.7490987,-84.3901849
2,/title/tt1520211/,,"Raleigh Studios Atlanta - 600 Chestlehurst Rd, Senoia, Georgia, USA",,,,
3,/title/tt1520211/,,"Newnan, Georgia, USA",,"Newnan, Coweta, Georgia, 30263, United States of America",33.3806716,-84.7996573
4,/title/tt1520211/,,"Gay, Georgia, USA",,"Gay, Meriwether County, Georgia, 30218, United States of America",33.0937361,-84.5738151
5,/title/tt1520211/,,"Hampton, Georgia, USA",,"Hampton, Henry County, Georgia, United States of America",33.3870578,-84.2829784
6,/title/tt1520211/,,"Fairburn, Georgia, USA",,"Fairburn, Georgia, 30213, United States of America",33.5670562,-84.5810418
7,/title/tt1520211/,,"Sharpsburg, Georgia, USA",,"Sharpsburg, Coweta, Georgia, United States of America",33.3392842,-84.6485417
8,/title/tt1520211/,,"Mansfield, Georgia, USA",,"Mansfield, Newton County, Georgia, United States of America",33.5182677,-83.7353456
9,/title/tt1520211/,,"Douglas County, Georgia, USA",,"Douglas County, Georgia, United States of America",33.6995565,-84.7622973
10,/title/tt1520211/,,"Brooks, Georgia, USA",,"Brooks County, Georgia, United States of America",30.8336559,-83.5958387
11,/title/tt1520211/,,"Grantville, Georgia, USA",,"Grantville, Coweta, Georgia, United States of America",33.2348419,-84.8357679
12,/title/tt1520211/,,"Raymond, Georgia, USA",,"Raymond, Coweta, Georgia, United States of America",33.3387284,-84.7146546
13,/title/tt1520211/,,"Moreland, Georgia, USA",,"Moreland, Coweta, Georgia, United States of America",33.2867851,-84.7677112
14,/title/tt1520211/,,"Hogansville, Georgia, USA",,"Hogansville, Troup County, Georgia, United States of America",33.1731769,-84.914936
15,/title/tt6905686/,,"Elburn, Illinois, USA",,"Elburn, Kane County, Illinois, 60119, United States of America",41.8922499,-88.4723014
16,/title/tt6905686/,,"Marietta, Georgia, USA",,"Marietta, Cobb, Georgia, United States of America",33.9528472,-84.5496148
17,/title/tt6905686/,,"Odell, Illinois 60460, USA",,"Odell, Livingston County, Illinois, United States of America",41.003643,-88.5253364
18,/title/tt1844624/,,"Santa Ana Courthouse 909 N Main St, Santa Ana, CA 92701",(exteriors of asylum),,,
19,/title/tt1844624/,,"Paramount Studios - 5555 Melrose Avenue, Hollywood, Los Angeles, California, USA","(seasons 1, 2 & 5)",,,
20,/title/tt1844624/,,"Fawnskin, California, USA",(Season 6),"Fawnskin, San Bernardino County, California, 92333, United States of America",34.2680621,-116.9425342
21,/title/tt1844624/,,"Mid Valley Family YMCA, 6901 Lennox Ave, Van Nuys, California, USA",(Gym) (Season 9),,,
22,/title/tt0460681/,,"New Westminster, British Columbia, Canada",,"New Westminster, Metro Vancouver Regional District, British Columbia, Canada",49.2067726,-122.9108818
23,/title/tt0460681/,,"Steveston, Richmond, British Columbia, Canada",,"Steveston, Richmond, Metro Vancouver Regional District, British Columbia, Canada",49.1280561,-123.177415512419
24,/title/tt0460681/,,"Burnaby, British Columbia, Canada",,"Burnaby, Metro Vancouver Regional District, British Columbia, Canada",49.2433804,-122.9725459
25,/title/tt0460681/,,"Cleveland Dam, Capilano River Regional Park, North Vancouver, British Columbia, Canada",,,,
26,/title/tt0460681/,,"Langley, British Columbia, Canada",,"Township of Langley, Metro Vancouver Regional District, British Columbia, Canada",49.106471850000005,-122.5501311568147
27,/title/tt0460681/,,"Burnaby Hospital, Burnaby, British Columbia, Canada",,"Shell Canada Shellburn Distribution Terminal, 2751, Burnaby, Metro Vancouver Regional District, British Columbia, Canada",49.2630305,-122.92975765610807
28,/title/tt0460681/,,"Clarkson Street, New Westminster, British Columbia, Canada",,"Clarkson Street, Downtown, New Westminster, Metro Vancouver Regional District, British Columbia, V3L 5S3, Canada",49.2053548,-122.9051774
29,/title/tt4574334/,,"Bellwood Quarry, Atlanta, Georgia, USA",(location),,,
30,/title/tt4574334/,,"Stockbridge, Georgia, USA",(Hawkins Middle School and Hawkins High School),"Stockbridge, Henry County, Georgia, 30236:30281, United States of America",33.5442781,-84.2338093
31,/title/tt4574334/,,"Tucker, Georgia, USA",(bicycle chase scenes),"Tucker, DeKalb County, Georgia, United States of America",33.8532701,-84.2200729
32,/title/tt4574334/,,"EUE/Screen Gems Studios Atlanta, 175 Lakewood Way, Atlanta, Georgia, USA","(Hawkins Lab interiors, Wheelers and Byers homes interiors)",,,
33,/title/tt4574334/,,"48 Pray Street, Douglasville, Georgia, USA",(Police Department),"Pray Street, Downtown Douglasville, Midway, Douglasville, Douglas County, Georgia, 30134, United States of America",33.7495166,-84.7508314
34,/title/tt4574334/,,"7703 US-78, Winston, Georgia, USA",(Fair Mart),"Veterans Memorial Highway, Ephesus Heights, Winston, Douglas County, Georgia, 30180, United States of America",33.734378,-84.856232
35,/title/tt4574334/,,"930 Garibaldi Street Southwest, Atlanta, Georgia, USA",(Lonnie's house),"930, Garibaldi Street Southwest, Pittsburgh, Atlanta, Georgia, 30310, United States of America",33.729559449999996,-84.39904443889912
36,/title/tt4574334/,,"Butts County Probate Court - 3rd Street, Jackson, Georgia, USA",(Library),,,
37,/title/tt4574334/,,"East Point, Georgia, USA",(Library),"East Point, Georgia, 30344, United States of America",33.6795531,-84.4393724
38,/title/tt4574334/,,"South Bend Pool - 2000 Lakewood Ave SE, Atlanta, Georgia, USA",(Pool),,,
39,/title/tt10970552/,,"The Bridge Studios, Burnaby, British Columbia, Canada",(studio),"Bridge Studios, Burnaby, Metro Vancouver Regional District, British Columbia, Canada",49.2629905,-123.0205448788792
40,/title/tt10970552/,,"Thornewood Castle, Lakewood, Washington, USA",(Exterior shots of the mansion),"Thornewood Castle, 8601, North Thorne Lane Southwest, Woodbrook, Tillicum, Lakewood, Pierce County, Washington, 98498-2051, United States of America",47.1302059,-122.55158437037625
41,/title/tt10404698/,,"New York City, New York, USA",,"New York, United States of America",40.7127281,-74.0060152
42,/title/tt11024272/,,"Columbia/Warner Bros. Ranch - 411 North Hollywood Way, Burbank, California, USA",,,,
43,/title/tt6763664/,,"The Bridge Studios, Burnaby, British Columbia, Canada",(season 2),"Bridge Studios, Burnaby, Metro Vancouver Regional District, British Columbia, Canada",49.2629905,-123.0205448788792
44,/title/tt6763664/,,USA,,United States,39.7837304,-100.4458825
45,/title/tt6763664/,,"The Whitlock Inn - 57 Whitlock Ave SW, Marietta, Georgia, USA",(Harris Funeral Home),,,
46,/title/tt6763664/,,"696 Sherwood Rd NE, Atlanta, Georgia, USA",(Steven's house),"696, Sherwood Road Northeast, Lenox Park, Atlanta, Georgia, 30324, United States of America",33.79865365,-84.36435638522123
47,/title/tt6763664/,,"Atlanta Recovery Center - 169 Trinity Ave SW, Atlanta, Georgia, USA",(Rehab center),"Atlanta Recovery Center, 169, Trinity Avenue Southwest, South Downtown, Atlanta, Georgia, 30303, United States of America",33.749786799999995,-84.39334183934764
48,/title/tt6763664/,,"LaGrange, Georgia, USA",,"LaGrange, Troup County, Georgia, United States of America",33.039291,-85.0313269
49,/title/tt6763664/,,"Vancouver, British Columbia, Canada",(studio) (Season 2),"Vancouver, Metro Vancouver Regional District, British Columbia, Canada",49.2608724,-123.1139529
50,/title/tt1051906/,,"Fox Studios, Moore Park, Sydney, New South Wales, Australia",,"Fox Studios Australia, Moore Park, Sydney, Council of the City of Sydney, New South Wales, 2021, Australia",-33.890960899999996,151.22750517838074
51,/title/tt1051906/,,"Kiama, New South Wales, Australia",,"Kiama, The Council of the Municipality of Kiama, New South Wales, 2533, Australia",-34.6718879,150.8554408
52,/title/tt1051906/,,"Martin Place, Sydney, New South Wales, Australia",,"Martin Place, Sydney, Council of the City of Sydney, New South Wales, 2000, Australia",-33.8678177,151.210759
53,/title/tt1051906/,,Australia,,Australia,-24.7761086,134.755
54,/title/tt1051906/,,"London, England, UK",(pick-up shot of Adrian),"London, Greater London, England, United Kingdom",51.5073219,-0.1276474
55,/title/tt1405406/,,"Vancouver, British Columbia, Canada",(pilot),"Vancouver, Metro Vancouver Regional District, British Columbia, Canada",49.2608724,-123.1139529
56,/title/tt1405406/,,"Castleberry Hill, Atlanta, Georgia, USA",,"Castleberry Hill, Atlanta, Georgia, 30303, United States of America",33.7495867,-84.4000561
57,/title/tt1405406/,,"2136 Conyers Street SE, Covington, Georgia, USA",(Grams's House),"2136, Conyers Street Southeast, Covington, Newton County, Georgia, 30014, United States of America",33.594519604362794,-83.8563216812297
58,/title/tt1405406/,,"Covington, Georgia, USA",,"Covington, Newton County, Georgia, 30014, United States of America",33.5967815,-83.8601827
59,/title/tt1405406/,,"Atlanta, Georgia, USA",,"Atlanta, Georgia, United States of America",33.7490987,-84.3901849
60,/title/tt1405406/,,"6741 224th Street, Langley, British Columbia, Canada",(Salvatore Boarding House) (pilot),,,
61,/title/tt0115963/,,"Leo Carrillo State Beach - 35000 W. Pacific Coast Highway, Malibu, California, USA",,,,
62,/title/tt0115963/,,"El Adobe marketplace, Los Angeles, California, USA",,,,
63,/title/tt0115963/,,"8330 McGroarty Street, Sunland, California, USA",(Sarah's house),,,
64,/title/tt0115963/,,"Culver City, California, USA",,"Culver City, Los Angeles County, California, United States of America",34.0211224,-118.3964665
65,/title/tt0115963/,,"Long Beach, California, USA",,"Long Beach, Los Angeles County, California, United States of America",33.7690164,-118.1916048
66,/title/tt0115963/,,"Tujunga, Los Angeles, California, USA",,"Tujunga, Los Angeles, Los Angeles County, California, 91042, United States of America",34.252225,-118.2884105
67,/title/tt0115963/,,"California, USA",,"California, United States of America",36.7014631,-118.7559974
68,/title/tt10148174/,,"Richmond, Virginia, USA",,"Richmond, Richmond City, Virginia, 23298, United States of America",37.5385087,-77.43428
69,/title/tt10148174/,,"Petersburg, Virginia, USA",,"Petersburg, Virginia, 23804, United States of America",37.227928,-77.4019268
70,/title/tt0100944/,,"Bergen, Hordaland, Norway",,,,
71,/title/tt0100944/,,"Bray Studios, Bray, Berkshire, England, UK",,,,
72,/title/tt0100944/,,"Old Bergen Museum - Nyhavnsveien 4, Sandviken, Bergen, Hordaland, Norway",(Opening scenes),,,
73,/title/tt0100944/,,"Cookham Dean Primary School - Bigfrith Lane, Cookham, Berkshire, UK",(School),,,
74,/title/tt0100944/,,UK,,United Kingdom,54.7023545,-3.2765753
75,/title/tt0100944/,,Norway,,"Norge, Namsos, Trøndelag, Norge",64.5731537,11.52803643954819
76,/title/tt4682266/,,"Medfield, Massachusetts, USA",,"Medfield, Norfolk County, Massachusetts, 02052, United States of America",42.1865609,-71.30546
77,/title/tt4682266/,,USA,,United States,39.7837304,-100.4458825
78,/title/tt4225622/,,"California, USA",,"California, United States of America",36.7014631,-118.7559974
79,/title/tt3743822/,,"Burnaby, British Columbia, Canada",(Season 1),"Burnaby, Metro Vancouver Regional District, British Columbia, Canada",49.2433804,-122.9725459
80,/title/tt3743822/,,"El Sereno, Los Angeles, California, USA",(Location season 1),"El Sereno, Los Angeles, Los Angeles County, California, United States of America",34.0811213,-118.1778495
81,/title/tt3743822/,,"Long Beach, California, USA",(Location season 1),"Long Beach, Los Angeles County, California, United States of America",33.7690164,-118.1916048
82,/title/tt3743822/,,"Texas, USA",(Season 4 and 5),"Texas, United States of America",31.8160381,-99.5120986
83,/title/tt3743822/,,"Taylor, Texas, USA",(Season 4),"Taylor County, Texas, United States of America",32.2793121,-99.8812612
84,/title/tt3743822/,,"Round Rock, Texas, USA",(Season 4),"Round Rock, Williamson County, Texas, United States of America",30.508235,-97.6788934
85,/title/tt5606664/,,"Atlanta, Georgia, USA",,"Atlanta, Georgia, United States of America",33.7490987,-84.3901849
86,/title/tt5606664/,,USA,,United States,39.7837304,-100.4458825
87,/title/tt1620981/,,"Metro-Goldwyn-Mayer Studios - 245 North Beverly Drive, Beverly Hills, California, USA",,,,
88,/title/tt8772262/,,"Korda Studios, Etyek, Hungary",,"Korda Filmstúdió, Etyek, Bicskei járás, Fejér megye, Közép-Dunántúl, Dunántúl, 2091, Magyarország",47.4397819,18.728804513362004
89,/title/tt8772262/,,"Budakeszi, Hungary",(Hårga),"Budakeszi, Budakeszi járás, Pest megye, Közép-Magyarország, 2092, Magyarország",47.5099444,18.929382
90,/title/tt5197820/,,"British Columbia, Canada",,"British Columbia, Canada",55.001251,-125.002441
91,/title/tt0077651/,,"Meridian Avenue & Mission Street, South Pasadena, California, USA",(Intersection where Michael drives behind Dr. Loomis who is standing in front of the hardware store.),,,
92,/title/tt0077651/,,"1000 Mission Street, South Pasadena, California, USA",(Myers' home),"1000, Mission Street, South Pasadena, Los Angeles County, California, 91030, United States of America",34.11582,-118.156968
93,/title/tt0077651/,,"1019 Montrose Avenue, South Pasadena, California, USA",(hedge scene),"1019, Montrose Avenue, South Pasadena, Los Angeles County, California, 91030, United States of America",34.11496724452884,-118.1428628989923
94,/title/tt0077651/,,"1530 Orange Grove Avenue, Hollywood, Los Angeles, California, USA",(Doyle home),,,
95,/title/tt0077651/,,"Brea Canyon Road & Old Ranch Road, City of Industry, California, USA",(phone booth),,,
96,/title/tt0077651/,,"Garfield Elementary - 110 W. McLean Street, Alhambra, California, USA",(Tommy Doyle's school),,,
97,/title/tt0077651/,,"Los Angeles, California, USA",,"Los Angeles, Los Angeles County, California, United States of America",34.0536909,-118.2427666
98,/title/tt0077651/,,"North Hollywood, Los Angeles, California, USA",,"North Hollywood, Los Angeles, Los Angeles County, California, 91601-3121, United States of America",34.1729044,-118.3740371
99,/title/tt0077651/,,"Rosemead, California, USA",,"Rosemead, Los Angeles County, California, 91770, United States of America",34.0676169,-118.0879763
100,/title/tt0077651/,,"1542 Orange Grove Avenue, Hollywood, Los Angeles, California, USA",(Interior room used as Laurie's upstairs bedroom where she sees Michael in the backyard clothesline.),,,
101,/title/tt0077651/,,"La Vina Hospital, 3900 Lincoln Avenue, Altadena, California, USA","(Smith's Grove, Dr. Loomis walking to car with Dr. Wynn)",,,
102,/title/tt0077651/,,"Meridian Avenue & Magnolia Street, South Pasadena, California, USA",(street scenes),,,
103,/title/tt0077651/,,"1542 Orange Grove Avenue, Hollywood, Los Angeles, California, USA","(Wallace home, Interiors)",,,
104,/title/tt0077651/,,"1351 N. Genesee Avenue, Hollywood, Los Angeles, California, USA","(Dr. Loomis walks by here twice looking for Michael as Sheriff Brackett drives up along side him, home also TP'd.)","1351, North Genesee Avenue, West Hollywood, Los Angeles County, California, 90046, United States of America",34.09533920408163,-118.35826906122449
105,/title/tt0077651/,,USA,,United States,39.7837304,-100.4458825
106,/title/tt7984734/,,"Halifax, Nova Scotia, Canada","(studio) (studio, soundstage)","Halifax, Nova Scotia, Canada",44.648618,-63.5859487
107,/title/tt7984734/,,Canada,,Canada,61.0666922,-107.9917071
108,/title/tt9055008/,,"Yonkers City Hall, Yonkers, Westchester, New York, USA",(Queens Court House),"Yonkers City Hall, Nepperhan Avenue, Ludlow, Yonkers, Westchester County, New York, 10701, United States of America",40.9321133,-73.89790548548586
109,/title/tt1502407/,,"Magnolia Cemetery Trust - 70 Cunnington Avenue, Charleston, South Carolina, USA",(Haddonfield Cemetery),,,
110,/title/tt1502407/,,"1256 Yeamans Hall Road, Hanahan, South Carolina, USA",(Gas Station where Michael kills the mechanic and possibly others.),"1256, Yeamans Hall Road, The Farms, Hanahan, Charleston County, South Carolina, 29410, United States of America",32.901997,-80.009719
111,/title/tt1502407/,,"43 Fenwick Drive, Charleston, South Carolina, USA","(Laurie parks in front of this house, then sees Michael in the window of the home across the street.)","43, Fenwick Drive, The Crescent, Charleston, Charleston County, South Carolina, 29407, United States of America",32.77643545647828,-79.97251643702722
112,/title/tt1502407/,,"Danny Jones Complex Armory - 5000 Lackawanna Boulevard, North Charleston, South Carolina, USA",(Haddonfield High School),,,
113,/title/tt1502407/,,"332 President Street, Charleston, South Carolina, USA","(Michael looks in the front window, then goes inside and attacks a woman looking out the same window.)","332, President Street, Gadsden Green Homes, Charleston, Charleston County, South Carolina, 29403, United States of America",32.796236666003836,-79.95455189576182
114,/title/tt1502407/,,"Illinois, USA",(Haddonfield Strode house),"Illinois, United States of America",40.0796606,-89.4337288
115,/title/tt2243973/,,"Orangeville, Ontario, Canada",,"Orangeville, Dufferin County, Central Ontario, Ontario, Canada",43.9193171,-80.0973754
116,/title/tt2243973/,,"University of Toronto-Scarborough Campus, Scarborough, Toronto, Ontario, Canada",(FBI Academy at Quantico Marine Corps Base),,,
117,/title/tt1396484/,,"Elora, Ontario, Canada",(Elora Quarry),"Elora, Wellington County, Southwestern Ontario, Ontario, N0B 1S0, Canada",43.681121,-80.429581
118,/title/tt1396484/,,"Port Hope, Ontario, Canada",(Town of Derry),"Port Hope, Northumberland County, Central Ontario, Ontario, Canada",43.9515755,-78.2939704
119,/title/tt1396484/,,"450 Pape Avenue, Toronto, Ontario, Canada",,"450, Pape Avenue, Toronto—Danforth, Old Toronto, Toronto, Golden Horseshoe, Ontario, M4K 1B9, Canada",43.6713744,-79.3419164
120,/title/tt1396484/,,"Hamilton, Ontario, Canada",(on location),"Hamilton, Golden Horseshoe, Ontario, L8P 0B3, Canada",43.2560802,-79.8728583
121,/title/tt1396484/,,"Pinewood Toronto Studios, Port Lands, Toronto, Ontario, Canada",,"Pinewood Toronto Studios, Munition Street, Toronto—Danforth, Old Toronto, Toronto, Golden Horseshoe, Ontario, M4M 3P2, Canada",43.6465663,-79.35106457413957
122,/title/tt1396484/,,Canada,,Canada,61.0666922,-107.9917071
123,/title/tt1396484/,,USA,,United States,39.7837304,-100.4458825
124,/title/tt7908628/,,"Ontario, Canada",,"Ontario, Canada",50.000678,-86.000977
125,/title/tt10620868/,,"Gunsan, South Korea",(studio),"군산시, 전라북도, 대한민국",35.9679984,126.7369036
126,/title/tt2632424/,,"Conyers, Georgia, USA",,"Conyers, Rockdale County, Georgia, 30013-2028, United States of America",33.6676103,-84.0176904
127,/title/tt0081505/,,"Backlot, MGM British Studios, Borehamwood, Hertfordshire, England, UK",(Danny and Wendy walking in the maze),,,
128,/title/tt0081505/,,"Stage 9, Elstree Studios, Borehamwood, Hertfordshire, England, UK",(caretaker's apartment),"Elstree Studios, Shenley Road, Elstree and Borehamwood, Hertsmere, Hertfordshire, East of England, England, WD6 1JG, United Kingdom",51.657052050000004,-0.2675206399488197
129,/title/tt0081505/,,"Backlot, Elstree Studios, Borehamwood, Hertfordshire, England, UK",(maze. Durkin's Store exterior),,,
130,/title/tt0081505/,,"Going-to-the-Sun Road, Glacier National Park, Montana, USA",(opening scenes: aerial shots),,,
131,/title/tt0081505/,,"Elstree Studios, Borehamwood, Hertfordshire, England, UK",(studio),"Elstree Studios, Shenley Road, Elstree and Borehamwood, Hertsmere, Hertfordshire, East of England, England, WD6 1JG, United Kingdom",51.657052050000004,-0.2675206399488197
132,/title/tt0081505/,,"American Legion Hollywood Post 43, Los Angeles, California, USA",(Lloyd's bar),,,
133,/title/tt0081505/,,"Stansted Airport, Essex, England, UK","(Denver Stapleton Airport, interior)","Stansted Airport, Terminal Road South, Takeley, Uttlesford, Essex, East of England, England, CM22 6PL, United Kingdom",51.8899889,0.26150702197225434
134,/title/tt0081505/,,"Stage 3, Elstree Studios, Borehamwood, Hertfordshire, England, UK",(Colorado Lounge) (burned down in February 1979),,,
135,/title/tt11245972/,,"Southport, North Carolina, USA",,"Southport, Brunswick County, North Carolina, United States of America",33.921563,-78.0202677
136,/title/tt8160834/,,"Moscow, Russia",,"Москва, Центральный административный округ, Москва, Центральный федеральный округ, Россия",55.7504461,37.6174943
137,/title/tt7798634/,,"Casa Loma, Toronto, Ontario, Canada",(Le Domas Estate),"Casa Loma, 1, Austin Terrace, Toronto—St. Paul's, Old Toronto, Toronto, Golden Horseshoe, Ontario, M5R 1X9, Canada",43.6781015,-79.409415775
138,/title/tt7798634/,,"Toronto, Ontario, Canada",,"Toronto, Golden Horseshoe, Ontario, Canada",43.6534817,-79.3839347
139,/title/tt7798634/,,"Oshawa, Ontario, Canada",,"Oshawa, Durham Region, Golden Horseshoe, Ontario, Canada",43.91768,-78.862953
140,/title/tt7784604/,,"Sandy, Utah, USA",,"Sandy, Utah, United States of America",40.5664878,-111.838904
141,/title/tt7784604/,,"Park City, Utah, USA",,"Park City, Utah, United States of America",40.6460635,-111.4979741
142,/title/tt7784604/,,USA,,United States,39.7837304,-100.4458825
143,/title/tt7349950/,,"Ontario, Canada",,"Ontario, Canada",50.000678,-86.000977
144,/title/tt7349950/,,"Port Hope, Ontario, Canada",,"Port Hope, Northumberland County, Central Ontario, Ontario, Canada",43.9515755,-78.2939704
145,/title/tt7349950/,,Canada,,Canada,61.0666922,-107.9917071
146,/title/tt0117571/,,"3871 Tomales Road, Tomales, California, USA",(Stu's House),"Tomales, Carrie Street, Tomales, Marin County, California, 94971, United States of America",38.2468075,-122.90630461024097
147,/title/tt0117571/,,"Bradley Video - 3080 Marlow Road, Santa Rosa, California, USA",(Video store where Randy works.),,,
148,/title/tt0117571/,,"Healdsburg Plaza - Matheson Street & Center Street, Healdsburg, California, USA",(Woodsboro Town Square),,,
149,/title/tt0117571/,,"Pacific Market - 1465 Town & Country Drive, Santa Rosa, California, USA",(Sidney and Tatum buy food for Stu's party.),,,
150,/title/tt0117571/,,"Tomales Bay, Tomales, California, USA",,"Tomales, Carrie Street, Tomales, Marin County, California, 94971, United States of America",38.2468075,-122.90630461024097
151,/title/tt0117571/,,"Santa Rosa, California, USA",,"Santa Rosa, Sonoma County, California, United States of America",38.4404925,-122.7141049
152,/title/tt0117571/,,"Glen Ellen, California, USA",,"Glen Ellen, Arnold Drive, Glen Ellen, Sonoma County, California, 95442, United States of America",38.355533,-122.53907290000001
153,/title/tt0117571/,,"California, USA",,"California, United States of America",36.7014631,-118.7559974
154,/title/tt0162661/,,"H Stage, Shepperton Studios, Shepperton, Surrey, England, UK",(Western Woods),,,
155,/title/tt0162661/,,"London, England, UK",,"London, Greater London, England, United Kingdom",51.5073219,-0.1276474
156,/title/tt0162661/,,"Oxfordshire, England, UK",,"Oxfordshire, South East, England, United Kingdom",51.833333,-1.25
157,/title/tt0162661/,,"Hambleden, Buckinghamshire, England, UK",(Sleepy Hollow village outdoor set),"Hambleden, Buckinghamshire, South East, England, RG9 6RP, United Kingdom",51.5719351,-0.8691036
158,/title/tt9605894/,,"Renton Technical College, Northeast 4th Street, Renton, Washington, USA",(Hospital Exteriors),"Renton Technical College, Northeast 4th Street, Liberty Ridge, Kennydale, Renton, King County, Washington, 98059, United States of America",47.491597,-122.17613681834234
159,/title/tt9605894/,,"Stadium High School - 111 N. E Street, Tacoma, Washington, USA",,,,
160,/title/tt9605894/,,"Mineral, Washington, USA",,"Mineral, Lewis County, Washington, 98355, United States of America",46.7170518,-122.1809417
161,/title/tt9605894/,,"Space Needle - 400 Broad Street, Seattle Center, Seattle, Washington, USA",,,,
162,/title/tt9605894/,,"Tacoma Art Museum, 1701 Pacific Ave, Tacoma, Washington, USA",,"Tacoma Art Museum, 1701, Pacific Avenue, G Street Neighborhood, Salishan, Tacoma, Pierce County, Washington, 98402, United States of America",47.2475134,-122.43680521780016
163,/title/tt9605894/,,"17316 SE 60th St, Bellevue, WA 98006, USA",(Antony's house),"Southeast 60th Street, Hilltop, Bellevue, King County, Washington, 98006, United States of America",47.549322,-122.1523808
164,/title/tt0078748/,,"Bray Studios, Down Place, Oakley Green, Berkshire, England, UK",(studio),,,
165,/title/tt6905696/,,"Chislehurst Caves, Chislehurst, Kent, England, UK",,,,
166,/title/tt8244784/,,"Louisiana, USA",,"Louisiana, United States of America",30.8703881,-92.007126
167,/title/tt8850222/,,"Hong Kong, China",,"香港島 Hong Kong Island, 香港 Hong Kong, China 中国",22.2793278,114.1628131
168,/title/tt0103874/,,"Culver City, California, USA",(studio),"Culver City, Los Angeles County, California, United States of America",34.0211224,-118.3964665
169,/title/tt0103874/,,"Sony Pictures Studios - 10202 W. Washington Blvd., Culver City, California, USA",,,,
170,/title/tt1831804/,,"British Columbia, Canada",,"British Columbia, Canada",55.001251,-125.002441
171,/title/tt6857112/,,"Los Angeles, California, USA",,"Los Angeles, Los Angeles County, California, United States of America",34.0536909,-118.2427666
172,/title/tt6857112/,,"California, USA",,"California, United States of America",36.7014631,-118.7559974
173,/title/tt1259521/,,"2605 West 5th Avenue, Vancouver, British Columbia, Canada",(Dana's apartment),"Trafalgar Housing Co-op, 2605, West 5th Avenue, Kitsilano, Vancouver, Metro Vancouver Regional District, British Columbia, V6K 1T2, Canada",49.2675494,-123.1648217
174,/title/tt1259521/,,"British Columbia Institute of Technology - Aerospace Technology Campus, Vancouver International Airport, 3800 Cessna Drive, Richmond, British Columbia, Canada",(control facility wide shots),,,
175,/title/tt7569592/,,"British Columbia, Canada",,"British Columbia, Canada",55.001251,-125.002441
176,/title/tt7569592/,,"Paramount Gentleman's Club, 652 Columbia Street, New Westminster, Canada",(exterior of movie theater),,,
177,/title/tt7569592/,,"5657 176 Street, Surrey, British Columbia, Canada",(Cerberus Books),"176 Street, Cloverdale, Surrey, Metro Vancouver Regional District, British Columbia, V3S 8E7, Canada",49.1478208,-122.7347254
178,/title/tt7569592/,,"20146 100a Avenue, Langley, British Columbia, Canada",(studio),"20146, 100A Avenue, Walnut Grove, Township of Langley, Metro Vancouver Regional District, British Columbia, V1M 0B1, Canada",49.1840481,-122.66246142171815
179,/title/tt7569592/,,"17900 20 Avenue, Surrey, British Columbia, Canada",(Woods),"17900, 20 Avenue, Hazelmere, South Surrey, Surrey, Metro Vancouver Regional District, British Columbia, V3S 9W4, Canada",49.035872,-122.7263852
180,/title/tt7569592/,,"19714 96th Avenue, Langley, British Columbia, Canada",(studio),,,
181,/title/tt0084787/,,"Los Angeles, California, USA",,"Los Angeles, Los Angeles County, California, United States of America",34.0536909,-118.2427666
182,/title/tt0084787/,,"Kimberley, British Columbia, Canada",,"Kimberley, Regional District of East Kootenay, British Columbia, Canada",49.6850876,-115.9819477
183,/title/tt0084787/,,"British Columbia, Canada",,"British Columbia, Canada",55.001251,-125.002441
184,/title/tt0084787/,,"Tongass National Forest, Alaska, USA",,"Tongass National Forest, Yakutat, Alaska, United States of America",59.5559048,-138.9806750266495
185,/title/tt0084787/,,"Universal City, California, USA",,"Universal City, Los Angeles County, California, 91608, United States of America",34.1412926,-118.3584364
186,/title/tt5052448/,,"6892 Heathcroft Lane, Fairhope, Alabama, USA",(Armitage house),,,
187,/title/tt5052448/,,"Mobile, Alabama, USA",,"Mobile, Mobile County, Alabama, United States of America",30.6943566,-88.0430541
188,/title/tt8103070/,,"Georgia, USA",,"Georgia, United States of America",32.3293809,-83.1137366
189,/title/tt7097896/,,"San Francisco, California, USA",,"San Francisco, San Francisco City and County, California, United States of America",37.7790262,-122.4199061
190,/title/tt7097896/,,"Cardington studio's, England, UK",(Set explosion),,,
191,/title/tt7097896/,,"Oakland, California, USA",(on-location),"Oakland, Alameda County, California, United States of America",37.8044557,-122.2713563
192,/title/tt1457767/,,"Wilmington, North Carolina, USA",(Carolina Apartments),"Wilmington, New Hanover County, North Carolina, United States of America",34.2257282,-77.9447107
193,/title/tt1457767/,,"Currie, North Carolina, USA",(on location),"Currie, Pender County, North Carolina, 28435, United States of America",34.4626671,-78.1011055
194,/title/tt6079516/,,"Lakewood, Ohio, USA",,"Lakewood, Cuyahoga County, Ohio, 44107, United States of America",41.4819932,-81.7981908
195,/title/tt6079516/,,"Linwood Park, Vermillion, Ohio, USA",,,,
196,/title/tt6079516/,,"15409 Edgewater Dr Lakewood, Ohio, USA",(Main house),"15409, Edgewater Drive, Clifton Park, Birdtown, Lakewood, Cuyahoga County, Ohio, 44107, United States of America",41.494924142857144,-81.80414128571428
197,/title/tt0093437/,,"Cliffs, Marineland of the Pacific - 6610 Palos Verdes Drive South, Rancho Palos Verdes, California, USA",(Vampire cave entrance.),,,
198,/title/tt0093437/,,"333 Golf Club Drive, Santa Cruz, California, USA",(Grandpa's house),"333, Golf Club Drive, Residential and Urban Agriculture, Downtown, Santa Cruz, Santa Cruz County, California, 95060, United States of America",36.98991964662217,-122.03652739543665
199,/title/tt0093437/,,"526 Seabright Avenue, Santa Cruz, California, USA","(Whale snout protruding from building, opening credits.)","526, Seabright Avenue, Seabright Commercial District, Seabright, Santa Cruz, Santa Cruz County, California, 95062, United States of America",36.968028294166885,-122.0078024808826
200,/title/tt0093437/,,"17 Municipal Wharf Suite D, Santa Cruz, California, USA",(Max's Video Store),,,
201,/title/tt0093437/,,"49 Municipal Wharf Suite B, Santa Cruz, California, USA",(Max and Lucy's dinner date.),,,
202,/title/tt0093437/,,"Stage 12, Warner Brothers Burbank Studios - 4000 Warner Boulevard, Burbank, California, USA",(Cave interiors),,,
203,/title/tt1131734/,,"British Columbia, Canada",,"British Columbia, Canada",55.001251,-125.002441
204,/title/tt1131734/,,"Langley Secondary School, Langley, British Columbia, Canada",(school scenes),"Langley Secondary School, 56 Avenue, Murrayville, Township of Langley, Metro Vancouver Regional District, British Columbia, V3A 4H1, Canada",49.105526999999995,-122.6303793831947
205,/title/tt1131734/,,"North Shore Studios, North Vancouver, British Columbia, Canada",(studio),,,
206,/title/tt1131734/,,"Riverview Hospital, Coquitlam, British Columbia, Canada",(interiors),,,
207,/title/tt1131734/,,"Surrey, British Columbia, Canada",,"Surrey, Metro Vancouver Regional District, British Columbia, Canada",49.1913033,-122.8491439
208,/title/tt1131734/,,"University Hill Secondary School, Vancouver, British Columbia, Canada",(school scenes),"University Hill Secondary School, 3250, East Mall, University of British Columbia, Electoral Area A, Metro Vancouver Regional District, British Columbia, V6S 0B4, Canada",49.2542564,-123.23876029359235
209,/title/tt1131734/,,"Minnesota, USA",,"Minnesota, United States of America",45.9896587,-94.6113288
210,/title/tt1131734/,,"North Surrey Secondary School - 15945 96 Avenue, Surrey, British Columbia, Canada",,,,
211,/title/tt0080761/,,"Blairstown Diner, 53 New Jersey 94, Blairstown, New Jersey, USA",(the diner),,,
212,/title/tt0080761/,,"Walnut Street & High Street, Hope, New Jersey, USA",(the street where Annie meets Crazy Ralph),"Walnut Street, Febletown, Hope, Warren County, New Jersey, 07844, United States of America",40.911865,-74.967314
213,/title/tt0080761/,,"Hardwick Township, New Jersey, USA",,"Hardwick, Warren County, New Jersey, United States of America",41.054541,-74.9321157
214,/title/tt0080761/,,"Delaware Road and Mt. Hermon Road, Hope, New Jersey, USA",(street scenes),,,
215,/title/tt0054215/,,"Jefferson Hotel, 109 S. Central, Phoenix, Arizona, USA",(establishing shot: cheap hotel room),,,
216,/title/tt0054215/,,"Falls Lake, Backlot, Universal Studios - 100 Universal City Plaza, Universal City, California, USA",(swamp where Marion Crane's car is sunk),,,
217,/title/tt0054215/,,"4270 Lankershim Boulevard, North Hollywood, Los Angeles, California, USA",(automobile dealership exterior scene),"Lankershim Boulevard, North Hollywood, Los Angeles, Los Angeles County, California, 91606, United States of America",34.1790383,-118.3831653
218,/title/tt0054215/,,"Stage 18, Universal Studios - 100 Universal City Plaza, Universal City, California, USA",,,,
219,/title/tt0054215/,,"Stage 28, Universal Studios - 100 Universal City Plaza, Universal City, California, USA",,,,
220,/title/tt0054215/,,"Title and Trust Building, 114 West Adams Street, downtown Phoenix, Arizona, USA",(Opening sequence),,,
221,/title/tt0054215/,,"Heard Security Building, 234 North Central Avenue, downtown Phoenix, Arizona, USA",(Opening sequence - built in 1928),,,
222,/title/tt0054215/,,"Buckeye, Arizona, USA",(freeway scenes deleted),"Buckeye, Maricopa County, Arizona, 85326, United States of America",33.3702748,-112.5838673
223,/title/tt0054215/,,"Luhrs Tower, downtown Phoenix, Arizona, USA",(scenes deleted),,,
224,/title/tt10665338/,,"Wilmington, North Carolina, USA",,"Wilmington, New Hanover County, North Carolina, United States of America",34.2257282,-77.9447107
225,/title/tt10665338/,,"Screen Gems Studios - 1223 North 23rd Street, Wilmington, North Carolina, USA",,,,
226,/title/tt10665338/,,"Chicago Illinois, USA",(street scenes),"Chicago, Cook County, Illinois, United States of America",41.8755616,-87.6244212
227,/title/tt0087800/,,"1428 N. Genesee Avenue, Hollywood, Los Angeles, California, USA",(Nancy's house),"North Genesee Avenue, West Hollywood, Los Angeles County, California, 90046, United States of America",34.0887479,-118.3584702
228,/title/tt0087800/,,"612 Milwood Court, Venice, California, USA",(Alley where Tina is confronted by Freddy during her nightmare.),"612, Milwood Court, Venice, Los Angeles, Los Angeles County, California, 90291, United States of America",33.99135379591837,-118.46374391836734
229,/title/tt0087800/,,"15600 Mulholland Drive, Los Angeles, California, USA",(Katja Sleep Institute),"15600, Mulholland Drive, Los Angeles, Los Angeles County, California, 90077, United States of America",34.128848,-118.47195
230,/title/tt0087800/,,"620 Milwood Avenue, Venice, Los Angeles, California, USA",(Tina's House),"620, Milwood Avenue, Venice, Los Angeles, Los Angeles County, California, 90291, United States of America",33.99140425,-118.46411945
231,/title/tt0087800/,,"Lincoln Heights Jail - 401 N. Avenue 19, Lincoln Heights, Los Angeles, California, USA",(boiler room),,,
232,/title/tt0087800/,,"Cahuenga Branch - Los Angeles Public Library, 4591 Santa Monica Boulevard, Los Angeles, California, USA",(police station),"Cahuenga Branch Los Angeles Public Library, 4591, Santa Monica Boulevard, East Hollywood, Los Angeles, Los Angeles County, California, 90029-1831, United States of America",34.0911209,-118.2889644
233,/title/tt0087800/,,"Los Angeles, California, USA",,"Los Angeles, Los Angeles County, California, United States of America",34.0536909,-118.2427666
234,/title/tt0052520/,,"Yuma, Arizona, USA",,"Yuma, Yuma County, Arizona, 85364, United States of America",32.6926588,-114.6276157
235,/title/tt6644200/,,"Pawling, New York, USA",(exterior scenes),"Pawling, Town of Pawling, Dutchess County, New York, 12564, United States of America",41.5620381,-73.6026271
236,/title/tt6644200/,,"Beacon, New York, USA",(location),"Beacon, Dutchess County, New York, 12508, United States of America",41.504879,-73.9696822
237,/title/tt6548228/,,"Moundsville, West Virginia, USA",(location),"Moundsville, Marshall County, West Virginia, 26041, United States of America",39.9203526,-80.7431407
238,/title/tt6548228/,,"Tewksbury, Massachusetts, USA",,"Tewksbury, Middlesex County, Massachusetts, United States of America",42.6106479,-71.2342248
239,/title/tt1830617/,,"418 SW Hamilton Street, Portland, Oregon, USA",(Monroe's house),"418, Southwest Hamilton Street, Marquam Hill, Homestead, Portland, Multnomah County, Oregon, 97239, United States of America",45.4907155,-122.68297537841252
240,/title/tt1830617/,,"U.S. Customs House - 220 NW 8th Avenue, Portland, Oregon, USA",(South Precinct),,,
241,/title/tt5700672/,,"Seoul, South Korea",(opening exteriors),"서울, 대한민국",37.5666791,126.9782914
242,/title/tt5700672/,,South Korea,,대한민국,36.638392,127.6961188
243,/title/tt8295472/,,"Vancouver, British Columbia, Canada",,"Vancouver, Metro Vancouver Regional District, British Columbia, Canada",49.2608724,-123.1139529
244,/title/tt0073650/,,"Cinecittà Studios, Cinecittà, Rome, Lazio, Italy",(studio) (Italy),,,
245,/title/tt0073650/,,"Gardeletta, Marzabotto, Bologna, Emilia-Romagna, Italy",,"Gardeletta, 169, Marzabotto, Unione dell'Appennino Bolognese, Bologna, Emilia-Romagna, 40043, Italia",44.297249,11.236716
246,/title/tt3007572/,,"Hamilton, Ontario, Canada",(location),"Hamilton, Golden Horseshoe, Ontario, L8P 0B3, Canada",43.2560802,-79.8728583
247,/title/tt3007572/,,"Montague Street, Lunenburg, Nova Scotia, Canada",(street scenes),"Montague Street, Lunenburg, Town of Lunenburg, Lunenburg County, Nova Scotia, B0J 2C0, Canada",44.3766515,-64.3123599
248,/title/tt3007572/,,"Cinespace Film Studios, Toronto, Ontario, Canada",(studio),"Cinespace Film Studios, 777, Kipling Avenue, Etobicoke—Lakeshore, Etobicoke, Toronto, Golden Horseshoe, Ontario, M8Z 5G5, Canada",43.630009799999996,-79.52817339890174
249,/title/tt3007572/,,"Ontario, Canada",,"Ontario, Canada",50.000678,-86.000977
250,/title/tt1560220/,,"Jackson, Georgia",(Opening Scene),"Jackson County, Georgia, United States of America",34.1282559,-83.5753386
251,/title/tt2188671/,,"Coquitlam, British Columbia, Canada",,"Coquitlam, Metro Vancouver Regional District, British Columbia, Canada",49.2842958,-122.793281
252,/title/tt2188671/,,"Steveston, Richmond, British Columbia, Canada",,"Steveston, Richmond, Metro Vancouver Regional District, British Columbia, Canada",49.1280561,-123.177415512419
253,/title/tt0070047/,,"Hetra, Iraq",(Pazuzu excavation site),,,
254,/title/tt0070047/,,"3600 Prospect Street, Georgetown, Washington, District of Columbia, USA",(The MacNeil Residence),"Prospect Street, Georgetown, Washington, District of Columbia, 20057, United States of America",38.90592,-77.073259
255,/title/tt0070047/,,"Healy Hall, Georgetown University, Georgetown, Washington, District of Columbia, USA",(crash course filming scene),,,
256,/title/tt0070047/,,"Ceco Studios[now Cameramart] - West 54th Street, Manhattan, New York City, New York, USA",(McNeil residence interiors),,,
257,/title/tt0070047/,,"Dahlgren Chapel, Georgetown University, Georgetown, Washington, District of Columbia, USA",(Church used for desecration scene),,,
258,/title/tt0070047/,,"The Tombs - 1226 36th Street NW, Georgetown, Washington, District of Columbia, USA",(bar scenes),"The Tombs, 1226, 36th Street Northwest, Georgetown, Washington, District of Columbia, 20057, United States of America",38.9060191,-77.0704195
259,/title/tt0070047/,,"Fordham University - 441 E. Fordham Road. Rose Hill, Bronx, New York City, New York, USA",,,,
260,/title/tt0070047/,,"Key Bridge, Georgetown, Washington, District of Columbia, USA",,"Key Bridge, K Street Northwest, Georgetown, Washington, District of Columbia, 20057, United States of America",38.90308555,-77.06952156924487
261,/title/tt0070047/,,"Goldwater Memorial Hospital - One Main Street, Roosevelt Island, East River, New York City, New York, USA",(psychiatric hospital interiors),,,
262,/title/tt0070047/,,"New York City, New York, USA",,"New York, United States of America",40.7127281,-74.0060152
263,/title/tt0070047/,,"Washington, District of Columbia, USA",,"Washington, District of Columbia, 20230, United States of America",38.8949924,-77.0365581
264,/title/tt0089175/,,"UCLA, Westwood, Los Angeles, California, USA",,"UCLA, West Sunset Boulevard, Court of Philanthropy, Westwood, Los Angeles, Los Angeles County, California, 90095, United States of America",34.0708781,-118.44684973165106
265,/title/tt0084516/,,"Simi Valley, California, USA",,"Simi Valley, Ventura County, California, United States of America",34.2694474,-118.781482
266,/title/tt0084516/,,"Kanan Road, Agoura Hills, California, USA",,"Kanan Road, Malibu Junction, Agoura Hills, Los Angeles County, California, 91301, United States of America",34.1373362,-118.759081
267,/title/tt0084516/,,"Calmfield Avenue, Agoura Hills, California, USA",,"Calmfield Avenue, Agoura Hills, Los Angeles County, California, 91301, United States of America",34.1595003,-118.7559359
268,/title/tt0084516/,,"Irvine, California, USA",,"Irvine, Orange County, California, United States of America",33.6856969,-117.8259819
269,/title/tt0084516/,,"Shadycreek Drive, Agoura Hills, California, USA",,"Shadycreek Drive, Agoura Hills, Los Angeles County, California, 91301, United States of America",34.1628791,-118.7606958
270,/title/tt0251736/,,"Chicken Ranch, Backlot, Universal Studios - 100 Universal City Plaza, Universal City, California, USA",,,,
271,/title/tt0251736/,,"Santa Clarita, California, USA",,"Santa Clarita, Los Angeles County, California, United States of America",34.3916641,-118.542586
272,/title/tt0251736/,,USA,,United States,39.7837304,-100.4458825
273,/title/tt2316204/,,"Fiordland National Park, Southland, New Zealand",,"Fiordland National Park, Fiordland Community, Southland District, Southland, New Zealand",-45.29155285,167.48799310101927
274,/title/tt2316204/,,"Potts Hill, Sydney, New South Wales, Australia",,"Potts Hill, Sydney, Canterbury-Bankstown Council, New South Wales, 2143, Australia",-33.8922191,151.0329222
275,/title/tt2316204/,,New Zealand,,New Zealand / Aotearoa,-41.5000831,172.8344077
276,/title/tt2316204/,,"Eglinton Valley, Fiordland National Park 9679, New Zealand",(wheat field),,,
277,/title/tt8332922/,,"Buffalo FilmWorks - 370 Babcock Street, Buffalo, New York, USA",(sound stage),,,
278,/title/tt8332922/,,"New York City, New York, USA",,"New York, United States of America",40.7127281,-74.0060152
279,/title/tt8332922/,,USA,,United States,39.7837304,-100.4458825
280,/title/tt8168992/,,"Canoga Park, California, USA",(Brad's house and underground shelter),"Canoga Park, Los Angeles, Los Angeles County, California, 91303, United States of America",34.2010541,-118.5977282
281,/title/tt1034415/,,"Varese, Lombardia, Italy",,"Varese, Lombardia, Italia",45.83971285,8.754157594917665
282,/title/tt1034415/,,Germany,,Deutschland,51.0834196,10.4234469
283,/title/tt1034415/,,"Kreuzberg, Berlin, Germany",,"Kreuzberg, Friedrichshain-Kreuzberg, Berlin, Deutschland",52.4976443,13.411914
284,/title/tt1034415/,,"Paris Bar, Kantstraße 152, Charlottenburg, Berlin, Germany",(restaurant),"Paris Bar, 152, Kantstraße, Charlottenburg, Charlottenburg-Wilmersdorf, 10623, Deutschland",52.5054437,13.3263235
285,/title/tt1034415/,,"Café Moskau, Berlin, Germany",(Dr. Klemperer on the way to his Datscha),"Cafe Moskau, Karl-Marx-Allee, Mitte, Berlin, 10178, Deutschland",52.5195444,13.4224298020133
286,/title/tt1034415/,,"Tegeler Hafenbrücke, Berlin, Germany",(Dr. Klemperer on the bridge),"Tegeler Hafen, Alexandersteg, Tegel, Reinickendorf, 13507, Deutschland",52.59105825,13.280247661348026
287,/title/tt2628232/,,"King's Inns, Henrietta Street, Dublin, County Dublin, Ireland",(Explorers' Club),,,
288,/title/tt2628232/,,"Cabinteely, Dublin, County Dublin, Ireland",(Wild West show),"Cabinteely, Foxrock-Carrickmines ED, Dublin 18, Dún Laoghaire-Rathdown, County Dublin, Leinster, D18 FV07, Ireland",53.2612843,-6.1505691
289,/title/tt2628232/,,"El Chorrillo, Pechina, Almeria, Andalucia, Spain",(Western scenes),,,
290,/title/tt2628232/,,"Bray Head, County Wicklow, Ireland",(Cut Wife's cottage exterior scenes),"Bray Head, The Municipal District of Bray, County Wicklow, Leinster, A98 XW24, Ireland",53.190478,-6.0837224
291,/title/tt2628232/,,"The Motte Stone, Connary Upper, Wicklow, Ireland",,,,
292,/title/tt2628232/,,"Belgravia, London, England, UK",(Dorian Gray's neighborhood),"Belgravia, City of Westminster, London, Greater London, England, SW1X 8QA, United Kingdom",51.4982128,-0.1534998
293,/title/tt2628232/,,"Fort Bravo-Texas Hollywood, Tabernas, Almería, Andalucía, Spain",(New Mexico scenes),"Fort Bravo/Texas Hollywood, Texas Hollywood / Fort Bravo, Tabernas, Almería, Andalucía, 04200, España",37.048027149999996,-2.4209645263895823
294,/title/tt5774060/,,USA,,United States,39.7837304,-100.4458825
295,/title/tt4731136/,,"Heilstätten, Beelitz, Brandenburg, Germany",(location),"Beelitz-Heilstätten, Beelitz, Potsdam-Mittelmark, Brandenburg, 14547, Deutschland",52.2618758,12.9245909
296,/title/tt4731136/,,"Schraplau, Saxony-Anhalt, Germany",,"Schraplau, Weida-Land, Saalekreis, Sachsen-Anhalt, Deutschland",51.4383844,11.6668362
297,/title/tt4731136/,,"Zwickau, Saxony, Germany",(Water Gymnastics Pool),"Zwickau, Sachsen, Deutschland",50.7185043,12.4939267
298,/title/tt8368406/,,"Liege, Belgium",,"Liège, Wallonie, 4000, België - Belgique - Belgien",50.6451381,5.5734203
299,/title/tt3501584/,,"210-555 Brooksbank Ave, Bld. 10 North Vancouver, British Columbia, Canada",(studio),,,
300,/title/tt2309295/,,"Liuna Station, Hamilton, Ontario",(The Godfrey Institute),"LiUNA Station, 360, James Street North, North End, Hamilton, Golden Horseshoe, Ontario, L8L 2V6, Canada",43.2656282,-79.8637551
301,/title/tt2309295/,,"Claireville Conservation Area, Brampton, Ontario, Canada",,"Claireville Conservation Area, Claireville, Brampton, Peel Region, Golden Horseshoe, Ontario, L6T 0B2, Canada",43.7431901,-79.63977980266392
302,/title/tt2309295/,,"Eaton Hall, King City, Ontario, Canada",,"Eaton Hall, Woodland Passage Trail, King, York Region, Golden Horseshoe, Ontario, L7B 1K5, Canada",43.96187575,-79.52048077010983
303,/title/tt5016504/,,"Melbourne, Victoria, Australia",(Season 4),"Melbourne, City of Melbourne, Victoria, 3000, Australia",-37.8142176,144.9631608
304,/title/tt10919380/,,"Denmark High School - 645 Mullinax Rd, Alpharetta, Georgia, USA",(Blissfield Valley High),"Denmark High School, 645, Mullinax Road, The Polo Fields, Forsyth County, Georgia, 30004, United States of America",34.1476135,-84.22852575700472
305,/title/tt8362852/,,"North Carolina, USA",,"North Carolina, United States of America",35.6729639,-79.0392919
306,/title/tt0758746/,,"Round Rock, Texas, USA",,"Round Rock, Williamson County, Texas, United States of America",30.508235,-97.6788934
307,/title/tt0758746/,,"Bastrop, Texas, USA",,"Bastrop County, Texas, United States of America",30.0900753,-97.3127179
308,/title/tt0758746/,,"1370 Chestnut Street, Bastrop, Texas, USA",(Police intersection scene),"1370, Chestnut Street, Riverside Grove, Bastrop, Bastrop County, Texas, 78602, United States of America",30.110707,-97.312575
309,/title/tt0758746/,,"La Grange, Texas, USA",,"La Grange, Fayette County, Texas, United States of America",29.9080038,-96.8730449
310,/title/tt0758746/,,"Austin Studios - 1901 E. 51st Street, Austin, Texas, USA",,,,
311,/title/tt1591095/,,"1153 S Point View St, Los Angeles, California, USA",(The Lambert's House),"1153, South Point View Street, Carthay, Mid-City, Los Angeles, Los Angeles County, California, 90035, United States of America",34.055023285714284,-118.3687740612245
312,/title/tt1591095/,,"4350 Victoria Park Drive, Los Angeles, California, USA",(The Old Lambert's House),"4350, Victoria Park Drive, Victoria Park, Mid-City, Los Angeles, Los Angeles County, California, 90019, United States of America",34.0467665482364,-118.32998795885655
313,/title/tt5073642/,,"Nova Medical School, Campo Mártires da Pátria 130, 1169-056 Lisboa, Portugal",(location),,,
314,/title/tt5073642/,,"Casa do Artista, Lisbon, Portugal",,"Casa do Artista, Estrada da Pontinha, Carnide, Lisboa, Grande Lisboa, Área Metropolitana de Lisboa, 1600-532, Portugal",38.760808999999995,-9.192406386538035
315,/title/tt5073642/,,Portugal,,Portugal,40.0332629,-7.8896263
316,/title/tt5073642/,,"São Pedro de Penaferrim, Sintra, Portugal","(house) (38°46'50.4""N 9°23'53.6""W)","São Pedro de Penaferrim, Sintra, Lisboa, Grande Lisboa, Área Metropolitana de Lisboa, Portugal",38.769365500000006,-9.39321238570502
317,/title/tt2737304/,,"E Greystone Ave & N Canyon Blvd, Monrovia, California, USA",(street scenes),,,
318,/title/tt2737304/,,"Santa Clarita, California, USA",,"Santa Clarita, Los Angeles County, California, United States of America",34.3916641,-118.542586
319,/title/tt2737304/,,"La Puente, California, USA",(Car scene when sister crashes.),"La Puente, Los Angeles County, California, United States of America",34.01979,-117.9503677
320,/title/tt2737304/,,"California, USA",,"California, United States of America",36.7014631,-118.7559974
321,/title/tt2583620/,,"British Columbia, Canada",,"British Columbia, Canada",55.001251,-125.002441
322,/title/tt4972582/,,"Silk City Diner Bar & Lounge - 435 Spring Garden St, Philadelphia, Pennsylvania, USA",(end scene in diner),"Silk City Diner Bar & Lounge, 435, Spring Garden Street, Northern Liberties, Philadelphia, Philadelphia County, Pennsylvania, 19123, United States of America",39.9613118,-75.1461004
323,/title/tt4972582/,,"30th Street Station - 3001 Market Street, Philadelphia, Pennsylvania, USA",,"30th Street Station, 2955, Market Street, Schuylkill Yards, Philadelphia, Philadelphia County, Pennsylvania, 19139, United States of America",39.9552836,-75.1821442
324,/title/tt4972582/,,"New Jersey, USA",,"New Jersey, United States of America",40.0757384,-74.4041622
325,/title/tt4972582/,,"Pennsylvania, USA",,"Pennsylvania, United States of America",40.9699889,-77.7278831
326,/title/tt3748172/,,"Point Clear, Alabama, USA",,"Point Clear, Loyola Villa, Baldwin County, Alabama, United States of America",30.5048675,-87.92260259767964
327,/title/tt3748172/,,USA,,United States,39.7837304,-100.4458825
328,/title/tt2798920/,,"Former RAF Bentwaters, Woodbridge, Suffolk, England, UK",(Exterior shots of army base),,,
329,/title/tt2798920/,,"England, UK",,"England, United Kingdom",52.7954791,-0.5402402866174321
330,/title/tt3387520/,,"St. Thomas, Ontario,Canada",(Filming City),"St. Thomas, Southwestern Ontario, Ontario, N5P 2X5, Canada",42.779022,-81.1929882
331,/title/tt3387520/,,"St. Thomas Psychiatric Hospital, St. Thomas, Ontario",(exterior scenes),,,
332,/title/tt0085333/,,"Valencia Liquors - 22925 Lyons Ave - Newhall, California, USA",,,,
333,/title/tt0085333/,,"Pickwick Drive-In Theater - 1100 W. Alameda Avenue, Burbank, California, USA",,,,
334,/title/tt0085333/,,"1357 N. Genesee Avenue, Los Angeles, California, USA",(Dennis Guilder's house),"1357, North Genesee Avenue, West Hollywood, Los Angeles County, California, 90046, United States of America",34.09543342857143,-118.35826942857143
335,/title/tt0085333/,,"Mobico, 24290 Valencia Boulevard, Santa Clarita, California, USA",(Mobico gas station),,,
336,/title/tt0085333/,,"1037 Buena Vista Street, South Pasadena, California, USA",(Arnies house),"1037, Buena Vista Street, Raymond Hill, South Pasadena, Los Angeles County, California, 91030, United States of America",34.12066330612245,-118.15642199999999
337,/title/tt0085333/,,"Oak Park High School - 899 Kanan Road, Oak Park, California, USA",,"Oak Park High School, Kanan Road, Thousand Oaks, Ventura County, California, 91377, United States of America",34.1802422,-118.7646228
338,/title/tt0085333/,,"Santa Clarita, California, USA",,"Santa Clarita, Los Angeles County, California, United States of America",34.3916641,-118.542586
339,/title/tt0085333/,,"Oak Park, California, USA",,"Oak Park, Ventura County, California, 91377, United States of America",34.1792025,-118.7619719
340,/title/tt0085333/,,"Irwindale, California, USA",,"Irwindale, Los Angeles County, California, 91702-3221, United States of America",34.1069927,-117.9342148
341,/title/tt0085333/,,"California, USA",,"California, United States of America",36.7014631,-118.7559974
342,/title/tt8068860/,,"Bethel Township, Delaware County, Pennsylvania, USA",(November 2018 - March 2019),"Bethel Township, Delaware County, Pennsylvania, 19060, United States of America",39.8485407,-75.48638868155015
343,/title/tt0862856/,,"Ladner, Delta, British Columbia, Canada",,"Ladner, Delta, Metro Vancouver Regional District, British Columbia, Canada",49.09699995,-123.07359779940421
344,/title/tt7945440/,,"Ontario, Canada",,"Ontario, Canada",50.000678,-86.000977
345,/title/tt0072271/,,"Bilbo's Texas Landmark - 1073 State Highway 304, Bastrop, Texas, USA",(gas station and BBQ shack),,,
346,/title/tt0072271/,,"Round Rock, Texas, USA",,"Round Rock, Williamson County, Texas, United States of America",30.508235,-97.6788934
347,/title/tt0072271/,,"Watterson, Texas, USA",(slaughter house),"Watterson, Bastrop County, Texas, United States of America",29.9887048,-97.3882242
348,/title/tt0072271/,,"1010 King Court, Kingsland, Texas, USA",(present location of farmhouse),"Grand Central Cafe & Club Car Lounge, 1010, King Court, Kingsland, Llano County, Texas, 78639, United States of America",30.6602,-98.437107
349,/title/tt0072271/,,USA,,United States,39.7837304,-100.4458825
350,/title/tt0072271/,,"Austin Studios - 1901 E. 51st Street, Austin, Texas, USA",(studio),,,
351,/title/tt0083907/,,"Detroit, Michigan, USA",,"Detroit, Wayne County, Michigan, United States of America",42.3315509,-83.0466403
352,/title/tt0083907/,,"Knoxville, Tennessee, USA",,"Knoxville, Knox County, Tennessee, United States of America",35.9603948,-83.9210261
353,/title/tt0083907/,,"Tennessee, USA",,"Tennessee, United States of America",35.7730076,-86.2820081
354,/title/tt0289043/,,"Pinewood Studios, Iver Heath, Buckinghamshire, England, UK",,"Pinewood Studios, Pinewood Green, Iver, Iver Heath, Buckinghamshire, South East, England, SL0 0QJ, United Kingdom",51.54831515,-0.5346765566753087
355,/title/tt0289043/,,"St. Thomas' Hospital, Lambeth, London, England, UK",,"St Thomas' Hospital, Westminster Bridge Road, Lambeth, London Borough of Lambeth, London, Greater London, England, SE1 7EH, United Kingdom",51.49906445,-0.11866052074294581
356,/title/tt0289043/,,"Ennerdale Water, Lake District, Cumbria, England, UK",(ending scenes),,,
357,/title/tt0289043/,,"Carland Cross Wind Farm, Mitchell, Cornwall, England, UK",,,,
358,/title/tt0289043/,,"Piccadilly Circus, Piccadilly, London, England, UK",,"Piccadilly Circus, St. James's, Fitzrovia, City of Westminster, London, Greater London, England, SW1Y 4QE, United Kingdom",51.5098192,-0.1345484
359,/title/tt0289043/,,"Waverley Abbey, Surrey, England, UK",(stop on the road),"Waverley Abbey, Waverley Lane, Compton, Farnham, Waverley, Surrey, South East, England, GU9 8EP, United Kingdom",51.2000094,-0.7592816186816365
360,/title/tt0289043/,,"Trellick Tower, Golborne Road, Notting Hill, London, England, UK",,,,
361,/title/tt0289043/,,"Bank, London, England, UK",,"Bank, Mansion House Place, Barbican, City of London, Greater London, England, EC3V 3LA, United Kingdom",51.5131048,-0.0893749
362,/title/tt0289043/,,"Canary Wharf, Isle of Dogs, London, England, UK",,"Canary Wharf, Isle of Dogs, London Borough of Tower Hamlets, London, Greater London, England, E14 5AX, United Kingdom",51.5048954,-0.0190006
363,/title/tt0289043/,,"London, England, UK",,"London, Greater London, England, United Kingdom",51.5073219,-0.1276474
364,/title/tt0289043/,,"Canary Wharf Underground Station, Canary Wharf, Isle of Dogs, London, England, UK",,"Adam, Reuters Plaza, Canary Wharf, Isle of Dogs, London Borough of Tower Hamlets, London, Greater London, England, E14 5AJ, United Kingdom",51.5037578,-0.0192977
365,/title/tt0289043/,,"Tottenham Court Road, Bloomsbury, London, England, UK",,"Tottenham Court Road, Charing Cross Road, St Giles, Bloomsbury, London Borough of Camden, London, Greater London, England, WC2H 0LA, United Kingdom",51.5156503,-0.1302418
366,/title/tt0289043/,,"Horse Guard's Parade, St. James's, London, England, UK",,,,
367,/title/tt0289043/,,Germany,(some scenes),Deutschland,51.0834196,10.4234469
368,/title/tt0289043/,,"Waterloo Place, London, England, UK",(Jim stops to pick up banknotes),"Waterloo Place, St. James's, Covent Garden, City of Westminster, London, Greater London, England, SW1Y 5NG, United Kingdom",51.5072238,-0.132373
369,/title/tt0289043/,,UK,,United Kingdom,54.7023545,-3.2765753
370,/title/tt0373883/,,"Griffith Park - 4730 Crystal Springs Drive, Los Angeles, California, USA",(Old Zoo Creekbed),,,
371,/title/tt0373883/,,"Building 4, Veterans Hospital - 1611 Plummer Street, North Hills, Los Angeles, California, USA",(sanitarium),,,
372,/title/tt0373883/,,"Los Angeles, California, USA",,"Los Angeles, Los Angeles County, California, United States of America",34.0536909,-118.2427666
373,/title/tt0373883/,,"Veterans Hospital - 1611 Plummer Street, North Hills, Los Angeles, California, USA",(as Smiths Grove),,,
374,/title/tt0373883/,,"2218 S Harvard Blvd, Los Angeles, California, USA",(Myers house/Strode living room),"2218, South Harvard Boulevard, Adams-Normandie, Los Angeles, Los Angeles County, California, 90018, United States of America",34.03585993877551,-118.3064302244898
375,/title/tt0373883/,,"South Pasadena, California, USA",,"South Pasadena, Los Angeles County, California, 91030, United States of America",34.1133062,-118.1478291
376,/title/tt0373883/,,"Altadena, California, USA",,"Altadena, Los Angeles County, California, 91001, United States of America",34.1863161,-118.1352329
377,/title/tt0373883/,,"Fair Oaks Burger - 2560 N Fair Oaks Ave, Altadena, California, USA",(as Haddonfield Char-Broiled Burger),,,
378,/title/tt3416742/,,New Zealand,,New Zealand / Aotearoa,-41.5000831,172.8344077
379,/title/tt3416742/,,"Glassons, 80 Cuba St, Te Aro, Wellington, New Zealand",(Example of Deacon's rebellious side),,,
380,/title/tt3416742/,,"58 Tory St, Te Aro, Wellington, New Zealand",(The guys meet Nick's friend Stu),"58, Tory Street, Te Aro, Wellington, Wellington City, Wellington, 6011, New Zealand",-41.2941932,174.7805746
381,/title/tt3416742/,,"Mr Thank You, 131 Manners St, Te Aro, Wellington, New Zealand",(Insert shot),,,
382,/title/tt3416742/,,"Rita Angus Retirement Village, 66 Coutts St, Kilbirnie, Wellington, New Zealand",(Viago gazes at his ex-girlfriend Katherine through the window),,,
383,/title/tt3416742/,,"Yeung Shing Restaurant, 296 Willis St, Aro Valley, Wellington, New Zealand",(Nick tries to convince Stu that he's eating worms),,,
384,/title/tt3416742/,,"Victoria Bowling Club 125 Pirie St, Mount Victoria, Wellington, New Zealand","(The Unholy Masquerade at ""The Cathedral of Despair"")",,,
385,/title/tt0384537/,,"St. George, New Brunswick, Canada",(school),"St. George, Charlotte County, New Brunswick, Canada",45.1275604,-66.8269836
386,/title/tt0384537/,,"Hamilton, Ontario, Canada",,"Hamilton, Golden Horseshoe, Ontario, L8P 0B3, Canada",43.2560802,-79.8728583
387,/title/tt0384537/,,"St. Thomas, Ontario, Canada",,"St. Thomas, Southwestern Ontario, Ontario, N5P 2X5, Canada",42.779022,-81.1929882
388,/title/tt0384537/,,"Winnipeg, Manitoba, Canada",,"Winnipeg, Winnipeg (city), Manitoba, Canada",49.8955367,-97.1384584
389,/title/tt0384537/,,"Burford Township, Ontario, Canada",,"Burford, Brant County, Southwestern Ontario, Ontario, N0E 1A0, Canada",43.1032142,-80.4292701
390,/title/tt0384537/,,"Brampton, Ontario, Canada",,"Brampton, Peel Region, Golden Horseshoe, Ontario, Canada",43.6858146,-79.7599337
391,/title/tt0116367/,,"Barstow, California, USA",,"Barstow, San Bernardino County, California, United States of America",34.8957684,-117.0172077
392,/title/tt0116367/,,"Lancaster, California, USA",,"Lancaster, Los Angeles County, California, United States of America",34.6981064,-118.1366153
393,/title/tt0116367/,,"Redmond, Washington, USA",,"Redmond, King County, Washington, United States of America",47.6694141,-122.1238767
394,/title/tt5715874/,,"Christ Hospital, Cincinnati, Ohio, USA",(Hospital Scenes),"The Christ Hospital, 2139, Auburn Avenue, Mount Auburn Historic District, Mount Auburn, Cincinnati, Hamilton County, Ohio, 45219, United States of America",39.120838750000004,-84.51111281517443
395,/title/tt5715874/,,"Covington, Kentucky, USA",(Scenes on river bank),"Covington, Kenton County, Kentucky, United States of America",39.0836224,-84.508371
396,/title/tt5715874/,,"Hilton Cincinnati Netherland Plaza's Hall of Mirrors, Cincinnati, Ohio, USA",(Banquet scene),,,
397,/title/tt5715874/,,"Northside, Cincinnati, Ohio, USA",,"Northside, Cincinnati, Hamilton County, Ohio, 48233, United States of America",39.1634176,-84.5398743
398,/title/tt5715874/,,"Ohio, USA",,"Ohio, United States of America",40.2253569,-82.6881395
399,/title/tt3921180/,,"Los Angeles, California, USA",,"Los Angeles, Los Angeles County, California, United States of America",34.0536909,-118.2427666
400,/title/tt3921180/,,"Atlanta, Georgia, USA",(Season 3),"Atlanta, Georgia, United States of America",33.7490987,-84.3901849
401,/title/tt0119081/,,"D Stage, Pinewood Studios, Iver Heath, Buckinghamshire, England, UK",(gravity couch bay - Miller talks about Burning Man and DJ tells him the Latin translation; tattered umbilicus),,,
402,/title/tt0119081/,,"Pinewood Studios, Iver Heath, Buckinghamshire, England, UK",(studio),"Pinewood Studios, Pinewood Green, Iver, Iver Heath, Buckinghamshire, South East, England, SL0 0QJ, United Kingdom",51.54831515,-0.5346765566753087
403,/title/tt0074285/,,"Pier Avenue Junior High School - 1645 Valley Drive, Hermosa Beach, California, USA",(Hermosa Beach Community Center) (Bates High School),,,
404,/title/tt0074285/,,"Vernon, California, USA",(Bucket of Blood from Pig Farm),"Vernon, Los Angeles County, California, 90058, United States of America",34.007135,-118.22525
405,/title/tt0074285/,,"Cahuenga Branch - Los Angeles Public Library, 4591 Santa Monica Boulevard, Los Angeles, California, USA",(library scene),"Cahuenga Branch Los Angeles Public Library, 4591, Santa Monica Boulevard, East Hollywood, Los Angeles, Los Angeles County, California, 90029-1831, United States of America",34.0911209,-118.2889644
406,/title/tt0074285/,,"Culver Studios - 9336 W. Washington Blvd., Culver City, California, USA",(studio) (interiors),,,
407,/title/tt0074285/,,"Los Angeles, California, USA",,"Los Angeles, Los Angeles County, California, United States of America",34.0536909,-118.2427666
408,/title/tt0074285/,,"San Fernando, California, USA",,"San Fernando, Los Angeles County, California, 91340, United States of America",34.28497,-118.437652
409,/title/tt0074285/,,"California, USA",,"California, United States of America",36.7014631,-118.7559974
410,/title/tt0074285/,,"910 E Main St, Santa Paula, California, USA",(Tommy and the boys shop for tuxedos),"910, East Main Street, Kevet, Santa Paula, Ventura County, California, 93060, United States of America",34.353372285714286,-119.06150997142856
411,/title/tt0074285/,,"908 E Main St, Santa Paula, California, USA",(Seeber's Prescriptions where Carrie buys lipstick),"908, East Main Street, Kevet, Santa Paula, Ventura County, California, 93060, United States of America",34.35336057142857,-119.06154734285714
412,/title/tt1519931/,,"Mahone Bay, Nova Scotia, Canada",,"Mahone Bay, Town of Mahone Bay, Lunenburg County, Nova Scotia, B0J 2E0, Canada",44.4488931,-64.387173
413,/title/tt1519931/,,"Lunenburg, Nova Scotia, Canada",,"Lunenburg, Lunenburg County, Nova Scotia, Canada",44.5070278,-64.4344556
414,/title/tt1519931/,,"Northwest Cove, Nova Scotia, Canada",,"Northwest Cove, Lunenburg County, Nova Scotia, B0J 1T0, Canada",44.5332275,-64.0245441
415,/title/tt0360486/,,"17729 N Indian Canyon Dr, Palm Springs, California, USA",(Parking lot where car gets stolen),"17729, North Indian Canyon Drive, Palm Springs, Riverside County, California, 92258, United States of America",33.920644462497926,-116.5452106548086
416,/title/tt0360486/,,"St. Vincent Catholic Church - 621 W. Adams Blvd., Los Angeles, California, USA",,,,
417,/title/tt0360486/,,"Eagle Mountain, California, USA",,"Eagle Mountain, Riverside County, California, United States of America",33.8575137,-115.4872075
418,/title/tt0360486/,,"216 W 8th St. Los Angeles, California, USA",(Street attack scene),"216, West 8th Street, Historic Core District, Downtown, Los Angeles, Los Angeles County, California, 90014, United States of America",34.04312536842105,-118.2538587368421
419,/title/tt0360486/,,"Los Angeles Center Studios - 450 S. Bixel Street, Downtown, Los Angeles, California, USA",(studio),,,
420,/title/tt0360486/,,"Stage 16, Warner Brothers Burbank Studios - 4000 Warner Boulevard, Burbank, California, USA",,,,
421,/title/tt0360486/,,"Stage 20, Warner Brothers Burbank Studios - 4000 Warner Boulevard, Burbank, California, USA",,,,
422,/title/tt5442430/,,"Shepperton Studios, Studios Road, Shepperton, Surrey, England, UK",(studio),,,
423,/title/tt1179056/,,"John Hersey High School, Arlington Heights, Illinois, USA",(high school scenes),"John Hersey High School, 1900, East Thomas Street, Arlington Heights, Wheeling Township, Cook County, Illinois, 60004, United States of America",42.10432975,-87.9586169361237
424,/title/tt1179056/,,"Chicago, Illinois, USA",,"Chicago, Cook County, Illinois, United States of America",41.8755616,-87.6244212
425,/title/tt1179056/,,"Orland Park, Illinois, USA",,"Orland Park, Orland Township, Cook County, Illinois, 60462, United States of America",41.630663,-87.8536288
426,/title/tt1179056/,,"City Methodist Church, Gary, Indiana, USA",,,,
427,/title/tt1179056/,,"California, USA",,"California, United States of America",36.7014631,-118.7559974
428,/title/tt1179056/,,"Lake Forest, Illinois, USA",,"Lake Forest, Illinois, 60045, United States of America",42.2586342,-87.840625
429,/title/tt1179056/,,"Washington St & 6th Ave, Gary, Indiana, USA",,"6, Washington Street, Southeast Grove, Lake County, Indiana, 46307, United States of America",41.343286,-87.33744791666666
430,/title/tt1179056/,,"Sherman Oaks, Los Angeles, California, USA",,"Sherman Oaks, Los Angeles, Los Angeles County, California, 91403, United States of America",34.1508718,-118.4489865
431,/title/tt1179056/,,USA,,United States,39.7837304,-100.4458825
432,/title/tt0482606/,,"Florence, South Carolina, USA",,"Florence, Florence County, South Carolina, United States of America",34.1984435,-79.7671658
433,/title/tt5580540/,,"27528 N Weeping Willow Drive, Santa Clarita California, USA",(Hammond house exteriors),"27528, North Weeping Willow Drive, Santa Clarita, Los Angeles County, California, 91354, United States of America",34.44127269650939,-118.55541954610771
434,/title/tt4160708/,,"2488 Buena Vista Street, Detroit, Michigan, USA",(exteriors only),,,
435,/title/tt3235888/,,"Clark's Ice Cream and Yogurt, Berkley, Michigan, USA",,"Clark's Ice Cream & Yogurt, 3312, 12 Mile Road, Berkley, Oakland County, Michigan, 48072, United States of America",42.5031837,-83.19263383906764
436,/title/tt3235888/,,"Clawson High School, Clawson, Michigan, USA",(pool scene),"Clawson High School, 101, John M Avenue, Clawson, Oakland County, Michigan, 48017, United States of America",42.53570275,-83.1486017618758
437,/title/tt3235888/,,"University of Detroit - 4001 W. McNichols Road, Detroit, Michigan, USA",,,,
438,/title/tt3235888/,,"Trafalgar Way Sterling Heights, Michigan, USA",(Jay Height's house),"Trafalgar Way, Sterling Heights, Macomb County, Michigan, 48312, United States of America",42.578422,-83.023456
439,/title/tt3235888/,,"Packard Plant, Detroit, Michigan, USA",,"Packard Automotive Plant, Hyde Street, Gratiot Town/Kettering, Midtown, Detroit, Wayne County, Michigan, 48211, United States of America",42.37773715,-83.02731451817237
440,/title/tt3235888/,,"Jaycee Park, Troy, Michigan, USA",(Hugh's Backyard),"Jaycee Park, Big Beaver, Troy, Oakland County, Michigan, United States of America",42.596618500000005,-83.1158113219434
441,/title/tt1922777/,,"Los Angeles, California, USA",,"Los Angeles, Los Angeles County, California, United States of America",34.0536909,-118.2427666
442,/title/tt1922777/,,"Kirby Hill, Muttontown, New York, USA","(The old Oswalt residence the family moves back to - ""House Painting '12"")",,,
443,/title/tt5814060/,,Romania,,România,45.9852129,24.6859225
444,/title/tt5814060/,,"Bucharest, Romania",(studio),"Municipiul București, România",44.4361414,26.1027202
445,/title/tt5814060/,,"Sighisoara, Mures, Romania",,"Sighișoara, Mureș, 545400, România",46.2201975,24.7934573
446,/title/tt5814060/,,"Carpathian Mountains, Romania",,"Carpathian Mountains, Toplița, Harghita, 535705, România",47.0005707,25.5017192
447,/title/tt5814060/,,"Castel Film Studios, Bucharest, Romania",(studio),,,
448,/title/tt5814060/,,"Walt Disney's Golden Oak Ranch - 19802 Placerita Canyon Road, Newhall, California, USA",(Reshoots),,,
449,/title/tt4530422/,,Hatfield House Estate,,"Jobcentre Plus, St Cuthbert's Road, Peterlee, County Durham, North East England, England, SR8 1PB, United Kingdom",54.757486549999996,-1.3340639633481606
450,/title/tt0298130/,,"Port Townsend, Washington, USA",,"Port Townsend, Jefferson County, Washington, United States of America",48.1185325,-122.7679629
451,/title/tt0298130/,,"Newport, Oregon, USA",(Moesko Island lighthouse),"Newport, Lincoln County, Oregon, United States of America",44.636755,-124.053442
452,/title/tt0298130/,,"Monroe, Washington, USA",,"Monroe, Snohomish County, Washington, United States of America",47.8552259,-121.9713359
453,/title/tt0298130/,,"Boston, Massachusetts, USA",,"Boston, Suffolk County, Massachusetts, United States of America",42.3602534,-71.0582912
454,/title/tt0298130/,,"Deception Pass, Whidbey Island, Washington, USA",,,,
455,/title/tt0298130/,,"Stanwood, Washington, USA",,"Stanwood, Snohomish County, Washington, United States of America",48.2452535,-122.34953363993208
456,/title/tt0298130/,,"Camp Firwood - 4605 Cable Street, Bellingham, Washington, USA",,,,
457,/title/tt0298130/,,"Malibou Lake, Agoura, California, USA",(Lake School scene),,,
458,/title/tt0298130/,,"Los Angeles, California, USA",,"Los Angeles, Los Angeles County, California, United States of America",34.0536909,-118.2427666
459,/title/tt0298130/,,"Sony Pictures Studios - 10202 W. Washington Blvd., Culver City, California, USA",(studio),,,
460,/title/tt0298130/,,"Orange County Register - 625 N. Grand Avenue, Santa Ana, California, USA",(newsroom scenes),,,
461,/title/tt2708480/,,"Budapest, Hungary",(studio) (studio and location),"Budapest, Közép-Magyarország, 1011, Magyarország",47.4983815,19.0404707
462,/title/tt2708480/,,Hungary,,Magyarország,47.1817585,19.5060937
463,/title/tt2708480/,,"British Columbia, Canada",(Season 2),"British Columbia, Canada",55.001251,-125.002441
464,/title/tt5109784/,,Canada,,Canada,61.0666922,-107.9917071
465,/title/tt3099498/,,"Santa Clarita, California, USA",,"Santa Clarita, Los Angeles County, California, United States of America",34.3916641,-118.542586
466,/title/tt0110148/,,"Destrehan, Louisiana, USA",,"Destrehan, St. Charles Parish, Louisiana, 70047, United States of America",29.960933,-90.3705407077716
467,/title/tt0110148/,,"Show Dogs Fine Sausages - 1020 Market Street, San Francisco, California, USA","(interview) (St. Martin Hotel, where Interview takes place.)",,,
468,/title/tt0110148/,,"Shreveport, Louisiana, USA",,"Shreveport, Caddo Parish, Louisiana, United States of America",32.5221828,-93.7651944
469,/title/tt0110148/,,"Palais-Royal, Place du Palais Royal, Paris 1, Paris, France",,,,
470,/title/tt0110148/,,"Vacherie, Louisiana, USA",,"Vacherie, North Vacherie, St. James Parish, Louisiana, 70763, United States of America",30.0110358,-90.7195356
471,/title/tt0110148/,,"Deptford, London, England, UK",,"Deptford, London Borough of Lewisham, London, Greater London, England, SE10 8ND, United Kingdom",51.4758453,-0.0215164
472,/title/tt0110148/,,"Marble Hill Park, Richmond, Surrey, England, UK",,,,
473,/title/tt0110148/,,"St Paul's Church, Deptford High Street, Mary Ann Gardens, Deptford, London, England, UK",(New Orelans church),,,
474,/title/tt0110148/,,"Whitechapel, London, England, UK",,"Whitechapel, London Borough of Tower Hamlets, London, Greater London, England, E1 1DE, United Kingdom",51.5186227,-0.0620807
475,/title/tt0110148/,,"Louisiana, USA",,"Louisiana, United States of America",30.8703881,-92.007126
476,/title/tt0110148/,,"Paris, France",,"Paris, Île-de-France, France métropolitaine, 75004, France",48.8566969,2.3514616
477,/title/tt0110148/,,"Market Street, San Francisco, California, USA",,"Market Street, Castro District, San Francisco, San Francisco City and County, California, 94143, United States of America",37.7631262,-122.4344323
478,/title/tt0110148/,,"Laurel Valley, Thibodaux, Louisiana, USA",,,,
479,/title/tt0056869/,,"17110 Bodega Lane, Bodega, California, USA",(schoolhouse),"17110, Bodega Lane, Bodega, Sonoma County, California, 94922, United States of America",38.34494639186937,-122.97274353048985
480,/title/tt0056869/,,"Union Square, San Francisco, California, USA",,"Union Square, San Francisco, San Francisco City and County, California, United States of America",37.7879363,-122.40751740318035
481,/title/tt0056869/,,"Venice Canals, Venice, Los Angeles, California, USA",,,,
482,/title/tt0056869/,,"Stage 32, Universal Studios - 100 Universal City Plaza, Universal City, California, USA",,,,
483,/title/tt0056869/,,"Stage 28, Universal Studios - 100 Universal City Plaza, Universal City, California, USA",(studio),,,
484,/title/tt0063522/,,"Los Angeles, California, USA",,"Los Angeles, Los Angeles County, California, United States of America",34.0536909,-118.2427666
485,/title/tt0063522/,,"New York City, New York, USA",,"New York, United States of America",40.7127281,-74.0060152
486,/title/tt0063522/,,"2nd Ave & East 60th Street, New York City, New York, USA",(Hutch and Rosemary walk southeast on 60th towards the intersection - Hutch asks about a death in Rosemary's building),"2, East 60th Street, Upper East Side, Manhattan Community Board 8, Manhattan, New York County, New York, 10022, United States of America",40.764766,-73.972465
487,/title/tt0063522/,,"5th Ave & W 55th St, New York City, New York, USA",(Rosemary walks into traffic heading nothwest across 5th Avenue),,,
488,/title/tt0063522/,,"Park Ave & E 67th St, New York City, New York, USA",(Rosemary takes taxi to see Dr Hill - west side of intersection),,,
489,/title/tt0454841/,,"CLA Studios, Morocco",,"CLA Studios, RN10;RN9, Ouarzazate ورزازات, caïdat de Ahl Ouarzazate, Pachalik d'Ouarzazate, Province de Ouarzazate ⵍⵉⵇⵍⵉⵎ ⵏ ⵡⴰⵔⵣⴰⵣⴰⵜ إقليم ورززات, Drâa-Tafilalet ⴷⴰⵔⵄⴰ-ⵜⴰⴼⵉⵍⴰⵍⵜ درعة تافيلالت, 45000, Maroc",30.94178845,-6.986725073263742
490,/title/tt2274648/,,"Wells Cathedral, Wells, Somerset, England, UK",,"Wells Cathedral, Cathedral Green, Wells, Mendip, Somerset, South West England, England, BA5 2UG, United Kingdom",51.21022295,-2.643488481872738
491,/title/tt2274648/,,Bulgaria,,Бългaрия,42.6073975,25.4856617
492,/title/tt2274648/,,"Wells, Somerset, England, UK",,"Wells, Somerset, South West England, England, BA5 2RF, United Kingdom",51.2094511,-2.6451203
493,/title/tt2274648/,,UK,,United Kingdom,54.7023545,-3.2765753
494,/title/tt0099864/,,"Buntzen Powerhouse 2, Buntzen Lake, Anmore, British Columbia, Canada","(lake, sewer building) (coordinates: 49°22'13.8""N, 122°52'25.0""W)",,,
495,/title/tt0099864/,,"St. Thomas Aquinas High School, 524 6th Street W, North Vancouver, British Columbia, Canada",(Derry Community Library; exterior),,,
496,/title/tt0099864/,,"417 Heatley Avenue, Vancouver, British Columbia, Canada",(young Beverly's house),"Heatley Avenue, Strathcona, Vancouver, Metro Vancouver Regional District, British Columbia, V6A 3G1, Canada",49.2834365,-123.0895906
497,/title/tt0099864/,,"3rd Street and Liverpool Street, New Westminster, British Columbia, Canada",(storm drain),,,
498,/title/tt0099864/,,"652 Columbia Street, New Westminster, British Columbia, Canada",(Paramount Theatre),"Paramount Gentlemen's Club, 652, Columbia Street, Downtown, New Westminster, Metro Vancouver Regional District, British Columbia, V3M 3L9, Canada",49.2023823,-122.9089811
499,/title/tt0099864/,,"Heritage Village Museum, Burnaby, British Columbia, Canada",(Pennywise in the photo album),,,
500,/title/tt0099864/,,"231 Third Street, New Westminster, British Columbia, Canada",(young Bill's house),"Third Street, Queens Park, New Westminster, Metro Vancouver Regional District, British Columbia, V3L 1G2, Canada",49.2123572,-122.9125175
501,/title/tt0099864/,,"505 Railway Street, Vancouver, BC V6A 1E1, Canada",(adult Ben's loft),"Railway Street, Japantown, Strathcona, Vancouver, Metro Vancouver Regional District, British Columbia, V6A 3C3, Canada",49.2846419,-123.0927314
502,/title/tt0099864/,,"2328 SW Marine Road, Vancouver, British Columbia, Canada",(Eddie's house in Great Neck),,,
503,/title/tt0099864/,,"1171 Keefer Street, Vancouver, British Columbia, Canada",(Mike's house),"Keefer Street, Chinatown, Strathcona, Vancouver, Metro Vancouver Regional District, British Columbia, V6A 1X3, Canada",49.2795071,-123.1009992
504,/title/tt0099864/,,"3796 McGill Street, Burnaby, British Columbia, Canada",(Laurie Anne's house),"McGill Street, Burnaby Heights, Burnaby, Metro Vancouver Regional District, British Columbia, V5C 4P5, Canada",49.2882972,-123.0140356
505,/title/tt0099864/,,"Woodlands Hospital, New Westminster, British Columbia, Canada",(mental asylum),,,
506,/title/tt0021814/,,"Stage 12, Universal Studios - 100 Universal City Plaza, Universal City, California, USA",(Grand Staircase/castle interior/interior of Carfax Abbey),,,
507,/title/tt0021814/,,"Vasquez Rocks Natural Area Park - 10700 W. Escondido Canyon Rd., Agua Dulce, California, USA",(Borgo Pass),,,
508,/title/tt6998518/,,Belgium,,België / Belgique / Belgien,50.6402809,4.6667145
509,/title/tt6998518/,,"London, England, UK",,"London, Greater London, England, United Kingdom",51.5073219,-0.1276474
510,/title/tt0365748/,,"37 Abbots Gardens, East Finchley, London, England, UK",(exteriors: Barbara and Philip's house),"Abbots Gardens, Hampstead Garden Suburb, London Borough of Barnet, London, Greater London, England, N2 0JQ, United Kingdom",51.5886346,-0.1713215
511,/title/tt0365748/,,"Deptford, London, England, UK",,"Deptford, London Borough of Lewisham, London, Greater London, England, SE10 8ND, United Kingdom",51.4758453,-0.0215164
512,/title/tt0365748/,,"Garland Electronics - 763-765 High Road, North Finchley, London, England, UK",(as Foree Electric - shop Shaun works at),,,
513,/title/tt0365748/,,"Cunningham House, Hillcrest, Highgate, London, England, UK",(Liz's flat),"Cunningham House, Hillcrest, Highgate, London Borough of Haringey, London, Greater London, England, N6 4HA, United Kingdom",51.57538005,-0.14945914999999999
514,/title/tt0365748/,,"Hornsey, London, England, UK",,"Hornsey, London Borough of Haringey, London, Greater London, England, N8 7PB, United Kingdom",51.5873645,-0.1209667
515,/title/tt0365748/,,"Lyonsdown Avenue, New Barnet, London, England, UK",(Philip turns into a zombie/Jaguar stunt shots),"Lyonsdown Avenue, Oakleigh Park, New Barnet, London Borough of Barnet, London, Greater London, England, EN5 1DU, United Kingdom",51.6418049,-0.177358
516,/title/tt0365748/,,"ASDA - 2-20 Western Road, Park Royal, London, England, UK",(Landis supermarket),"Asda, 2-20, Western Road, Park Royal, London Borough of Ealing, London, Greater London, England, NW10 7LW, United Kingdom",51.52854375,-0.27023265631291377
517,/title/tt0120611/,,"St. Mary's Hospital - 1050 Linden Avenue, Long Beach, California, USA",,,,
518,/title/tt0120611/,,"California, USA",,"California, United States of America",36.7014631,-118.7559974
519,/title/tt0120611/,,"Moscow, Russia",,"Москва, Центральный административный округ, Москва, Центральный федеральный округ, Россия",55.7504461,37.6174943
520,/title/tt0120611/,,"Death Valley National Park, California, USA",,"Death Valley National Park, Inyo County, California, 92328, United States of America",36.4914385,-117.10229360771876
521,/title/tt0120611/,,"Chester Williams Building - 215 W. 5th. Street, Los Angeles, California, USA",(Karen's apartment building),,,
522,/title/tt1974419/,,"Los Angeles, California, USA",,"Los Angeles, Los Angeles County, California, United States of America",34.0536909,-118.2427666
523,/title/tt1974419/,,"Sunset Boulevard, Los Angeles, California, USA",(Dean takes Jesse for a drive),"Sunset Boulevard, Los Angeles, Los Angeles County, California, 90026-3148, United States of America",34.0814497,-118.2712815
524,/title/tt1974419/,,"The Pasada Motel, 3625 E. Colorado Blvd, Pasadena, California, USA",(Jesse's motel),,,
525,/title/tt1974419/,,"California, USA",,"California, United States of America",36.7014631,-118.7559974
526,/title/tt1974419/,,USA,,United States,39.7837304,-100.4458825
527,/title/tt1974419/,,"Musso & Frank Grill - 6667 Hollywood Blvd., Hollywood, Los Angeles, California, USA",(Dinner scene with Roberto),"Musso & Frank, 6667, Hollywood Boulevard, Whitley Heights Historic District, Hollywood, Los Angeles, Los Angeles County, California, 90028, United States of America",34.101763,-118.3350264
528,/title/tt1314655/,,"Bay St and Adelaide St, Toronto, Ontario, Canada",(exteriors: office tower),,,
529,/title/tt1314655/,,"Pennsylvania, USA",,"Pennsylvania, United States of America",40.9699889,-77.7278831
530,/title/tt1314655/,,"CIBC, Toronto, Ontario, Canada",(bank scenes),"CIBC, 750, Lawrence Avenue West, Eglinton—Lawrence, North York, Toronto, Golden Horseshoe, Ontario, M6A 3B4, Canada",43.715918,-79.44985605089079
531,/title/tt1314655/,,"Bay Adelaide Centre - 333 Bay St, Toronto, Ontario, Canada","(office building interiors, elevator banks)",,,
532,/title/tt1314655/,,Canada,,Canada,61.0666922,-107.9917071
533,/title/tt1441395/,,"Tantallon Castle, Auldhame, East Lothian, Scotland, UK",(castle ruins),"Tantallon Castle, A198, Auldhame, Tyninghame, East Lothian, Scotland, EH39 5PW, United Kingdom",56.056490999999994,-2.650709343406835
534,/title/tt1441395/,,"Buchanan Galleries, 220 Buchanan Street, Glasgow, Scotland, UK",(shopping centre),,,
535,/title/tt1441395/,,"Dumbreck Marsh, Kilsyth, Scotland, UK",(Disfigured Man Escapes),,,
536,/title/tt1441395/,,"Auchmithie, Angus, Scotland, UK",(seaside scene),"Auchmithie, Angus, Scotland, DD11 5SY, United Kingdom",56.5890198,-2.523799
537,/title/tt1441395/,,"Livingston, West Lothian, Scotland, UK",(night club),"Livingston, West Lothian, Scotland, EH54 6HS, United Kingdom",55.8831932,-3.5149461
538,/title/tt1441395/,,"Sauchiehall Street, Glasgow, Strathclyde, Scotland, UK",,,,
539,/title/tt1441395/,,"Lochgoilhead, Argyll and Bute, Scotland, UK",(exterior: forest),"Lochgoilhead, Argyll and Bute, Scotland, PA24 8AA, United Kingdom",56.171304,-4.9018167
540,/title/tt1441395/,,"George Street, Glasgow, Strathclyde, Scotland, UK",,,,
541,/title/tt1441395/,,"Wishaw, North Lanarkshire, Scotland, UK",,"Wishaw, North Lanarkshire, Scotland, ML2, United Kingdom",55.7743458,-3.9184134
542,/title/tt1441395/,,"Celtic Park, Glasgow, Strathclyde, Scotland, UK",,,,
543,/title/tt1441395/,,"Glasgow, Scotland, UK",(interior),"Glasgow, Glasgow City, Scotland, G2 9SA, United Kingdom",55.8609825,-4.2488787
544,/title/tt1441395/,,UK,,United Kingdom,54.7023545,-3.2765753
545,/title/tt0098084/,,"Hancock, Maine, USA",(The Creeds home),"Hancock County, Maine, United States of America",44.7135397,-68.2994753
546,/title/tt0098084/,,"Hancock, Maine, USA",,"Hancock County, Maine, United States of America",44.7135397,-68.2994753
547,/title/tt0098084/,,"Ellsworth, Maine, USA",,"Ellsworth, Hancock County, Maine, 04605, United States of America",44.5434831,-68.4201819
548,/title/tt1077368/,,"Start Point, Kingsbridge, Devon, England, UK",(stroll under cliffs),"Kingsbridge, South Hams, Devon, South West England, England, TQ7 1QA, United Kingdom",50.2848555,-3.7789738
549,/title/tt1077368/,,"Cornwall, England, UK",,"Cornwall, Broadoak, Cornwall, South West England, England, United Kingdom",50.443348900000004,-4.62465658489158
550,/title/tt1077368/,,"Mull, Argyll and Bute, Scotland, UK",,"Mull, Argyll and Bute, Scotland, United Kingdom",56.45969865,-5.862060446561373
551,/title/tt1077368/,,"Bourne Woods, Farnham, Surrey, England, UK",,,,
552,/title/tt0093177/,,"The Production Village Studio, Cricklewood Lane, Cricklewood, Barnet, London, England, UK",(studio) (interiors),,,
553,/title/tt0093177/,,"Cricklewood Railway Station, Cricklewood Lane, Cricklewood, Barnet, London, England, UK",(Kirsty and Steve kiss in the underpass),"Cricklewood Railway Station, Cricklewood Lane, London Borough of Barnet, London, Greater London, England, NW2 1HJ, United Kingdom",51.55862055,-0.21233042560483872
554,/title/tt0087363/,,"Colonial Street, Backlot, Universal Studios - 100 Universal City Plaza, Universal City, California, USA",,,,
555,/title/tt0087363/,,"Stage 15, Warner Brothers Burbank Studios - 4000 Warner Boulevard, Burbank, California, USA",,,,
556,/title/tt0087363/,,"Stage 26, Warner Brothers Burbank Studios - 4000 Warner Boulevard, Burbank, California, USA",,,,
557,/title/tt9419884/,,Norway,,"Norge, Namsos, Trøndelag, Norge",64.5731537,11.52803643954819
558,/title/tt5308322/,,"New Orleans, Louisiana, USA",,"New Orleans, Orleans Parish, Louisiana, United States of America",29.9499323,-90.0701156
559,/title/tt5308322/,,"Los Angeles, California, USA",,"Los Angeles, Los Angeles County, California, United States of America",34.0536909,-118.2427666
560,/title/tt5308322/,,"Audubon Clubhouse Café - 6500 Magazine Street, New Orleans, Louisiana, USA",(Restaurant scene with Tree and David Gelbman),,,
561,/title/tt5308322/,,"Charles E Young Dr E and Westholme Avenue, UCLA, Westwood, Los Angeles, California, USA","(Construction tunnel, first Tree Gelbman Death)",,,
562,/title/tt5308322/,,"Second Line Stages, New Orleans, Louisiana, USA",,,,
563,/title/tt6772950/,,"Tijuana, Baja California, Mexico",,"Tijuana, Municipio de Tijuana, Baja California, 22105, México",32.5010188,-116.9646629
564,/title/tt6772950/,,"Taco Chabelita - 2001 South Western Avenue, Los Angeles, California, USA",,,,
565,/title/tt0113253/,,"Gas Station Scene, Rush Valley, Utah, USA",,,,
566,/title/tt0113253/,,"956 Ramona Ave, Salt Lake City, Utah, USA",(Blankenship house),"956, Ramona Avenue, Sugar House, Salt Lake City, Salt Lake County, Utah, 84105, United States of America",40.7283987,-111.86355328516194
567,/title/tt0113253/,,"Queen of Angels Hospital - 2301 Bellevue Avenue, Los Angeles, California, USA",(Smith's Grove Sanitarium),,,
568,/title/tt0113253/,,"Primary Children's Hospital - 320 12th Ave, Salt Lake City, Utah, USA",(Haddonfield Memorial Hospital - interiors),,,
569,/title/tt0113253/,,"Gadsby Power Plant - N Temple & N 1300 W, Salt Lake City, Utah, USA",(Jamie escapes from Smith's Grove - above ground),,,
570,/title/tt0113253/,,"Central Valley Water Reclamation Facility - 800 Central Valley Road, Salt Lake City, Utah, USA",(Jamie escapes from Smith's Grove - underground),,,
571,/title/tt8695030/,,"Elizaville Deli - 573 Kerley Corners Rd, Elizaville, New York, USA",(diner's exteriors),,,
572,/title/tt8695030/,,"Ancram, New York, USA","(diner's interiors at West Taghkanic Diner, and woods scenes around Taghkanic Lake)","Ancram, Town of Ancram, Columbia County, New York, 12502, United States of America",42.0506467,-73.6362361
573,/title/tt8695030/,,"West Taghkanic Diner - 1016 NY-82, Ancram, New York, USA",(diner's interiors),,,
574,/title/tt8695030/,,"New York, USA",,"New York, United States of America",40.7127281,-74.0060152
575,/title/tt0100814/,,"Olancha, California, USA",,"Olancha, Inyo County, California, 93549, United States of America",36.270251,-117.9997187937556
576,/title/tt0120804/,,"Toronto, Ontario, Canada",(Raccoon City),"Toronto, Golden Horseshoe, Ontario, Canada",43.6534817,-79.3839347
577,/title/tt0120804/,,"Lindstedt Palace, Potsdam, Brandenburg, Germany",(Spencer mansion),,,
578,/title/tt8350360/,,"Los Angeles, California, USA",,"Los Angeles, Los Angeles County, California, United States of America",34.0536909,-118.2427666
579,/title/tt8350360/,,"Atlanta, Georgia, USA",,"Atlanta, Georgia, United States of America",33.7490987,-84.3901849
580,/title/tt8350360/,,USA,,United States,39.7837304,-100.4458825
581,/title/tt3843168/,,"Liberty Lake, Washington, USA",,"Liberty Lake, Spokane County, Washington, 99019, United States of America",47.6681145,-117.1048656
582,/title/tt3843168/,,"Medical Lake, Washington, USA",,"Medical Lake, Spokane County, Washington, 99022, United States of America",47.5727104,-117.6823915
583,/title/tt3843168/,,"Eastern Washington University, Cheney, Washington, USA",,"Eastern Washington University, Washington Court, Cheney, Spokane County, Washington, 99024, United States of America",47.49143095,-117.5859015088275
584,/title/tt3843168/,,"Former Kaiser Aluminum Mead Works - Hawthorne Rd. Spokane, Washington, USA",(various exteriors & interior sets),,,
585,/title/tt3843168/,,"Index, Washington, USA",,"Index, Snohomish County, Washington, United States of America",47.8208311,-121.5538914
586,/title/tt3843168/,,"Sprague, Washington, USA",,"Sprague, Lincoln County, Washington, United States of America",47.3001584,-117.9755065
587,/title/tt3843168/,,"Eastern State Hospital - Medical Lake, Washington, USA",,"Eastern State Hospital, Maple Street, Medical Lake, Spokane County, Washington, 99022, United States of America",47.571022400000004,-117.69747190364322
588,/title/tt4145384/,,"New Orleans, Louisiana, USA",(Season1),"New Orleans, Orleans Parish, Louisiana, United States of America",29.9499323,-90.0701156
589,/title/tt1038686/,,"Los Angeles, California, USA",,"Los Angeles, Los Angeles County, California, United States of America",34.0536909,-118.2427666
590,/title/tt2654620/,,"Hamilton, Ontario, Canada","(Downtown, Court House)","Hamilton, Golden Horseshoe, Ontario, L8P 0B3, Canada",43.2560802,-79.8728583
591,/title/tt2654620/,,"Cinespace Studios, Toronto, Ontario, Canada",,"Cinespace Film Studios, 777, Kipling Avenue, Etobicoke—Lakeshore, Etobicoke, Toronto, Golden Horseshoe, Ontario, M8Z 5G5, Canada",43.630009799999996,-79.52817339890174
592,/title/tt1582507/,,"Algonquin College, Ottawa, Ontario, Canada",(Woodshire High School),"Algonquin College, 1385, Woodroffe Avenue, Centrepointe, Nepean, College, Ottawa, Eastern Ontario, Ontario, K2G 1V8, Canada",45.349519599999994,-75.75572013966658
593,/title/tt1582507/,,"Ottawa, Ontario, Canada",,"Ottawa, Eastern Ontario, Ontario, K1P 1J1, Canada",45.421106,-75.690308
594,/title/tt6298000/,,"Santa Barbara, California, USA",,"Santa Barbara, Santa Barbara County, California, United States of America",34.4221319,-119.7026673
595,/title/tt6298000/,,"Seattle, Washington, USA",,"Seattle, King County, Washington, United States of America",47.6038321,-122.3300624
596,/title/tt0057729/,,"Hollywood Center Studios - 1040 N. Las Palmas Avenue, Hollywood, Los Angeles, California, USA",,"Hollywood Center Studios, Romaine Street, Hollywood, Los Angeles, Los Angeles County, California, 90038, United States of America",34.08981165,-118.33500930891499
597,/title/tt0816711/,,"Fort St.Elmo, Valletta, Malta",(as Jerusalem),"Fort St. Elmo, Misraħ Sant' Iermu, Valletta, Xlokk, VLT 1645, Malta",35.90197635,14.51884800624158
598,/title/tt0816711/,,"Grangemouth, Scotland, UK",(Lane driving out of Philadelphia),"Grangemouth, Falkirk, Scotland, FK3 8AZ, United Kingdom",56.0189027,-3.7230303
599,/title/tt0816711/,,"Vertical Flow Tanks, Hanningfield Water Treatment Plant, Canon Barns Road, West Hanningfield, Essex, England, UK",(Camp Humphreys - South Korean prison),,,
600,/title/tt0816711/,,"Budapest, Hungary",,"Budapest, Közép-Magyarország, 1011, Magyarország",47.4983815,19.0404707
601,/title/tt0816711/,,"Lulworth Cove, Weymouth, Dorset, England, UK",(Gerry Lane in speedboat scene and running up the beach into the arms of his family),,,
602,/title/tt0816711/,,"Cochrane Street, Glasgow, Strathclyde, Scotland, UK",(Lane's car stuck in traffic),,,
603,/title/tt0816711/,,"Heygate Estate, Southwark, London, England, UK",(Newark street scenes),"Elephant Park, London Borough of Southwark, London, Greater London, England, United Kingdom",51.4928222,-0.09629805358655374
604,/title/tt0816711/,,"George Street, Glasgow, Strathclyde, Scotland, UK",,,,
605,/title/tt0816711/,,Hungary,,Magyarország,47.1817585,19.5060937
606,/title/tt0816711/,,"Dunsfold Park, Dunsfold, Surrey, England, UK",,"Dunsfold Common Road, Dunsfold, Waverley, Surrey, South East, England, GU8 4NB, United Kingdom",51.1239747,-0.5615189
607,/title/tt0816711/,,"John Street, Glasgow, Strathclyde, Scotland, UK",,,,
608,/title/tt0816711/,,"London, England, UK",,"London, Greater London, England, United Kingdom",51.5073219,-0.1276474
609,/title/tt7069210/,,USA,(USA),United States,39.7837304,-100.4458825
610,/title/tt5734576/,,"New England Studios, Devens, Massachusetts, USA",,,,
611,/title/tt9086228/,,"Langley, British Columbia, Canada",(reshoots),"Township of Langley, Metro Vancouver Regional District, British Columbia, Canada",49.106471850000005,-122.5501311568147
612,/title/tt9086228/,,"Ardmore Studios - 44 James's Place East, Dublin, Ireland",(studio),,,
613,/title/tt5022702/,,"Alabama, USA",,"Alabama, United States of America",33.2588817,-86.8295337
614,/title/tt0082010/,,"The Black Swan, Martyr's Green, Cobham, Surrey, England, UK","(The Slaughtered Lamb pub, interior)",,,
615,/title/tt0082010/,,"Hay Bluff, Powys, Wales, UK",(Yorkshire moors/opening shots/Y junction where the boys are dropped off at the beginning of film),"Hay Bluff, Powys, Cymru / Wales, HR3 5RJ, United Kingdom",52.0229117,-3.1027414
616,/title/tt0082010/,,"Brecon Beacons, Powys, Wales, UK",,"Brecon Beacons National Park, Glyn Tarell, Powys, Cymru / Wales, United Kingdom",51.890195649999995,-3.468981068045408
617,/title/tt0082010/,,"Tottenham Court Road Underground Station, Tottenham Court Road, Bloomsbury, London, England, UK",(David chases Gerald Bringsley),,,
618,/title/tt0082010/,,"Winchester Walk, Clink Street, Southwark, London, England, UK",(alley where David is cornered by police),,,
619,/title/tt0082010/,,"Piccadilly, London, England, UK",,"Piccadilly, St. James's, Mayfair, City of Westminster, London, Greater London, England, W1J 9HW, United Kingdom",51.5090502,-0.1366425
620,/title/tt0082010/,,"Redcliffe Square, Kensington, London, England, UK",(outside Alex's flat),"Redcliffe Square, The Boltons, Earl's Court, Royal Borough of Kensington and Chelsea, London, Greater London, England, SW10 9DY, United Kingdom",51.486919,-0.1903891
621,/title/tt0082010/,,"London Zoo, Regent's Park, London, England, UK",(David wakes up after committing attacks),,,
622,/title/tt0082010/,,"Piccadilly Circus, Piccadilly, London, England, UK",(David phones his sister then tries to slit his wrists - climactic finale),"Piccadilly Circus, St. James's, Fitzrovia, City of Westminster, London, Greater London, England, SW1Y 4QE, United Kingdom",51.5098192,-0.1345484
623,/title/tt0082010/,,"Well Walk, East Heath Road, Hampstead Heath, Hampstead, London, England, UK",(Harry and Judith get out of the taxi just before David kills them),,,
624,/title/tt0082010/,,"Stony Stratford, Milton Keynes, UK",(King Henry pub and Penrith Tearooms),"Stony Stratford, Milton Keynes, South East, England, MK11 1LG, United Kingdom",52.0565724,-0.8501016
625,/title/tt0091419/,,"Albert R. Broccoli 007 Stage, Pinewood Studios, Iver Heath, Buckinghamshire, England, UK",,,,
626,/title/tt1648190/,,"Los Angeles, California, USA",,"Los Angeles, Los Angeles County, California, United States of America",34.0536909,-118.2427666
627,/title/tt1648190/,,"Cape Town, South Africa",,"Cape Town, City of Cape Town, Western Cape, 8001, South Africa",-33.928992,18.417396
628,/title/tt1648190/,,USA,,United States,39.7837304,-100.4458825
629,/title/tt8058874/,,"Chicago Illinois, USA",(street scenes),"Chicago, Cook County, Illinois, United States of America",41.8755616,-87.6244212
630,/title/tt5664636/,,"Atlanta, Georgia, USA",(location),"Atlanta, Georgia, United States of America",33.7490987,-84.3901849
631,/title/tt5664636/,,"1550 S Zack Hinton Pkwy, McDonough, Georgia, USA",(fred's),,,
632,/title/tt5664636/,,"Daniell Middle School- 2900 Scott Rd, Marietta, Georgia, USA",(Daniell Middle School),"Daniell Middle School, 2900, Scott Road, Cobb Place Manor, Georgia, 30066, United States of America",34.021431,-84.53118385645676
633,/title/tt5664636/,,"Vinings, Georgia, USA",(Trick-or-treating scenes),"Vinings, Georgia, 30339, United States of America",33.8648262,-84.4643744
634,/title/tt1262416/,,"Woodworth Middle School, Dearborn, Michigan, USA",(Woodsboro High School),"Woodworth Middle School, 4951, Ternes Street, Orchard Boulevard, Warrendale, Dearborn, Wayne County, Michigan, 48126, United States of America",42.3229125,-83.19021191202773
635,/title/tt1262416/,,"1007 Lincoln Avenue, Ann Arbor, Michigan, USA",(Olivia's house),"1007, Lincoln Avenue, North Burns Park, Ann Arbor, Washtenaw County, Michigan, 48104, United States of America",42.27030793877551,-83.7296826734694
636,/title/tt1262416/,,"1005 Lincoln Avenue, Ann Arbor, Michigan, USA",(Roberts residence),"1005, Lincoln Avenue, North Burns Park, Ann Arbor, Washtenaw County, Michigan, 48104, United States of America",42.270341959183675,-83.7296834489796
637,/title/tt1262416/,,"Healdsburg, California, USA",,"Healdsburg, Sonoma County, California, United States of America",38.6298355,-122.85900211842106
638,/title/tt1262416/,,"729-777 West Ann Arbor Trail, Plymouth, Michigan, USA","(Woodsboro PD, facade built in parking lot between 729 & 777.)",,,
639,/title/tt1262416/,,"Dearborn, Michigan, USA",,"Dearborn, Wayne County, Michigan, United States of America",42.3222599,-83.1763145
640,/title/tt1262416/,,"Ann Arbor, Michigan, USA",,"Ann Arbor, Washtenaw County, Michigan, United States of America",42.2681569,-83.7312291
641,/title/tt1262416/,,"Michigan, USA",,"Michigan, United States of America",43.6211955,-84.6824346
642,/title/tt1262416/,,USA,,United States,39.7837304,-100.4458825
643,/title/tt0338094/,,"Los Angeles, California, USA",,"Los Angeles, Los Angeles County, California, United States of America",34.0536909,-118.2427666
644,/title/tt0338094/,,"Sable Ranch - 25933 Sand Canyon Road, Santa Clarita, California, USA",,,,
645,/title/tt0338094/,,"Walt Disney Studios, 500 South Buena Vista Street, Burbank, California, USA",(studio),,,
646,/title/tt0363547/,,"Ashbridge's Bay, Toronto, Ontario, Canada",(marina scenes),"Ashbridges Bay, Martin Goodman Trail, Toronto—Danforth, Old Toronto, Toronto, Golden Horseshoe, Ontario, M4L 1G5, Canada",43.6603169,-79.3151711
647,/title/tt0363547/,,"Caledon, Ontario, Canada",,"Caledon, Peel Region, Golden Horseshoe, Ontario, Canada",43.827060149999994,-79.9061036956765
648,/title/tt0363547/,,"Toronto Film Studios, Toronto, Ontario, Canada",,,,
649,/title/tt0363547/,,Canada,,Canada,61.0666922,-107.9917071
650,/title/tt0363547/,,USA,,United States,39.7837304,-100.4458825
651,/title/tt4827558/,,"Bialystok, Podlaskie, Poland",(location),"Białystok, województwo podlaskie, Polska",53.127505049999996,23.147050870161664
652,/title/tt4827558/,,Poland,,Polska,52.215933,19.134422
653,/title/tt9639470/,,"London, England, UK",,"London, Greater London, England, United Kingdom",51.5073219,-0.1276474
654,/title/tt9639470/,,"The Truman Brewery, 91 Brick Ln, Spitalfields, London E1 6QR, UK",(Fashion Show),,,
655,/title/tt0070917/,,"Burrow Head, Isle of Whithorn, Dumfries & Galloway, Scotland, UK",(climax: burning of the Wicker Man),,,
