,Code,Show Name,Location,Scene,geocodedLocation,latitude,longitude
0,/title/tt12186846/,Mulan zhi Jinguo yinghao,China,,中国,35.000074,104.999927
1,/title/tt0390197/,Young Alexander the Great,Egypt,,مصر,26.2540493,29.2675469
2,/title/tt1870949/,Overspel,"Wallonia, Belgium",,"Wallonie, België - Belgique - Belgien",50.154533099999995,5.3991821671645575
3,/title/tt1870949/,Overspel,"Badhoevedorp, Netherlands",,"Badhoevedorp, Haarlemmermeer, Noord-Holland, Nederland, 1171, Nederland",52.3388803,4.7844704
4,/title/tt1870949/,Overspel,"Wormerveer, Noord-Holland, Netherlands",,"Wormerveer, Zaanstad, Noord-Holland, Nederland",52.49670985,4.784294662497363
5,/title/tt0120479/,Warriors of Virtue,"Beijing, China",,"北京市, 东城区, 北京市, 100010, China 中国",39.906217,116.3912757
6,/title/tt0119472/,Knockin' on Heaven's Door,"Texel, Noord-Holland, Netherlands",,"Texel, Noord-Holland, Nederland",53.0775961,4.9057311371764385
7,/title/tt0119472/,Knockin' on Heaven's Door,"Alter Wartesaal, Cologne, North Rhine-Westphalia, Germany",(interiors:True Romance brothel)                        ,"Alter Wartesaal, 11, Johannisstraße, Kunibertsviertel, Altstadt-Nord, Innenstadt, Köln, Nordrhein-Westfalen, 50667, Deutschland",50.94220025,6.9585417361326325
8,/title/tt0119472/,Knockin' on Heaven's Door,"Erfurt, Thuringia, Germany",,"Erfurt, Thüringen, Deutschland",50.9777974,11.0287364
9,/title/tt0119472/,Knockin' on Heaven's Door,"Hückelhoven, North Rhine-Westphalia, Germany",,"Hückelhoven, Kreis Heinsberg, Nordrhein-Westfalen, 41836, Deutschland",51.0552368,6.2247322
10,/title/tt0119472/,Knockin' on Heaven's Door,"Wuppertal, North Rhine-Westphalia, Germany",,"Wuppertal, Nordrhein-Westfalen, Deutschland",51.264018,7.1780374
11,/title/tt9417446/,The Outer Worlds,"New York City, New York, USA",,"New York, United States of America",40.7127281,-74.0060152
12,/title/tt0318081/,A Sound of Thunder,Czech Republic,,Česko,49.8167003,15.4749544
13,/title/tt0318081/,A Sound of Thunder,"Barrandov Studios, Prague, Czech Republic",(studio)                        ,,,
14,/title/tt0318081/,A Sound of Thunder,Spain,,España,39.3262345,-4.8380649
15,/title/tt0086346/,Spacehunter: Adventures in the Forbidden Zone,"Potash Pond Overlook, Dead Horse Point State Park, Utah, USA",,,,
16,/title/tt0086346/,Spacehunter: Adventures in the Forbidden Zone,"Coal Mine Canyon, Tuba City, Arizona, USA",,,,
17,/title/tt0086346/,Spacehunter: Adventures in the Forbidden Zone,"Moab, Utah, USA",,"Moab, Grand County, Utah, United States of America",38.5738096,-109.5462146
18,/title/tt0078740/,The Concorde... Airport '79,"Paris Charles de Gaulle Airport, Roissy-en-France, Val-d'Oise, France",,,,
19,/title/tt0078740/,The Concorde... Airport '79,"Alta, Utah, USA",,"Alta, Utah, United States of America",40.5904037,-111.6352166
20,/title/tt0078740/,The Concorde... Airport '79,"Le Bourget, Seine-Saint-Denis, France",,"Le Bourget, Le Raincy, Seine-Saint-Denis, Île-de-France, France métropolitaine, 93350, France",48.9351403,2.4258354
21,/title/tt0078740/,The Concorde... Airport '79,"Los Angeles, California, USA",,"Los Angeles, Los Angeles County, California, United States of America",34.0536909,-118.2427666
22,/title/tt0813980/,24: Redemption,"Cape Town, Western Cape, South Africa",,"Cape Town, City of Cape Town, Western Cape, 8001, South Africa",-33.928992,18.417396
23,/title/tt0096425/,Watchers,"Vancouver, British Columbia, Canada",,"Vancouver, Metro Vancouver Regional District, British Columbia, Canada",49.2608724,-123.1139529
24,/title/tt4844106/,Call of Duty: Black Ops III,"New York City, New York, USA",,"New York, United States of America",40.7127281,-74.0060152
25,/title/tt4844106/,Call of Duty: Black Ops III,Singapore,,"Singapore, Central, Singapore",1.3408630000000001,103.83039182212079
26,/title/tt4844106/,Call of Duty: Black Ops III,"Sydney, New South Wales, Australia",,"Sydney, New South Wales, Australia",-33.8548157,151.2164539
27,/title/tt4428728/,Braqueurs,"Paris, France",,"Paris, Île-de-France, France métropolitaine, France",48.8566969,2.3514616
28,/title/tt1741243/,Pawn War Chronicles,"Baton Rouge, Louisiana, USA",,"Baton Rouge, East Baton Rouge Parish, Louisiana, United States of America",30.4459596,-91.18738
29,/title/tt1741243/,Pawn War Chronicles,"Port Allen, Louisiana, USA",(Various Scenes)                        ,"Port Allen, West Baton Rouge Parish, Louisiana, United States of America",30.4521351,-91.2101081
30,/title/tt4537986/,Zhui bu,"Osaka, Osaka, Japan",,"大阪, 南コンコース, 梅田3丁目, 北区, 大阪市, 大阪府, 530-0001, 日本 (Japan)",34.7021912,135.4955866
31,/title/tt4537986/,Zhui bu,"Hakata, Fukuoka, Japan",,"博多, コンコース, 博多駅東二丁目, 博多区, 福岡市, 福岡県, 812-0012, 日本 (Japan)",33.5900436,130.4203556
32,/title/tt0128886/,Night Man,"Lougheed Mall, Burnaby, British Columbia, Canada",,"Lougheed Town Centre, Truck Loading Zone, Sullivan Heights, Burnaby, Metro Vancouver Regional District, British Columbia, V3J 1N0, Canada",49.25109285,-122.89561845230483
33,/title/tt0128886/,Night Man,"Vancouver, British Columbia, Canada",,"Vancouver, Metro Vancouver Regional District, British Columbia, Canada",49.2608724,-123.1139529
34,/title/tt8618118/,Plagi Breslau,"Wroclaw, Dolnoslaskie, Poland",,"Wrocław, województwo dolnośląskie, Polska",51.1089776,17.0326689
35,/title/tt3062074/,Sharknado 2: The Second One,"Buffalo, New York, USA",,"Buffalo, Erie County, New York, United States of America",42.8867166,-78.8783922
36,/title/tt3062074/,Sharknado 2: The Second One,"Citi Field - 126th Street & Roosevelt Avenue, Flushing, New York, USA",,,,
37,/title/tt3062074/,Sharknado 2: The Second One,"Los Angeles, California, USA",(studio)                        ,"Los Angeles, Los Angeles County, California, United States of America",34.0536909,-118.2427666
38,/title/tt1247640/,Banlieue 13: Ultimatum,"Belgrade, Serbia",,"Београд, Град Београд, Централна Србија, 11000, Србија (Serbia)",44.8178131,20.4568974
39,/title/tt1247640/,Banlieue 13: Ultimatum,"Académie Diplomatique Internationale, 4bis avenue Hoche, Paris 8, Paris, France",,"Académie Diplomatique Internationale, 4 Bis, Avenue Hoche, Quartier du Faubourg-du-Roule, Paris, Île-de-France, France métropolitaine, 75008, France",48.877802700000004,2.303761935762842
40,/title/tt1247640/,Banlieue 13: Ultimatum,"Paris Charles de Gaulle Airport, Roissy-en-France, Val-d'Oise, France",,,,
41,/title/tt0443559/,Killshot,"Cape Girardeau, Missouri, USA",(exterior shots of Cape Girardeau)                        ,"Cape Girardeau, Cape Girardeau County, Missouri, United States of America",37.3034933,-89.5230357
42,/title/tt0443559/,Killshot,"Toronto, Ontario, Canada",,"Toronto, Peel, Golden Horseshoe, Ontario, Canada",43.6534817,-79.3839347
43,/title/tt0443559/,Killshot,"Port Perry, Ontario, Canada",,"Port Perry, Scugog, Durham Region, Golden Horseshoe, Ontario, L9L 1B9, Canada",44.1054151,-78.9425076
44,/title/tt0443559/,Killshot,Canada,,Canada,61.0666922,-107.9917071
45,/title/tt7521990/,Huang jin xiong di,"Budapest, Hungary",(Gold Heist route)                        ,"Budapest, Közép-Magyarország, 1011, Magyarország",47.4983815,19.0404707
46,/title/tt7521990/,Huang jin xiong di,"Mountain Durmitor, Montenegro, Yugoslavia",,,,
47,/title/tt1160368/,12 Rounds,"New Orleans, Louisiana, USA",,"New Orleans, Orleans Parish, Louisiana, United States of America",29.9499323,-90.0701156
48,/title/tt1160368/,12 Rounds,"1233 Teche St, New Orleans, Louisiana, USA",(Danny's house)                        ,"1233, Teche Street, Gretna, Orleans Parish, Louisiana, 70114, United States of America",29.9424778,-90.0522839
49,/title/tt1160368/,12 Rounds,"Canal Street Ferry Terminal, New Orleans, Louisiana, USA",,"Canal Street Ferry Terminal, Moonwalk, French Market, French Quarter, New Orleans, Orleans Parish, Louisiana, 70130, United States of America",29.9499274,-90.0622899
50,/title/tt1160368/,12 Rounds,"Decatur Street, New Orleans, Louisiana, USA",(street scenes)                        ,"Decatur Street, French Market, Faubourg Marigny, New Orleans, Orleans Parish, Louisiana, 70117, United States of America",29.962949,-90.050976
51,/title/tt1160368/,12 Rounds,"Governor Nicholls Street Wharf - Governor Nicholls St, New Orleans, Louisiana, USA",,"Governor Nicholls Street Wharf, Governor Nicholls Street, French Market, Vieux Carre, New Orleans, Orleans Parish, Louisiana, 70116, United States of America",29.9598514,-90.05774274189099
52,/title/tt2210479/,Berserk: Ougon Jidai-hen I - Haou no Tamago,Japan,,日本,36.5748441,139.2394179
53,/title/tt0314786/,What a Wedding,"Toronto, Ontario, Canada",,"Toronto, Peel, Golden Horseshoe, Ontario, Canada",43.6534817,-79.3839347
54,/title/tt0314786/,What a Wedding,"Showline Studios, Toronto, Ontario, Canada",,,,
55,/title/tt0314786/,What a Wedding,"Chicago, Illinois, USA",,"Chicago, Cook County, Illinois, United States of America",41.8755616,-87.6244212
56,/title/tt0091055/,Firewalker,"Torreón, Coahuíla, Mexico",,"Torreón, Coahuila de Zaragoza, 27289, México",25.542698,-103.410512
57,/title/tt0091055/,Firewalker,"Le Kliff Restaurant, Puerto Vallarta, Jalisco, Mexico",(end scene)                        ,,,
58,/title/tt0091055/,Firewalker,"Durango, Mexico",,"Durango, México",24.833333,-104.833333
59,/title/tt0091055/,Firewalker,"Puerto Vallarta, Jalisco, Mexico",,"Puerto Vallarta, San Martín de Las Flores, Tlaquepaque, San Pedro Tlaquepaque, Jalisco, 45625, México",20.6151593,-103.2928715
60,/title/tt0067065/,Escape from the Planet of the Apes,"Los Angeles Harbor, San Pedro, Los Angeles, California, USA",(harbor)                        ,"Los Angeles Harbor, Miner Street, San Pedro, Los Angeles, Los Angeles County, California, 90731, United States of America",33.7097418,-118.2675707
61,/title/tt0067065/,Escape from the Planet of the Apes,"Malibu, California, USA",(splashdown of the spaceship during the opening scene)                        ,"Malibu, Los Angeles County, California, 90265-4797, United States of America",34.035591,-118.689423
62,/title/tt0067065/,Escape from the Planet of the Apes,"Regent Beverly Wilshire Hotel - 9500 Wilshire Blvd., Beverly Hills, California, USA",(hotel)                        ,"Beverly Wilshire, 90500, Wilshire Boulevard, Beverly Hills, Los Angeles County, California, 90212, United States of America",34.06637875,-118.40082095691537
63,/title/tt0067065/,Escape from the Planet of the Apes,"San Clemente, California, USA",,"San Clemente, Orange County, California, 92672, United States of America",33.4270275,-117.6124179
64,/title/tt0067065/,Escape from the Planet of the Apes,"Grand Haven, Michigan, USA",,"Grand Haven, Ottawa County, Michigan, United States of America",43.0630734,-86.2283864
65,/title/tt0067065/,Escape from the Planet of the Apes,"Stage 17, 20th Century Fox Studios - 10201 Pico Blvd., Century City, Los Angeles, California, USA",,,,
66,/title/tt2381213/,Sundown,"Puerto Vallarta, Jalisco, Mexico",,"Puerto Vallarta, San Martín de Las Flores, Tlaquepaque, San Pedro Tlaquepaque, Jalisco, 45625, México",20.6151593,-103.2928715
67,/title/tt2381213/,Sundown,"Fiesta Americana Hotel, Av. Francisco Medina Ascencio, Puerto Vallarta, Jal., Mexico",(Fiesta Americana Hotel)                        ,,,
68,/title/tt0102202/,Kickboxer 2: The Road Back,"200 E Anaheim St, Wilmington, California, USA",(Sloan's Gym)                        ,"East Anaheim Street, Wilmington, Los Angeles, Los Angeles County, California, 90744, United States of America",33.7799923,-118.2623415
69,/title/tt0102202/,Kickboxer 2: The Road Back,"Wilmington, California, USA",,"Wilmington, Los Angeles, Los Angeles County, California, 90744-4522, United States of America",33.7800164,-118.2625095
70,/title/tt0102202/,Kickboxer 2: The Road Back,"Los Angeles, California, USA",,"Los Angeles, Los Angeles County, California, United States of America",34.0536909,-118.2427666
71,/title/tt3735246/,Bajirao Mastani,India,,India,22.3511148,78.6677428
72,/title/tt0120769/,The Newton Boys,"Liberty Hill, Texas, USA",(Train robbery)                        ,"Liberty Hill, Point Blank, San Jacinto County, Texas, 77364, United States of America",30.7551911,-95.2291062
73,/title/tt0120769/,The Newton Boys,"Austin, Texas, USA",,"Austin, Travis County, Texas, United States of America",30.2711286,-97.7436995
74,/title/tt0120769/,The Newton Boys,"Pflugerville, Texas, USA",,"Pflugerville, Travis County, Texas, United States of America",30.4393696,-97.6200043
75,/title/tt0120769/,The Newton Boys,"Buda, Texas, USA",,"Buda, Hays County, Texas, 78601, United States of America",30.082475,-97.8417144
76,/title/tt0120769/,The Newton Boys,"Scottish Rite Dormitory - 210 W. 27th Street, Austin, Texas, USA",,"Scottish Rite Dormitory, 210, West 27th Street, The Drag, Austin, Travis County, Texas, 78705, United States of America",30.292440499999998,-97.73944979523809
77,/title/tt0120769/,The Newton Boys,"Martindale, Texas, USA",,"Martindale, Caldwell County, Texas, United States of America",29.8415233,-97.842618
78,/title/tt0479537/,Seraphim Falls,"Koosah Falls, Oregon, USA",,"Koosah Falls, Linn County, Oregon, United States of America",44.3446115,-122.0005785
79,/title/tt0479537/,Seraphim Falls,"Sahalie Falls, Oregon, USA",,"Sahalie Falls, Linn County, Oregon, United States of America",44.3491297,-121.9971974
80,/title/tt0479537/,Seraphim Falls,"Death Valley National Park, California, USA",,"Death Valley National Park, Inyo County, California, 92328, United States of America",36.4914385,-117.10229360771876
81,/title/tt0479537/,Seraphim Falls,"Lordsburg, New Mexico, USA",,"Lordsburg, Hidalgo County, New Mexico, 88045, United States of America",32.3504143,-108.7084347
82,/title/tt0479537/,Seraphim Falls,"Chiricahua National Monument, Arizona, USA",,"Chiricahua National Monument, Bonita Canyon Drive, Cochise County, Arizona, United States of America",32.01578655,-109.3475389242374
83,/title/tt0479537/,Seraphim Falls,"Willcox Playa, Willcox, Arizona, USA",,,,
84,/title/tt0479537/,Seraphim Falls,"Bramlett, New Mexico, USA",,"Bramlett, Hidalgo County, New Mexico, United States of America",31.3342741,-108.8439366
85,/title/tt0082622/,Knightriders,"Pittsburgh, Pennsylvania, USA",,"Pittsburgh, Allegheny County, Pennsylvania, United States of America",40.4416941,-79.9900861
86,/title/tt0082622/,Knightriders,"Pennsylvania, USA",,"Pennsylvania, United States of America",40.9699889,-77.7278831
87,/title/tt0082622/,Knightriders,"Fawn Township, Pennsylvania, USA",,"Fawn Township, Allegheny County, Pennsylvania, 15611, United States of America",40.650723,-79.7675069
88,/title/tt0083941/,Who Dares Wins,"Littlewick Green, Berkshire, England, UK",(location)                        ,,,
89,/title/tt0083941/,Who Dares Wins,"Union Chapel, The Angel, Islington, London, England, UK",,,,
90,/title/tt0083941/,Who Dares Wins,"25 Kynance Mews, Kensington, London, England, UK",(Skellen's house)                        ,"25, Kynance Mews, South Kensington, Royal Borough of Kensington and Chelsea, London, Greater London, England, SW7 4QW, United Kingdom",51.4973679,-0.1861456
91,/title/tt0083941/,Who Dares Wins,"London, England, UK",,"London, Greater London, England, United Kingdom",51.5073219,-0.1276474
92,/title/tt0083941/,Who Dares Wins,"Pinewood Studios, Iver Heath, Buckinghamshire, England, UK",(studio)                        ,"Pinewood Studios, Pinewood Green, Iver, Iver Heath, Buckinghamshire, South East, England, SL0 0QJ, United Kingdom",51.54831515,-0.5346765566753087
93,/title/tt0083941/,Who Dares Wins,"Whitehall, Westminster, London, England, UK",,"Whitehall, City of Westminster, London, Greater London, England, SW1A 2NH, United Kingdom",51.5023278,-0.1260826
94,/title/tt9534808/,Acceleration,"Los Angeles, California, USA",,"Los Angeles, Los Angeles County, California, United States of America",34.0536909,-118.2427666
95,/title/tt1820723/,Treasure Island,Puerto Rico,,"Puerto Rico, Orocovis, Puerto Rico, United States of America",18.2214149,-66.41328179513847
96,Code,Show Name,Location,Scene,"Location, Tucker County, West Virginia, United States of America",39.2138905,-79.6371124
97,/title/tt0104511/,Innocent Blood,"Pittsburgh, Pennsylvania, USA",(in front of Three Rivers Stadium)                        ,"Pittsburgh, Allegheny County, Pennsylvania, United States of America",40.4416941,-79.9900861
98,/title/tt0104511/,Innocent Blood,"East Liberty Presbyterian Church - 116 S. Highland Street, Pittsburgh, Pennsylvania, USA",(Marie confronts Gennaro at night outside the church)                        ,,,
99,/title/tt0104511/,Innocent Blood,"David McCullough Bridge, Pittsburgh, Pennsylvania, USA",(Marie pulls over while driving Gennaro's car on the bridge)                        ,"David McCullough Bridge, Strip District, Pittsburgh, Allegheny County, Pennsylvania, 15219, United States of America",40.4490258,-79.9877449
100,/title/tt0790781/,Wendy Wu: Homecoming Warrior,"Auckland, New Zealand",,"Auckland, 1010, New Zealand",-36.852095,174.7631803
101,/title/tt0790781/,Wendy Wu: Homecoming Warrior,"St Lukes, Auckland, New Zealand",,"Saint Lukes, Albert-Eden, Auckland, 1025, New Zealand",-36.8839307,174.7319442
102,/title/tt1137996/,Anaconda: Offspring,"Bucharest, Romania",,"Municipiul București, România",44.4361414,26.1027202
103,/title/tt1137996/,Anaconda: Offspring,Romania,,România,45.9852129,24.6859225
104,/title/tt0360009/,Spartan,"Cambridge, Massachusetts, USA",,"Cambridge, Middlesex County, Massachusetts, United States of America",42.3750997,-71.1056157
105,/title/tt0360009/,Spartan,"Framingham, Massachusetts, USA",,"Framingham, Middlesex County, Massachusetts, United States of America",42.2792625,-71.416172
106,/title/tt0360009/,Spartan,"London, England, UK",,"London, Greater London, England, United Kingdom",51.5073219,-0.1276474
107,/title/tt0360009/,Spartan,"Milton, Massachusetts, USA",,"Milton, Norfolk County, Massachusetts, United States of America",42.2501425,-71.065573
108,/title/tt0360009/,Spartan,"Santa Barbara, California, USA",,"Santa Barbara, Santa Barbara County, California, United States of America",34.4221319,-119.7026673
109,/title/tt0360009/,Spartan,"Beacon Hill, Boston, Massachusetts, USA",,"Beacon Hill, Boston, Suffolk County, Massachusetts, 02114, United States of America",42.3587085,-71.067829
110,/title/tt0360009/,Spartan,"Hanson's Farm - 20 Nixon Road, Framingham, Massachusetts, USA",,,,
111,/title/tt0360009/,Spartan,"Halfway House Cafe - 15564 Sierra Highway, Santa Clarita, California, USA",,,,
112,/title/tt0091575/,Murphy's Law,"Bradbury Building - 304 S. Broadway, Downtown, Los Angeles, California, USA",,"Bradbury Building, 300-310, South Broadway, Historic Core District, Downtown, Los Angeles, Los Angeles County, California, 90013, United States of America",34.05047545,-118.24780750292649
113,/title/tt0091575/,Murphy's Law,"Belmont Tunnel - 1304 West 2nd Street, Los Angeles, California, USA",(dead call girl found)                        ,,,
114,/title/tt0091575/,Murphy's Law,"Los Angeles, California, USA",,"Los Angeles, Los Angeles County, California, United States of America",34.0536909,-118.2427666
115,/title/tt0091575/,Murphy's Law,"Woodland Hills, Los Angeles, California, USA",,"Woodland Hills, Los Angeles, Los Angeles County, California, 91364, United States of America",34.1684364,-118.6058382
116,/title/tt0091575/,Murphy's Law,"Cafe LA 949 S Figueroa St, Los Angeles, California, USA",(car crash)                        ,"Cafeteria (Sodexo), Lida Street, Pasadena, Los Angeles County, California, 91109, United States of America",34.1698547,-118.1854615
117,/title/tt2952602/,Yi ge ren de wu lin,"Hong Kong, China",,"香港島 Hong Kong Island, 香港 Hong Kong, China 中国",22.2793278,114.1628131
118,/title/tt2404738/,Las brujas de Zugarramurdi,"Segovia, Castilla y León, Spain",,"Segovia, Castilla y León, España",40.9502159,-4.1241494
119,/title/tt2404738/,Las brujas de Zugarramurdi,"Puerta del Sol, Madrid, Spain",(opening heist scene)                        ,"Puerta del Sol, Sol, Centro, Madrid, Área metropolitana de Madrid y Corredor del Henares, Comunidad de Madrid, 28001, España",40.416865400000006,-3.7043021694877964
120,/title/tt0772193/,Primeval,"Bergville, KwaZulu-Natal, South Africa",,"Bergville, Okhahlamba Local Municipality, Uthukela District Municipality, KwaZulu-Natal, South Africa",-28.731111,29.351667
121,/title/tt0772193/,Primeval,"Spioenkop Nature Reserve, KwaZulu-Natal, South Africa",,"Spioenkop Nature Reserve, Okhahlamba Local Municipality, Uthukela District Municipality, KwaZulu-Natal, 3377, South Africa",-28.682518100000003,29.48580440667552
122,/title/tt0772193/,Primeval,"Ladysmith, KwaZulu-Natal, South Africa",,"Ladysmith, Uthukela District Municipality, KwaZulu-Natal, South Africa",-28.551944,29.778333
123,/title/tt0772193/,Primeval,"Shongweni Dam, KwaZulu-Natal, South Africa",,"Shongweni Dam, 85005 Track, eThekwini Ward 7, Durban, eThekwini Metropolitan Municipality, KwaZulu-Natal, South Africa",-29.8558055,30.72253892027353
124,/title/tt0772193/,Primeval,"Assegai, KwaZulu-Natal, South Africa",,"Assegai Crescent, eThekwini Ward 68, Durban, eThekwini Metropolitan Municipality, KwaZulu-Natal, 4052, South Africa",-29.9361185,30.982898
125,/title/tt0772193/,Primeval,"Valley of a Thousand Hills, KwaZulu-Natal, South Africa",,,,
126,/title/tt0090334/,Wizards of the Lost Kingdom II,"Venice, California, USA",,"Venice, Los Angeles, Los Angeles County, California, United States of America",33.995044,-118.4668875
127,/title/tt3426342/,Jodha Akbar,"Mumbai, Maharashtra, India",,"Mumbai, Mumbai City, Maharashtra, India",18.9387711,72.8353355
128,/title/tt3426342/,Jodha Akbar,"Jaipur, Rajasthan, India",,"Jaipur, Jaipur Tehsil, Jaipur, Rajasthan, 302001, India",26.916194,75.820349
129,/title/tt2693664/,Young Ones,South Africa,,South Africa,-28.8166236,24.991639
130,/title/tt5729348/,Salinjaui gieokbeob,South Korea,,대한민국,36.638392,127.6961188
131,/title/tt0326905/,The Great Raid,"Shanghai, China",(Manila sequences)                        ,"上海市, China 中国",31.2322758,121.4692071
132,/title/tt0326905/,The Great Raid,"Bribie Island, Queensland, Australia",,"Bribie Island, Moreton Bay Regional, Queensland, Australia",-26.9886055,153.132733
133,/title/tt0106393/,Best of the Best II,"Hoover Dam, Arizona-Nevada Border, USA",,,,
134,/title/tt0106393/,Best of the Best II,"Las Vegas, Nevada, USA",,"Las Vegas, Clark County, Nevada, United States of America",36.1672559,-115.1485163
135,/title/tt0106393/,Best of the Best II,"California City, California, USA",,"California City, Kern County, California, United States of America",35.125801,-117.9859038
136,/title/tt0400426/,Far Cry,"Deep Cove Marina, North Vancouver, British Columbia, Canada",(marina)                        ,,,
137,/title/tt0400426/,Far Cry,"Vancouver, British Columbia, Canada",,"Vancouver, Metro Vancouver Regional District, British Columbia, Canada",49.2608724,-123.1139529
138,/title/tt1071804/,Ink,"Denver, Colorado, USA",,"Denver, Denver County, Colorado, United States of America",39.7392364,-104.9848623
139,/title/tt1071804/,Ink,"Aurora, Colorado, USA",,"Aurora, Arapahoe County, Colorado, United States of America",39.729432,-104.8319196
140,/title/tt1071804/,Ink,"Commerce City, Colorado, USA",,"Commerce City, Adams County, Colorado, United States of America",39.8083196,-104.9338675
141,/title/tt1071804/,Ink,"Evergreen, Colorado, USA",,"Evergreen, Hiwan Hills, Evergreen, Jefferson County, Colorado, 80437, United States of America",39.6361637,-105.32145797867402
142,/title/tt1071804/,Ink,"Morrison, Colorado, USA",,"Morrison, Jefferson County, Colorado, 80465, United States of America",39.6535988,-105.1910996
143,/title/tt2458106/,Ninja: Shadow of a Tear,"Bangkok, Thailand",,"กรุงเทพมหานคร, เขตพระนคร, กรุงเทพมหานคร, 10200, ประเทศไทย",13.7542529,100.493087
144,/title/tt0386064/,Taegukgi hwinalrimyeo,"A-San City, South Korea",(Jin-tea's home)                        ,,,
145,/title/tt0386064/,Taegukgi hwinalrimyeo,"Seoul, South Korea",,"서울, 대한민국",37.5666791,126.9782914
146,/title/tt0386064/,Taegukgi hwinalrimyeo,"Jeon-Joo City, South Korea",,,,
147,/title/tt0386064/,Taegukgi hwinalrimyeo,"Jeonju, South Korea",,"전주시, 전라북도, 대한민국",35.8242715,127.1480657
148,/title/tt0386064/,Taegukgi hwinalrimyeo,"Neck-An, South Korea",,,,
149,/title/tt0386064/,Taegukgi hwinalrimyeo,"Pyong-Chang, South Korea",(military camp)                        ,,,
150,/title/tt0386064/,Taegukgi hwinalrimyeo,"Soon-Cheon, South Korea",(North Korean village)                        ,,,
151,/title/tt11343570/,Killing Zac Efron,Papua New Guinea,,Papua Niugini,-5.6816069,144.2489081
152,/title/tt5481404/,Dead Rising: Endgame,"Vancouver, British Columbia, Canada",,"Vancouver, Metro Vancouver Regional District, British Columbia, Canada",49.2608724,-123.1139529
153,/title/tt11765324/,In the Drift,"Los Angeles, California, USA",,"Los Angeles, Los Angeles County, California, United States of America",34.0536909,-118.2427666
154,/title/tt0084637/,The Scarlet Pimpernel,"Milton Manor, Milton, Oxfordshire, England, UK",(Blakeney Mansion)                        ,"Milton Manor, Mill Lane, Milton, Vale of White Horse, Oxfordshire, South East, England, OX14 4EW, United Kingdom",51.6281069,-1.3019725107800624
155,/title/tt0084637/,The Scarlet Pimpernel,"Lindisfarne Castle, Holy Island of Lindisfarne, Northumberland, England, UK",(island fortress of Mont St. Pierre)                        ,,,
156,/title/tt0084637/,The Scarlet Pimpernel,"Brocket Hall, Lemsford, Welwyn Garden City, Hertfordshire, England, UK",(grounds)                        ,"Brocket Hall, Ayot Green, Ayot St Peter, Welwyn Hatfield, Hertfordshire, East of England, England, AL6 9BA, United Kingdom",51.80276485,-0.24050912270270453
157,/title/tt0084637/,The Scarlet Pimpernel,"Ragley Hall, Alcester, Warwickshire, England, UK",(Lord Grenville's estate)                        ,"Ragley Hall, Park View, Arrow with Weethley CP, Stratford-on-Avon, Warwickshire, England, B49 5PN, United Kingdom",52.2036147,-1.8854968
158,/title/tt0110823/,Phantasm III: Lord of the Dead,"Compton, California, USA",,"Compton, Los Angeles County, California, United States of America",33.894927,-118.226624
159,/title/tt0110823/,Phantasm III: Lord of the Dead,"Santa Clarita, California, USA",,"Santa Clarita, Los Angeles County, California, United States of America",34.3916641,-118.542586
160,/title/tt0110823/,Phantasm III: Lord of the Dead,"North Hollywood, Los Angeles, California, USA",,"North Hollywood, Los Angeles, Los Angeles County, California, 91601-3121, United States of America",34.1729044,-118.3740371
161,/title/tt0087805/,Ninja III: The Domination,"Phoenix, Arizona, USA",,"Phoenix, Maricopa County, Arizona, United States of America",33.4484367,-112.0741417
162,/title/tt0087805/,Ninja III: The Domination,"Sedona, Arizona, USA",,"Sedona, Coconino County, Arizona, United States of America",34.8679599,-111.7617165
163,/title/tt0281364/,Wasabi,"Tokyo Jumbo Golf Center, Adachi, Tokyo, Japan",(location)                        ,,,
164,/title/tt0281364/,Wasabi,"Narita International Airport, Chiba, Japan",(Airport scenes)                        ,"成田国際空港, 久住停車場十余三線, 吉岡, 成田市, 千葉県, 286-0101, 日本 (Japan)",35.77587145,140.3933101399336
165,/title/tt0281364/,Wasabi,"Kyoto Station, Japan",(Hubert and Momo get off the train at the station)                        ,"京都市, 京都府, 日本 (Japan)",35.021041,135.7556075
166,/title/tt0281364/,Wasabi,Japan,,日本,36.5748441,139.2394179
167,/title/tt0281364/,Wasabi,"Tokyo, Japan",,"東京都, 日本 (Japan)",35.6828387,139.7594549
168,/title/tt0281364/,Wasabi,"Akihabara, Chiyoda, Tokyo, Japan",(location)                        ,"秋葉原, 千代田区, 101-0029, 日本 (Japan)",35.6997364,139.7712503
169,/title/tt0116704/,Ging chaat goo si 4: Gaan dan yam mo,"Chinatown Mall, Fortitude Valley, Queensland, Australia",,"Chinatown Mall, Fortitude Valley, Brisbane City, Queensland, 4001, Australia",-27.4587356,153.0338357
170,/title/tt0116704/,Ging chaat goo si 4: Gaan dan yam mo,"Gold Coast, Queensland, Australia",,"Gold Coast City, Queensland, Australia",-28.0023731,153.4145987
171,/title/tt0116704/,Ging chaat goo si 4: Gaan dan yam mo,"Lygon Street, Carlton, Melbourne, Victoria, Australia",,"Lygon Street, Melbourne Innovation District, Carlton, Melbourne, City of Melbourne, Victoria, 3000, Australia",-37.7974127,144.9674387
172,/title/tt0116704/,Ging chaat goo si 4: Gaan dan yam mo,"Brisbane, Queensland, Australia",,"Brisbane City, Queensland, Australia",-27.4689682,153.0234991
173,/title/tt0116704/,Ging chaat goo si 4: Gaan dan yam mo,Russia,,Россия,64.6863136,97.7453061
174,/title/tt2468774/,Nae-ga sal-in-beom-i-da,"Seoul, South Korea",,"서울, 대한민국",37.5666791,126.9782914
175,/title/tt0071571/,Gone in 60 Seconds,"Los Angeles Harbor, San Pedro, Los Angeles, California, USA",(Main channel with lighthouse visible)                        ,"Los Angeles Harbor, Miner Street, San Pedro, Los Angeles, Los Angeles County, California, 90731, United States of America",33.7097418,-118.2675707
176,/title/tt0071571/,Gone in 60 Seconds,"Ascot Park Speedway - 18601 S. Vermont Avenue, Gardena, California, USA",(Car theft of Ascot Raceway)                        ,,,
177,/title/tt0071571/,Gone in 60 Seconds,"1117 W Redondo Beach Blvd, Gardena, California, USA","(The Tijuana Inn Cafe, doesn't exist anymore)                        ","1117, West Redondo Beach Boulevard, Gardena, Los Angeles County, California, 90247, United States of America",33.89231894743214,-118.29464225920756
178,/title/tt0071571/,Gone in 60 Seconds,"Interstate 710, Long Beach, California, USA",(Chase scene over Gerald Desmond Bridge)                        ,,,
179,/title/tt0071571/,Gone in 60 Seconds,"Figueroa Street, Carson, California, USA",(Chase scene)                        ,"Figueroa Street, Carson, Los Angeles County, California, 90248-4007, United States of America",33.8609195,-118.281636
180,/title/tt0071571/,Gone in 60 Seconds,"Hawthorne Boulevard & 186th Street, Torrance, California, USA",(Ronald Moran Cadillac)                        ,,,
181,/title/tt0071571/,Gone in 60 Seconds,"Anza Avenue & 190th Street, Torrance, California, USA","(carwash at a shopping center, doesn't exist anymore)                        ",,,
182,/title/tt0071571/,Gone in 60 Seconds,"Lincoln Park, Long Beach, California, USA",(chase scene)                        ,,,
183,/title/tt0071571/,Gone in 60 Seconds,"19200 S. Main Street, Carson, California, USA",(Goodyear Blimp base site seen in chase)                        ,"South Main Street, West Rancho Dominguez, Carson, Los Angeles County, California, 90745, United States of America",33.8862138,-118.2759702
184,/title/tt0071571/,Gone in 60 Seconds,"Harbour Freeway Exit 7, Carson, California, USA",(Halcki hitting light post with his Mustang)                        ,,,
185,/title/tt0071571/,Gone in 60 Seconds,"Carson, California, USA",,"Carson, Los Angeles County, California, United States of America",33.8322043,-118.2517547
186,/title/tt0071571/,Gone in 60 Seconds,"Long Beach, California, USA",,"Long Beach, Los Angeles County, California, United States of America",33.7690164,-118.1916048
187,/title/tt0071571/,Gone in 60 Seconds,"Redondo Beach, California, USA",(Orange Mustang car crash/leap)                        ,"Redondo Beach, Los Angeles County, California, United States of America",33.8455911,-118.3886766
188,/title/tt1337057/,Rampage,"British Columbia, Canada",,"British Columbia, Canada",55.001251,-125.002441
189,/title/tt1337057/,Rampage,Canada,,Canada,61.0666922,-107.9917071
190,/title/tt1876277/,Into the White,"Trollhättan, Västra Götalands län, Sweden",,"Trollhättan, Trollhättans kommun, Västra Götalands län, Götaland, 46183, Sverige",58.2827931,12.2908612
191,/title/tt1876277/,Into the White,"Stryn, Sogn og Fjordane, Norway",,,,
192,/title/tt0070653/,Scorpio,"Palmenhaus Schönbrunn - Schonbrunn Palace Palm House, Schönbrunn Palace Park, Vienna, Austria",(Laurier tries to trap Cross in a greehouse)                        ,,,
193,/title/tt0070653/,Scorpio,"Washington Dulles International Airport - 45020 Aviation Drive, Sterling, Virginia, USA",,,,
194,/title/tt0070653/,Scorpio,"Vienna, Austria",,"Wien, 1010, Österreich",48.2083537,16.3725042
195,/title/tt0070653/,Scorpio,"Paris, France",,"Paris, Île-de-France, France métropolitaine, France",48.8566969,2.3514616
196,/title/tt0070653/,Scorpio,"Avenue Kleber and Rue de Belloy, Paris, France",(Cross picks up package at a newsstand)                        ,,,
197,/title/tt0070653/,Scorpio,"4641 Garfield Street NW, Washington, District of Columbia, USA",(Sarah's house)                        ,"4641, Garfield Street Northwest, Wesley Heights, Friendship Heights, Washington, District of Columbia, 20007, United States of America",38.9280219,-77.0919462931474
198,/title/tt0070653/,Scorpio,"221 West Glebe Road, Alexandria, Virginia, USA",(Safeway grocery store)                        ,"221, West Glebe Road, Mount Vernon, Warwick Village, Alexandria, Virginia, 22305, United States of America",38.83694958725553,-77.06202660890257
199,/title/tt0070653/,Scorpio,"1100 New York Avenue NW, Washington, District of Columbia, USA",(Greyhound bus terminal)                        ,"Bibiiana, 1100, New York Avenue Northwest, Downtown, Washington, District of Columbia, 20005, United States of America",38.9006226,-77.0274914
200,/title/tt0070653/,Scorpio,"CIA Headquarters, Langley, Virginia, USA",(interiors and exteriors)                        ,"CIA Headquarters Heliport, Colonial Farm Road, Evermay, McLean, Fairfax County, Virginia, 20812, United States of America",38.953096,-77.1523066
201,/title/tt0070653/,Scorpio,"Lincoln Memorial, National Mall, Washington, District of Columbia, USA",(Laurier walking with Susan)                        ,,,
202,/title/tt0070653/,Scorpio,"Domgasse at Blutgasse, Vienna, Austria",(Cross waiting for his next ride)                        ,,,
203,/title/tt0070653/,Scorpio,"Hotel König von Ungarn, Schulerstrasse 10, Vienna, Austria",(hotel where Laurier stays)                        ,,,
204,/title/tt0070653/,Scorpio,"Jauresgasse 1, Vienna, Austria",(used for Soviet embassy)                        ,"1, Jaurèsgasse, Botschaftsviertel, KG Landstraße, Landstraße, Wien, 1030, Österreich",48.197119,16.3852179
205,/title/tt0070653/,Scorpio,"Dr-Ignaz-Seipel-Platz, Vienna, Austria",(Laurier waiting in a car to meet Austrian agent)                        ,"Dr.-Ignaz-Seipel-Platz, Stubenviertel, KG Innere Stadt, Innere Stadt, Wien, 1010, Österreich",48.2085466,16.3773261
206,/title/tt0070653/,Scorpio,"Graben, Vienna, Austria",(Zharkov feeding pigeons)                        ,"Graben, Widmerviertel, KG Innere Stadt, Innere Stadt, Wien, 1010, Österreich",48.2083596,16.3702141
207,/title/tt0070653/,Scorpio,"Raimundhof, Vienna, Austria",(Max's apartment)                        ,"Raimundhof, Untere Windmühle, KG Mariahilf, Mariahilf, Wien, 1060, Österreich",48.1990245,16.3564362
208,/title/tt0070653/,Scorpio,"Volksgarten, Vienna, Austria",(Zharkov sitting on a park bench)                        ,"Volksgarten, Schottenviertel, KG Innere Stadt, Innere Stadt, Wien, 1010, Österreich",48.20803545,16.361786613780453
209,/title/tt0070653/,Scorpio,"201 Allison Street NW, Washington, District of Columbia, USA",(Sarah's funeral at Rock Creek Cemetery)                        ,"201, Allison Street Northwest, Fort Totten, Washington, District of Columbia, 20011, United States of America",38.9458654,-77.01357588589838
210,/title/tt0070653/,Scorpio,"3218 O Street NW, Washington, District of Columbia, USA",(Mitt gets out of a car and waits for McLeod)                        ,"Cote Jardin Antiques, 3218, O Street Northwest, Georgetown, Washington, District of Columbia, 20057, United States of America",38.9077073,-77.0641957
211,/title/tt0070653/,Scorpio,"Library of Congress - 101 Independence Ave. SE, Washington, District of Columbia, USA",(Sarah filmed coming out of this building)                        ,"Library of Congress, James Madison Memorial Building, 101, Independence Avenue Southeast, Southeast, Washington, District of Columbia, 20540, United States of America",38.8867409,-77.00470552789514
212,/title/tt0190703/,Resident Evil,Japan,,日本,36.5748441,139.2394179
213,/title/tt7245176/,Saat po long: Taam long,"Bangkok, Thailand",,"กรุงเทพมหานคร, เขตพระนคร, กรุงเทพมหานคร, 10200, ประเทศไทย",13.7542529,100.493087
214,Code,Show Name,Location,Scene,"Location, Tucker County, West Virginia, United States of America",39.2138905,-79.6371124
215,/title/tt0023551/,Tarzan the Ape Man,"Silver Springs, Florida, USA",,"Silver Springs, Marion County, Florida, 34488-1719, United States of America",29.2166172,-82.0575797
216,/title/tt0023551/,Tarzan the Ape Man,"Iverson Ranch - 1 Iverson Lane, Chatsworth, Los Angeles, California, USA",,,,
217,/title/tt0023551/,Tarzan the Ape Man,"Metro-Goldwyn-Mayer Studios - 10202 W. Washington Blvd., Culver City, California, USA",,,,
218,/title/tt1780762/,Aftershock,"Valparaíso, Región de Valparaíso, Chile",,"Valparaíso, Provincia de Valparaíso, Región de Valparaíso, Chile",-33.0458456,-71.6196749
219,/title/tt0087578/,Wheels on Meals,"Barcelona, Catalonia, Spain",,"Barcelona, Barcelonès, Catalunya, 08001, España",41.3828939,2.1774322
220,/title/tt0096563/,Cops,"Hong Kong, China",,"香港島 Hong Kong Island, 香港 Hong Kong, China 中国",22.2793278,114.1628131
221,/title/tt0096563/,Cops,"Boston, Massachusetts, USA",,"Boston, Suffolk County, Massachusetts, United States of America",42.3602534,-71.0582912
222,/title/tt0096563/,Cops,"Corpus Christi, Texas, USA",,"Corpus Christi, Nueces County, Texas, United States of America",27.7477253,-97.4014129
223,/title/tt0096563/,Cops,"Indianapolis, Indiana, USA",,"Indianapolis, Marion, Indiana, United States of America",39.7683331,-86.1583502
224,/title/tt0096563/,Cops,"Moscow, Russia",,"Москва, Центральный административный округ, Москва, Центральный федеральный округ, Россия",55.7504461,37.6174943
225,/title/tt0096563/,Cops,"Pittsburgh, Pennsylvania, USA",,"Pittsburgh, Allegheny County, Pennsylvania, United States of America",40.4416941,-79.9900861
226,/title/tt0096563/,Cops,"Cleveland, Ohio, USA",,"Cleveland, Cuyahoga County, Ohio, United States of America",41.5051613,-81.6934446
227,/title/tt0096563/,Cops,"Des Moines, Iowa, USA",,"Des Moines, Polk County, Iowa, United States of America",41.5910641,-93.6037149
228,/title/tt0096563/,Cops,"Fort Worth, Texas, USA",,"Fort Worth, Tarrant County, Texas, United States of America",32.753177,-97.3327459
229,/title/tt0096563/,Cops,"Houston, Texas, USA",,"Houston, Harris County, Texas, United States of America",29.7589382,-95.3676974
230,/title/tt0096563/,Cops,"La Paz, Bolivia",,"La Paz, Pedro Domingo Murillo, La Paz, Bolivia",-16.4955455,-68.1336229
231,/title/tt0096563/,Cops,"Louisville, Kentucky, USA",,"Louisville, Jefferson County, Kentucky, United States of America",38.2542376,-85.759407
232,/title/tt0096563/,Cops,"Phoenix, Arizona, USA",,"Phoenix, Maricopa County, Arizona, United States of America",33.4484367,-112.0741417
233,/title/tt0096563/,Cops,"Sacramento, California, USA",,"Sacramento, Sacramento County, California, United States of America",38.5815719,-121.4943996
234,/title/tt0096563/,Cops,"Seattle, Washington, USA",,"Seattle, King County, Washington, United States of America",47.6038321,-122.3300624
235,/title/tt0096563/,Cops,"Tampa, Florida, USA",,"Tampa, Hillsborough County, Florida, United States of America",27.9477595,-82.458444
236,/title/tt0096563/,Cops,"Los Angeles, California, USA",,"Los Angeles, Los Angeles County, California, United States of America",34.0536909,-118.2427666
237,/title/tt0096563/,Cops,"Anchorage, Alaska, USA",,"Anchorage, Alaska, United States of America",61.2163129,-149.8948523
238,/title/tt0096563/,Cops,"Chattanooga, Tennessee, USA",,"Chattanooga, Hamilton County, Tennessee, United States of America",35.0457219,-85.3094883
239,/title/tt0096563/,Cops,"Fort Lauderdale, Florida, USA",,"Fort Lauderdale, Broward County, Florida, United States of America",26.1223084,-80.1433786
240,/title/tt0096563/,Cops,"Jacksonville, Florida, USA",,"Jacksonville, Duval County, Florida, United States of America",30.3321838,-81.655651
241,/title/tt0096563/,Cops,"Kansas City, Missouri, USA",,"Kansas City, Jackson County, Missouri, United States of America",39.100105,-94.5781416
242,/title/tt0096563/,Cops,"Little Rock, Arkansas, USA",,"Little Rock, Arkansas, United States of America",34.7464809,-92.2895948
243,/title/tt0096563/,Cops,"Memphis, Tennessee, USA",,"Memphis, Shelby County, Tennessee, United States of America",35.1490215,-90.0516285
244,/title/tt0096563/,Cops,"Minneapolis, Minnesota, USA",,"Minneapolis, Hennepin County, Minnesota, United States of America",44.9772995,-93.2654692
245,/title/tt0096563/,Cops,"New Orleans, Louisiana, USA",,"New Orleans, Orleans Parish, Louisiana, United States of America",29.9499323,-90.0701156
246,/title/tt0096563/,Cops,"Palm Springs, California, USA",,"Palm Springs, Riverside County, California, United States of America",33.8246269,-116.540303
247,/title/tt0096563/,Cops,"Petersburg, Virginia, USA",,"Petersburg, Virginia, 23804, United States of America",37.227928,-77.4019268
248,/title/tt0096563/,Cops,"Pomona, California, USA",,"Pomona, Los Angeles County, California, United States of America",34.0553813,-117.7517496
249,/title/tt0096563/,Cops,"Sturgis, South Dakota, USA",,"Sturgis, Meade County, South Dakota, United States of America",44.409707,-103.509079
250,/title/tt0096563/,Cops,"Norfolk, Virginia, USA",,"Norfolk, Virginia, United States of America",36.8889933,-76.2481624
251,/title/tt0125622/,"Honey, I Shrunk the Kids: The TV Show","CL Ranch - 45001 Township Road, Calgary, Alberta, Canada",,,,
252,/title/tt3178320/,Diamond Cobra vs the White Fox,"Scottsdale, Arizona, USA",,"Scottsdale, Maricopa County, Arizona, United States of America",33.4942189,-111.9260184
253,/title/tt1274586/,Dying of the Light,"Castel Film Studios, Bucharest, Romania",(studio)                        ,,,
254,/title/tt1274586/,Dying of the Light,"Polytechnic University of Bucharest, Bucharest, Romania",(as 'Universitatea Bucuresti Centrul Medical')                        ,,,
255,/title/tt1274586/,Dying of the Light,"Benowa, Queensland, Australia",(as Kenya)                        ,"Benowa, Gold Coast City, Queensland, Australia",-28.0041744,153.3834595
256,/title/tt1274586/,Dying of the Light,"National Architects Union Headquarters, Bucharest, Romania",(as 'Headquarters of S.R.I.')                        ,,,
257,/title/tt1274586/,Dying of the Light,"Carrefour Orhideea Bucharest, Bucharest, Romania",(shopping mall at police sting operation)                        ,"ATM Euronet Carrefour Orhideea, 210-210B, Splaiul Independenței, București, Grozăvești, Sector 6, 060751, România",44.4446384,26.0623705
258,/title/tt1274586/,Dying of the Light,"Palace of the Parliament, Bucharest, Romania","(background exterior, Lake and Schultz sitting on a bench at night)                        ","Palatul Parlamentului, 2-4, Strada Izvor, București, Centrul Civic, Sector 5, 050563, România",44.42751025,26.08724810312726
259,/title/tt1274586/,Dying of the Light,"Rectorat, Polytechnic University of Bucharest, Bucharest, Romania",(first encounter with Dr. Cornel)                        ,,,
260,/title/tt1274586/,Dying of the Light,"CIA Headquarters, Langley, Virginia, USA",(only exterior)                        ,"CIA Headquarters Heliport, Colonial Farm Road, Evermay, McLean, Fairfax County, Virginia, 20812, United States of America",38.953096,-77.1523066
261,/title/tt1274586/,Dying of the Light,"Gold Coast, Queensland, Australia",(as Kenya)                        ,"Gold Coast City, Queensland, Australia",-28.0023731,153.4145987
262,/title/tt1274586/,Dying of the Light,"Grozavesti Bridge, Bucharest, Romania",(car chase)                        ,"Grozăvești, Municipiul București, România",44.44323365,26.06536965554369
263,/title/tt1274586/,Dying of the Light,"Central Library, Polytechnic University of Bucharest, Bucharest, Romania",(background exterior)                        ,,,
264,/title/tt1274586/,Dying of the Light,"Revolution Square, Bucharest, Romania",(background exterior)                        ,"Cake Revolution, 17D, Strada Maica Teofana, București, Chitila, Sector 1, Municipiul București, 012693, România",44.484638450000006,26.015729017605892
265,/title/tt1274586/,Dying of the Light,"Bucharest Telephone Palace, Bucharest, Romania",(only exterior)                        ,,,
266,/title/tt1274586/,Dying of the Light,"New York, USA",,"New York, United States of America",40.7127281,-74.0060152
267,/title/tt1146438/,The Librarian: The Curse of the Judas Chalice,"Baton Rouge, Louisiana, USA",(Louisiana's Old State Capitol)                        ,"Baton Rouge, East Baton Rouge Parish, Louisiana, United States of America",30.4459596,-91.18738
268,/title/tt1146438/,The Librarian: The Curse of the Judas Chalice,"New Orleans, Louisiana, USA",,"New Orleans, Orleans Parish, Louisiana, United States of America",29.9499323,-90.0701156
269,/title/tt0109493/,The Cowboy Way,"Vista de la Paz, Arroyo Seco, New Mexico, USA",(Vista de la Paz)                        ,,,
270,/title/tt0109493/,The Cowboy Way,"Espanola, New Mexico, USA",,"Espanola, Rio Arriba County, New Mexico, United States of America",35.9910962,-106.0808358
271,/title/tt0109493/,The Cowboy Way,"Manhattan Bridge, New York City, New York, USA",,"Manhattan Bridge, Cadman Plaza West, DUMBO, Brooklyn, Kings County, New York, 11201-1832, United States of America",40.7069799,-73.99046625873834
272,/title/tt0109493/,The Cowboy Way,"Rio Arriba County Fairgrounds, Espanola, New Mexico, USA",,,,
273,/title/tt0109493/,The Cowboy Way,"Santa Fe, New Mexico, USA",,"Santa Fe, Santa Fe County, New Mexico, United States of America",35.6869996,-105.9377997
274,/title/tt2167202/,Getaway,"Sofia, Bulgaria",,"София, Столична, София-град, България",42.6978634,23.3221789
275,/title/tt2167202/,Getaway,"Atlanta, Georgia, USA",,"Atlanta, Georgia, United States of America",33.7490987,-84.3901849
276,/title/tt2167202/,Getaway,USA,,United States,39.7837304,-100.4458825
277,/title/tt10228134/,Jolt,Bulgaria,,Бългaрия,42.6073975,25.4856617
278,/title/tt4076760/,Diablo,"Alberta, Canada",,"Alberta, Canada",55.001251,-115.002136
279,/title/tt1587694/,Off the Map,"O'ahu, Hawaii, USA",,"Oʻahu, Mililani, Honolulu County, Hawaii, United States of America",21.48349555,-158.03640389298
280,/title/tt0100107/,Maniac Cop 2,"Los Angeles, California, USA",,"Los Angeles, Los Angeles County, California, United States of America",34.0536909,-118.2427666
281,/title/tt0100107/,Maniac Cop 2,"Culver City, California, USA",(fire set piece in prison)                        ,"Culver City, Los Angeles County, California, United States of America",34.0211224,-118.3964665
282,/title/tt0100107/,Maniac Cop 2,"West New York, New Jersey, USA",,"West New York, Hudson County, New Jersey, United States of America",40.7856117,-74.0093129
283,/title/tt0458122/,Star Trek: New Voyages,"Los Angeles, California, USA",,"Los Angeles, Los Angeles County, California, United States of America",34.0536909,-118.2427666
284,/title/tt12239410/,Hercules,Greece,,Ελλάς,38.9953683,21.9877132
285,/title/tt7748244/,Ölümlü Dünya,"Istanbul, Turkey",,"İstanbul, Beyazıt Meydanı, Beyazıt Mahallesi, Fatih, İstanbul, Marmara Bölgesi, 34126, Türkiye",41.0096215,28.9651867
286,/title/tt0097910/,Moon 44,"Ennis House - 2607 Glendower Avenue, Los Feliz, Los Angeles, California, USA",(interiors scenes)                        ,"Ennis House, Glendower Avenue, Los Feliz, Los Angeles, Los Angeles County, California, 90027, United States of America",34.1162064,-118.2928586
287,/title/tt0097910/,Moon 44,"Old factory building, Renningen, Baden-Württemberg, Germany",(studio)                        ,,,
288,/title/tt3479316/,Parallels,"Terrytown, Louisiana, USA",,"Terrytown, Jefferson Parish, Louisiana, 70056, United States of America",29.910205,-90.0325709
289,/title/tt0094791/,The Bourne Identity,"Théoule-sur-Mer, France",(Beachfrontscene Port Noir)                        ,"Théoule-sur-Mer, Grasse, Alpes-Maritimes, Provence-Alpes-Côte d'Azur, France métropolitaine, 06590, France",43.5060877,6.9399193
290,/title/tt0094791/,The Bourne Identity,"Eiffel Tower, Paris, France",,"Tour Eiffel, 5, Avenue Anatole France, Quartier du Gros-Caillou, Paris, Île-de-France, France métropolitaine, 75007, France",48.858260200000004,2.2944990543196795
291,/title/tt0094791/,The Bourne Identity,"La Defense, Paris, France",,"Service historique de la Défense, Mail des Minimes, Quartier de Picpus, Paris, Île-de-France, France métropolitaine, 75012, France",48.8425689,2.4360689
292,/title/tt0094791/,The Bourne Identity,"French Riviera, Alpes-Maritimes, France",,"Riviera Française, La Giandola de Breil, Breil-sur-Roya, Nice, Alpes-Maritimes, Provence-Alpes-Côte d'Azur, France métropolitaine, 06540, France",43.952749,7.479413793610824
293,/title/tt0094791/,The Bourne Identity,"Villefranche-sur-Mer, Alpes-Maritimes, France",,"Villefranche-sur-Mer, Nice, Alpes-Maritimes, Provence-Alpes-Côte d'Azur, France métropolitaine, 06230, France",43.7042317,7.309969
294,/title/tt0094791/,The Bourne Identity,"Park Avenue and E. 71 Street, Upper East Side, Manhattan, New York City, New York, USA",,,,
295,/title/tt0094791/,The Bourne Identity,"New York City, New York, USA",,"New York, United States of America",40.7127281,-74.0060152
296,/title/tt0094791/,The Bourne Identity,"Paris, France",,"Paris, Île-de-France, France métropolitaine, France",48.8566969,2.3514616
297,/title/tt0056800/,55 Days at Peking,"Valencia, Comunidad Valenciana, Spain",,"València, Comarca de València, València / Valencia, Comunitat Valenciana, España",39.4697065,-0.3763353
298,/title/tt0056800/,55 Days at Peking,"Samuel Bronston Studios, Madrid, Spain",,,,
299,/title/tt5580536/,Arsenal,"Biloxi, Mississippi, USA",,"Biloxi, Harrison County, Mississippi, United States of America",30.374673,-88.84594333482862
300,/title/tt0297162/,Half Past Dead,"Berlin, Germany",,"Berlin, 10117, Deutschland",52.5170365,13.3888599
301,/title/tt0478024/,Saat po long,"Hong Kong, China",,"香港島 Hong Kong Island, 香港 Hong Kong, China 中国",22.2793278,114.1628131
302,/title/tt0247303/,Down,"First Floor Film Factory, Almere, Flevoland, Netherlands",,,,
303,/title/tt0247303/,Down,"New York, USA",,"New York, United States of America",40.7127281,-74.0060152
304,/title/tt0247303/,Down,"U.S. Customs House, New York City, New York, USA",,,,
305,/title/tt0247303/,Down,"Jersey City, New Jersey, USA",,"Jersey City, Hudson County, New Jersey, United States of America",40.7281575,-74.0776417
306,/title/tt1304612/,Power Rangers R.P.M.,"Auckland, New Zealand",,"Auckland, 1010, New Zealand",-36.852095,174.7631803
307,/title/tt8305692/,Santa Jaws,"Mandeville, Louisiana, USA",,"Mandeville, St. Tammany Parish, Louisiana, United States of America",30.3582305,-90.0657477
308,/title/tt0373587/,Power Rangers DinoThunder,"Sacred Heart College, Lower Hutt, Wellington, New Zealand",,"Sacred Heart College, 65, Laings Road, Woburn, Lower Hutt, Lower Hutt City, Wellington, 5010, New Zealand",-41.214557600000006,174.906874810428
309,/title/tt0092263/,Ying hung boon sik,"Hong Kong, China",,"香港島 Hong Kong Island, 香港 Hong Kong, China 中国",22.2793278,114.1628131
310,/title/tt0250720/,Spot,"Downtown Vancouver, British Columbia, Canada",,"Downtown Vancouver, 1202, Robson Street, West End, Vancouver, Metro Vancouver Regional District, British Columbia, V6E 1B0, Canada",49.2859975,-123.1273582
311,/title/tt5080556/,2.0,"Chennai, India",,"சென்னை - Chennai, சென்னை மாவட்டம், Tamil Nadu, India",13.0801721,80.2838331
312,/title/tt5080556/,2.0,"St. Joseph, Missouri, USA",(Location - Snow Geese Migration)                        ,"St. Joseph, Buchanan County, Missouri, United States of America",39.7686055,-94.8466322
313,/title/tt6978268/,Omerta,"London, England, UK",(location)                        ,"London, Greater London, England, United Kingdom",51.5073219,-0.1276474
314,/title/tt0486640/,Postal,"British Columbia, Canada",,"British Columbia, Canada",55.001251,-125.002441
315,/title/tt0486640/,Postal,"Cloverdale, Surrey, British Columbia, Canada",,"Cloverdale, Surrey, Metro Vancouver Regional District, British Columbia, Canada",49.1242883,-122.72942984609227
316,/title/tt0486640/,Postal,"Vancouver, British Columbia, Canada",,"Vancouver, Metro Vancouver Regional District, British Columbia, Canada",49.2608724,-123.1139529
317,Code,Show Name,Location,Scene,"Location, Tucker County, West Virginia, United States of America",39.2138905,-79.6371124
318,/title/tt0120575/,Power Rangers in Space,"California State University Long Beach - 1250 N. Bellflower Boulevard, Long Beach, California, USA",(KO-35)                        ,,,
319,/title/tt0120575/,Power Rangers in Space,"Barstow, California, USA",,"Barstow, San Bernardino County, California, United States of America",34.8957684,-117.0172077
320,/title/tt0120575/,Power Rangers in Space,"San Pedro, Los Angeles, California, USA",,"San Pedro, Los Angeles, Los Angeles County, California, 90731, United States of America",33.7358518,-118.2922934
321,/title/tt0120575/,Power Rangers in Space,"Valencia, California, USA",,"Valencia, Santa Clarita, Los Angeles County, California, 91355, United States of America",34.413819,-118.5610378
322,/title/tt0097579/,An Innocent Man,"Hamilton County Jail, Cincinnati, Ohio, USA",,,,
323,/title/tt0097579/,An Innocent Man,"Long Beach Police Department Headquarters - 400 W Broadway, Long Beach, California, USA",,"Long Beach Police Department Headquarters, Broadway, Long Beach, Los Angeles County, California, 90834, United States of America",33.769008549999995,-118.1972357000827
324,/title/tt0097579/,An Innocent Man,"Carson City, Nevada, USA",,"Carson City, Nevada, United States of America",39.1649125,-119.7666496
325,/title/tt0097579/,An Innocent Man,"Royal Laundry Complex, 443 S Raymond Avenue, Pasadena California, USA",(Where the cops and Donatelli meet)                        ,,,
326,/title/tt0097579/,An Innocent Man,"Norwood Middle School, Norwood, Ohio, USA",,"Norwood Middle School, Sherman Avenue, Paddock Hills, Norwood, Hamilton County, Ohio, 45212, United States of America",39.161322150000004,-84.45940717057319
327,/title/tt0913354/,Armored,"California Steel Industries - 14000 San Bernardino Avenue, Fontana, California, USA",,,,
328,/title/tt0913354/,Armored,"California, USA",,"California, United States of America",36.7014631,-118.7559974
329,/title/tt0913354/,Armored,"Long Beach, California, USA",,"Long Beach, Los Angeles County, California, United States of America",33.7690164,-118.1916048
330,/title/tt10267798/,Endlings,"Cambridge, Ontario, Canada",,"Cambridge, Region of Waterloo, Southwestern Ontario, Ontario, N1R 1T7, Canada",43.3600536,-80.3123023
331,/title/tt0098051/,The Package,"14907 Woodlawn Ave, Dolton, Illinois, USA",,"14907, Woodlawn Avenue, Berger, Dolton, Thornton Township, Cook County, Illinois, 60419, United States of America",41.624219440614525,-87.587987745982
332,/title/tt0098051/,The Package,"Ciral's House of Tiki - 1612 E. 53rd St., Chicago, Illinois, USA",,,,
333,/title/tt0098051/,The Package,"Soviet War Memorial, Tiergarten, Berlin, Germany",,,,
334,/title/tt0098051/,The Package,"O'Hare International Airport, Chicago, Illinois, USA",(Internals)                        ,,,
335,/title/tt0098051/,The Package,"Randolph/Wabash El Station, The Loop, Downtown, Chicago, Illinois, USA",(L train station scenes)                        ,,,
336,/title/tt6868278/,The Test Case,"Satara, Maharashtra, India",,"Satara, Maharashtra, India",17.63612885,74.29827807601782
337,/title/tt0086690/,Cover Up,"Stage 18, 20th Century Fox Studios - 10201 Pico Blvd., Century City, Los Angeles, California, USA",(studio)                        ,,,
338,/title/tt8801880/,Gears 5,"Chicago, Illinois, USA",,"Chicago, Cook County, Illinois, United States of America",41.8755616,-87.6244212
339,/title/tt0389957/,Edison,"Vancouver, British Columbia, Canada",,"Vancouver, Metro Vancouver Regional District, British Columbia, Canada",49.2608724,-123.1139529
340,/title/tt0880557/,Bionic Woman,"Vancouver, British Columbia, Canada",,"Vancouver, Metro Vancouver Regional District, British Columbia, Canada",49.2608724,-123.1139529
341,/title/tt2957760/,Extortion,Puerto Rico,,"Puerto Rico, Orocovis, Puerto Rico, United States of America",18.2214149,-66.41328179513847
342,/title/tt2957760/,Extortion,"Los Angeles, California, USA",,"Los Angeles, Los Angeles County, California, United States of America",34.0536909,-118.2427666
343,/title/tt0397042/,Biohazard 4,Spain,,España,39.3262345,-4.8380649
344,/title/tt0071824/,McQ,"Quinault Indian Reservation, Washington, USA",(chase scene on beach)                        ,,,
345,/title/tt0071824/,McQ,"Aberdeen, Washington, USA",,"Aberdeen, Grays Harbor County, Washington, 985370525, United States of America",46.975371,-123.815722
346,/title/tt0071824/,McQ,"Seattle, Washington, USA",(Puget Sound marinas)                        ,"Seattle, King County, Washington, United States of America",47.6038321,-122.3300624
347,/title/tt0071824/,McQ,"Seattle, Washington, USA",(downtown municipal building used for the police HQ scenes)                        ,"Seattle, King County, Washington, United States of America",47.6038321,-122.3300624
348,/title/tt0896036/,BloodRayne II: Deliverance,"Maple Ridge, British Columbia, Canada",,"Maple Ridge, Metro Vancouver Regional District, British Columbia, Canada",49.2197345,-122.5997078
349,/title/tt9272568/,The Driver,"Bangkok, Thailand",(location)                        ,"กรุงเทพมหานคร, เขตพระนคร, กรุงเทพมหานคร, 10200, ประเทศไทย",13.7542529,100.493087
350,/title/tt4048942/,Wataha,"Bieszczady Mountains, Podkarpackie, Poland",,,,
351,/title/tt1598873/,Cleanskin,"Essex Road, Islington, London, UK",(scene of bomb attack)                        ,"Essex Road, Canonbury Road, Canonbury, London Borough of Islington, London, Greater London, England, N1 8LZ, United Kingdom",51.5407328,-0.0961859
352,/title/tt1598873/,Cleanskin,"Tottenham Court Road, Bloomsbury, London, England, UK",(location)                        ,"Tottenham Court Road, Charing Cross Road, St Giles, Bloomsbury, London Borough of Camden, London, Greater London, England, WC2H 0LA, United Kingdom",51.5156503,-0.1302418
353,/title/tt1598873/,Cleanskin,"Alfred Place, London, England, UK",(location)                        ,"Alfred Place, St Giles, Bloomsbury, London Borough of Camden, London, Greater London, England, WC1E 7FB, United Kingdom",51.5205368,-0.1333018
354,/title/tt1598873/,Cleanskin,"Mayfair Hotel, Stratton Street, Westminster, London, England, UK",(Harry's hotel - externals)                        ,,,
355,/title/tt1598873/,Cleanskin,"Park Street, Southwark, London, England, UK",(Emma takes a phone call - externals)                        ,"Park Street, Borough, Southwark, London Borough of Southwark, London, Greater London, England, SE1 9EF, United Kingdom",51.5068922,-0.0935045
356,/title/tt0108188/,Sonatine,"Okinawa, Japan",,"沖縄市, 沖縄県, 日本 (Japan)",26.3343738,127.8056597
357,/title/tt5851014/,Savage Dog,"Dien Bien Phu, Vietnam",,"Điện Biên Phủ, Tỉnh Điện Biên, 380000, Việt Nam",21.3874893,103.0185
358,/title/tt0337917/,Catch That Kid,"Glendale, California, USA",,"Glendale, Los Angeles County, California, United States of America",34.1469416,-118.2478471
359,/title/tt0337917/,Catch That Kid,"Santa Clarita, California, USA",,"Santa Clarita, Los Angeles County, California, United States of America",34.3916641,-118.542586
360,/title/tt6826438/,Parmanu: The Story of Pokhran,India,,India,22.3511148,78.6677428
361,/title/tt0087727/,Missing in Action,Philippines,,Philippines,12.7503486,122.7312101
362,/title/tt7937168/,La trinchera infinita,"Higuera de la Sierra, Huelva, Spain",,"Higuera de la Sierra, Sierra de Aracena, Huelva, Andalucía, España",37.8365154,-6.4478855
363,/title/tt0073240/,Meesterlijke doder,"Sausalito, California, USA",,"Sausalito, Marin County, California, 94965, United States of America",37.8590272,-122.4854694
364,/title/tt0073240/,Meesterlijke doder,"Hamilton Air Force Base, Novato, California, USA",(Safe House)                        ,"Hamilton Air Force Base, Audubon Way, Dewitt, Novato, Marin County, California, 94913, United States of America",38.0541622,-122.5116715
365,/title/tt0073240/,Meesterlijke doder,"San Francisco International Airport, San Francisco, California, USA",,"San Francisco International Airport, 780, South Airport Boulevard, San Mateo County, California, 94128, United States of America",37.622451999999996,-122.38407160781362
366,/title/tt0073240/,Meesterlijke doder,"Marin Headlands, California, USA",,"Marin Headlands (GGNRA), Shoreline Highway, Muir Beach, Marin County, California, 94941, United States of America",37.856142,-122.5343032196291
367,/title/tt0073240/,Meesterlijke doder,"Filbert Steps, Filbert Street, San Francisco, California, USA",,"Filbert Steps, Filbert Street, Telegraph Hill, San Francisco, San Francisco City and County, California, 94113, United States of America",37.8019102,-122.4050805
368,/title/tt0073240/,Meesterlijke doder,"San Francisco Bay, California, USA",,"San Francisco Bay, California, 94603, United States of America",37.71402905,-122.30779415179862
369,/title/tt0069768/,Battle for the Planet of the Apes,"20th Century Fox Ranch, Malibu Creek State Park - 1925 Las Virgenes Road, Calabasas, California, USA",(Ape City and battle scenes)                        ,,,
370,/title/tt8339682/,Shadow of the Tomb Raider,"New York City, New York, USA",,"New York, United States of America",40.7127281,-74.0060152
371,/title/tt0357718/,Halo 2,"Chicago Illinois, USA",,"Chicago, Cook County, Illinois, United States of America",41.8755616,-87.6244212
372,/title/tt0088618/,Street Hawk,"363 S Mission Rd, Los Angeles, California, USA",(exterior: Street Hawk command center door)                        ,"363, South Mission Road, Boyle Heights, Los Angeles, Los Angeles County, California, 90033, United States of America",34.04108045560392,-118.22697937899233
373,/title/tt0098097/,Pink Cadillac,"Nugget Casino Resort - 1100 Nugget Avenue, Sparks, Nevada, USA",,,,
374,/title/tt0098097/,Pink Cadillac,"Sacramento, California, USA",,"Sacramento, Sacramento County, California, United States of America",38.5815719,-121.4943996
375,/title/tt0098097/,Pink Cadillac,"Hazen, Nevada, USA",,"Hazen, Churchill County, Nevada, United States of America",39.5651915,-119.0462731
376,/title/tt0098097/,Pink Cadillac,"Greenville, California, USA",,"Greenville, Green Meadows Lane, Greenville, Plumas County, California, 95947, United States of America",40.136846500000004,-120.95057800475286
377,/title/tt1209393/,Vanpaia naito,"Tokyo, Japan",,"東京都, 日本 (Japan)",35.6828387,139.7594549
378,/title/tt1189346/,Zeke and Luther,"Torrance, California, USA",,"Torrance, Los Angeles County, California, United States of America",33.8358492,-118.3406288
379,/title/tt0068273/,The Big Bird Cage,"Banaue Rice Terraces, Ifugao, Philippines",,"Banaue Rice Terraces, Nueva Vizcaya - Ifugao - Mt. Province Road, San Fernando, Banaue, Ifugao, Cordillera Administrative Region, 3601, Philippines",16.92300855,121.06161023465711
380,/title/tt8752474/,Justice League vs. the Fatal Five,"Chicago Illinois, USA",,"Chicago, Cook County, Illinois, United States of America",41.8755616,-87.6244212
381,/title/tt1486193/,5 Days of War,Republic of Georgia,,"Georgia, Leoforos Protaras, Πρωταράς, Αμμόχωστος - Mağusa, 37087, Κύπρος",35.0175124,34.0484215
382,/title/tt2535470/,Wyrmwood,"Sydney, New South Wales, Australia",,"Sydney, New South Wales, Australia",-33.8548157,151.2164539
383,Code,Show Name,Location,Scene,"Location, Tucker County, West Virginia, United States of America",39.2138905,-79.6371124
384,/title/tt3775086/,Lo chiamavano Jeeg Robot,"Rome, Lazio, Italy",,"Roma Capitale, Lazio, Italia",41.85223935,12.631036615953583
385,/title/tt3775086/,Lo chiamavano Jeeg Robot,"Cinecittà Studios, Cinecittà, Rome, Lazio, Italy",,,,
386,/title/tt3775086/,Lo chiamavano Jeeg Robot,"Grottaferrata, Rome, Lazio, Italy",,"Monastero Esarchico di Santa Maria di Grottaferrata, 128, Corso del Popolo, Castel De Paolis, Grottaferrata, Roma Capitale, Lazio, 00046, Italia",41.78583365,12.6667628372362
387,/title/tt3775086/,Lo chiamavano Jeeg Robot,"Pomezia, Rome, Lazio, Italy",,"Pomezia, Strada statale 148 Pontina, Area Produttiva, Quartiere Primavera, Pomezia, Roma Capitale, Lazio, 00071, Italia",41.6708645,12.5069301
388,/title/tt8856470/,Pokémon Mewtwo Slaat Terug Evolutie,"Setagaya, Tokyo, Japan",,"世田谷区, 東京都, 日本 (Japan)",35.646096,139.65627
389,/title/tt8856470/,Pokémon Mewtwo Slaat Terug Evolutie,"New York City, New York, USA",,"New York, United States of America",40.7127281,-74.0060152
390,/title/tt0041841/,Sands of Iwo Jima,"Marine Corps Base Camp Pendleton, California, USA",,"Marine Corps Base Camp Pendleton, San Diego County, California, 92051, United States of America",33.35453425,-117.42417276260397
391,/title/tt0041841/,Sands of Iwo Jima,"Santa Catalina Island, Channel Islands, California, USA",,,,
392,/title/tt0041841/,Sands of Iwo Jima,"Republic Studios, Hollywood, Los Angeles, California, USA",,,,
393,/title/tt0119731/,Murder at 1600,"Toronto, Ontario, Canada",,"Toronto, Peel, Golden Horseshoe, Ontario, Canada",43.6534817,-79.3839347
394,/title/tt0119731/,Murder at 1600,"Washington, District of Columbia, USA",,"Washington, District of Columbia, 20230, United States of America",38.8949924,-77.0365581
395,/title/tt0119731/,Murder at 1600,"Cinespace Film Studios - 11030 Highway 27, Kleinburg, Ontario, Canada",(Oval Office)                        ,,,
396,/title/tt0974583/,Lake Placid 2,Bulgaria,,Бългaрия,42.6073975,25.4856617
397,/title/tt0132910/,The Crow: Salvation,"Salt Lake City, Utah, USA",,"Salt Lake City, Salt Lake County, Utah, United States of America",40.7596198,-111.8867975
398,/title/tt4180514/,Tremors 5: Bloodlines,South Africa,(Johannesburg)                        ,South Africa,-28.8166236,24.991639
399,/title/tt0040175/,Blood on the Moon,"Sedona, Arizona, USA",,"Sedona, Coconino County, Arizona, United States of America",34.8679599,-111.7617165
400,/title/tt0040175/,Blood on the Moon,"Red Rock Crossing, Sedona, Arizona, USA",,,,
401,/title/tt0040175/,Blood on the Moon,"Monogram Ranch - 24715 Oak Creek Avenue, Newhall, California, USA",,,,
402,/title/tt0489018/,Day of the Dead,"New Boyana Film Studios, Sofia, Bulgaria",(soundstage)                        ,,,
403,/title/tt0489018/,Day of the Dead,"Sofia, Bulgaria",,"София, Столична, София-град, България",42.6978634,23.3221789
404,/title/tt0109688/,Dung che sai duk,China,,中国,35.000074,104.999927
405,/title/tt4738360/,Birkebeinerne,"Lillehammer, Norway",(location)                        ,"Lillehammer, Innlandet, Norge",61.1333408,10.426585544131413
406,/title/tt4229228/,Ren,"Caxton, Cambridgeshire, England, UK",,"Caxton, Cambridgeshire, East of England, England, CB23 3PL, United Kingdom",52.2060215,-0.0949563
407,/title/tt4433646/,Terra Formars,"Reykjavík, Iceland",,"Reykjavíkurborg, Höfuðborgarsvæðið, Ísland",64.145981,-21.9422367
408,/title/tt1733732/,Triassic Attack,Bulgaria,,Бългaрия,42.6073975,25.4856617
409,/title/tt0114467/,Skyscraper,"444 S. Flower Street, Downtown, Los Angeles, California, USA",,"Equinox Downtown LA, 444, South Flower Street, Financial District, Downtown, Los Angeles, Los Angeles County, California, 90071, United States of America",34.0509111,-118.2547748
410,/title/tt0114467/,Skyscraper,"Los Angeles, California, USA",,"Los Angeles, Los Angeles County, California, United States of America",34.0536909,-118.2427666
411,/title/tt0062861/,Gevaar: Diabolik!,"Capri, Italy",(Blue Grotto scenes)                        ,"Caprie, Provincia di Torino, Piemonte, Italia",45.118845,7.331914
412,/title/tt0062861/,Gevaar: Diabolik!,"Hotel Hilton Cavalieri - 101 via Alberto Cadlolo, Rome, Lazio, Italy",(Valmont's villa and pool)                        ,,,
413,/title/tt0062861/,Gevaar: Diabolik!,"Dino De Laurentiis Cinematografica Studios, Rome, Lazio, Italy",(studio) (exteriors: bank in the first scene)                        ,,,
414,/title/tt0094750/,Black Eagle,Malta,,Malta,35.8885993,14.4476911
415,/title/tt0083064/,Sharky's Machine,"Peachtree Plaza Hotel - 210 Peachtree Street, Atlanta, Georgia, USA",,,,
416,/title/tt0083064/,Sharky's Machine,"Atlanta-Fulton County Stadium - 521 Capital Avenue, Atlanta, Georgia, USA",,,,
417,/title/tt0083064/,Sharky's Machine,"Peeples Street Elementary, Atlanta, Georgia, USA",(C.B.)                        ,,,
418,/title/tt1717715/,Xi you ji: Da nao tian gong,"Beijing Studios, Beijing, China",(studio)                        ,,,
419,/title/tt7086730/,Devil's Night: Dawn of the Nain Rouge,"Packard Plant, Detroit, Michigan, USA",,"Packard Automotive Plant, Hyde Street, Gratiot Town/Kettering, Midtown, Detroit, Wayne County, Michigan, 48211, United States of America",42.37773715,-83.02731451817237
420,/title/tt7086730/,Devil's Night: Dawn of the Nain Rouge,"Lake Orion, Michigan, USA",,"Lake Orion, Oakland County, Michigan, 48362, United States of America",42.7844752,-83.2396612
421,/title/tt7086730/,Devil's Night: Dawn of the Nain Rouge,"Detroit, Michigan, USA",(on location)                        ,"Detroit, Wayne County, Michigan, United States of America",42.3315509,-83.0466403
422,/title/tt0094511/,Mission: Impossible,"Melbourne, Victoria, Australia",,"Melbourne, City of Melbourne, Victoria, 3000, Australia",-37.8142176,144.9631608
423,/title/tt0094511/,Mission: Impossible,"Village Roadshow Studios, Oxenford, Queensland, Australia",,"Village Roadshow Studios, Entertainment Road, Oxenford, Gold Coast City, Queensland, 4210, Australia",-27.910527700000003,153.3118145855983
424,/title/tt0094511/,Mission: Impossible,"Gold Coast, Queensland, Australia",,"Gold Coast City, Queensland, Australia",-28.0023731,153.4145987
425,/title/tt0071266/,Caged Heat,"Lincoln Heights Jail - 401 N. Avenue 19, Lincoln Heights, Los Angeles, California, USA",,,,
426,/title/tt0071266/,Caged Heat,"Los Alamos, California, USA",,"Los Alamos, Drum Canyon Road, Los Alamos, Santa Barbara County, California, 93440, United States of America",34.7379311,-120.26591046240952
427,/title/tt0071266/,Caged Heat,"Steeles Motor Lodge - 13949 Ventura Blvd, Sherman Oaks, California, USA","(opening scene, demolished 1988)                        ",,,
428,/title/tt0071266/,Caged Heat,"Downtown, Los Angeles, California, USA",,"Downtown, Los Angeles, Los Angeles County, California, United States of America",34.0428494,-118.2476732
429,/title/tt0088224/,Tank,"Fort Benning, Georgia, USA",,"Fort Benning, Cusseta-Chattahoochee County, Chattahoochee County, Georgia, 31905, United States of America",32.3523691,-84.9688191
430,/title/tt0088224/,Tank,"Georgia, USA",,"Georgia, United States of America",32.3293809,-83.1137366
431,/title/tt1227762/,Aladin,"Mumbai, Maharashtra, India",,"Mumbai, Mumbai City, Maharashtra, India",18.9387711,72.8353355
432,/title/tt1580426/,Repeaters,"Mission, British Columbia, Canada",,"Mission, British Columbia, Canada",49.1589351,-122.2835833
433,/title/tt0455596/,The Librarian: Return to King Solomon's Mines,"Waterfront Studios, Cape Town, Western Cape, South Africa",,"Sea Mount Studios, 2, Rontree Avenue, Cape Town Ward 54, Cape Town, City of Cape Town, Western Cape, 8005, South Africa",-33.9638081,18.3795323898093
434,/title/tt0455596/,The Librarian: Return to King Solomon's Mines,"Cape Town, Western Cape, South Africa",,"Cape Town, City of Cape Town, Western Cape, 8001, South Africa",-33.928992,18.417396
435,/title/tt0499400/,The Nine Lives of Chloe King,"Sausalito, California, USA",,"Sausalito, Marin County, California, 94965, United States of America",37.8590272,-122.4854694
436,/title/tt4832640/,Sultan,"Rewari, Haryana, India",(Location)                        ,"Rewari, Haryana, India",28.1956468,76.6165179
437,/title/tt6705640/,Trauma,"Santiago, Chile",(location)                        ,"Santiago, Provincia de Santiago, Región Metropolitana de Santiago, Chile",-33.4377968,-70.6504451
438,/title/tt2193265/,Welcome to the Jungle,Puerto Rico,,"Puerto Rico, Orocovis, Puerto Rico, United States of America",18.2214149,-66.41328179513847
439,/title/tt0104558/,Ging chaat goo si III: Chiu kup ging chaat,"Kuala Lumpur, Malaysia",,"Kuala Lumpur, Malaysia",3.1516964,101.6942371
440,/title/tt0104558/,Ging chaat goo si III: Chiu kup ging chaat,"Shanghai, China",,"上海市, China 中国",31.2322758,121.4692071
441,/title/tt7773340/,Su ren te gong,"Budapest, Hungary",,"Budapest, Közép-Magyarország, 1011, Magyarország",47.4983815,19.0404707
442,/title/tt7773340/,Su ren te gong,"Beijing, China",(studio)                        ,"北京市, 东城区, 北京市, 100010, China 中国",39.906217,116.3912757
443,/title/tt0271946/,The Accidental Spy,"Istanbul, Turkey",,"İstanbul, Beyazıt Meydanı, Beyazıt Mahallesi, Fatih, İstanbul, Marmara Bölgesi, 34126, Türkiye",41.0096215,28.9651867
444,/title/tt0271946/,The Accidental Spy,Korea,,대한민국,36.638392,127.6961188
445,/title/tt0271946/,The Accidental Spy,"Seoul, South Korea",,"서울, 대한민국",37.5666791,126.9782914
446,/title/tt1649443/,[REC] 4: Apocalipsis,"Barcelona, Catalonia, Spain",,"Barcelona, Barcelonès, Catalunya, 08001, España",41.3828939,2.1774322
447,/title/tt1649443/,[REC] 4: Apocalipsis,"Las Palmas de Gran Canaria, Gran Canaria, Canary Islands, Spain",,"Las Palmas de Gran Canaria, Calle Lucas Fernández Navarro, Puerto, Las Palmas de Gran Canaria, Las Palmas, Canarias, 35007, España",28.1373026,-15.4305696
448,Code,Show Name,Location,Scene,"Location, Tucker County, West Virginia, United States of America",39.2138905,-79.6371124
449,/title/tt0109676/,Drop Zone,"Key Largo, Florida, USA",,"Key Largo, Monroe County, Florida, United States of America",25.109291,-80.4240159821747
450,/title/tt0109676/,Drop Zone,"Miami, Florida, USA",,"Miami, Miami-Dade County, Florida, United States of America",25.7742658,-80.1936589
451,/title/tt0109676/,Drop Zone,"Florida, USA",,"Florida, United States of America",27.7567667,-81.4639835
452,/title/tt0052472/,Hawaiian Eye,"Stage 27A, Warner Brothers Burbank Studios - 4000 Warner Boulevard, Burbank, California, USA",,,,
453,/title/tt0052472/,Hawaiian Eye,"Stage 26, Warner Brothers Burbank Studios - 4000 Warner Boulevard, Burbank, California, USA",,,,
454,/title/tt12808182/,The Last Mercenary,"Kiev, Ukraine",,"Київ, Україна",50.4500336,30.5241361
455,/title/tt1925518/,Tom yum goong 2,Thailand,,ประเทศไทย,14.8971921,100.83273
456,/title/tt0206476/,Cleopatra 2525,"Auckland, New Zealand",,"Auckland, 1010, New Zealand",-36.852095,174.7631803
457,/title/tt0078856/,Beyond the Poseidon Adventure,"Santa Catalina Island, Channel Islands, California, USA",(sea scenes)                        ,,,
458,/title/tt0078856/,Beyond the Poseidon Adventure,"Warner Brothers Burbank Studios - 4000 Warner Boulevard, Burbank, California, USA",(studio)                        ,,,
459,/title/tt0062572/,It Takes a Thief,"Backlot, Universal Studios - 100 Universal City Plaza, Universal City, California, USA",,,,
460,/title/tt0116421/,The Glimmer Man,"Barclay Hotel - 103 W. 4th Street, Downtown, Los Angeles, California, USA",(Ovington Arms)                        ,"Barclay Hotel, West 4th Street, Gallery Row, Downtown, Los Angeles, Los Angeles County, California, 90013, United States of America",34.04849635,-118.24748896545279
461,/title/tt0116421/,The Glimmer Man,"450 N June St, Los Angeles, California, USA",,"450, North June Street, Hancock Park, Los Angeles, Los Angeles County, California, 90004, United States of America",34.07931586433186,-118.33404313361658
462,/title/tt0116421/,The Glimmer Man,"E. 5th St & S Los Angeles St, Los Angeles, California, USA",(Campbell's House)                        ,,,
463,/title/tt0116421/,The Glimmer Man,"Los Feliz, Los Angeles, California, USA",,"Los Feliz, Los Angeles, Los Angeles County, California, United States of America",34.1076561,-118.2875062
464,/title/tt0080934/,The Island,"Antigua, Antigua and Barbuda",,"Antigua, Saint George, Antigua and Barbuda",17.0855891,-61.79456028639201
465,/title/tt0080934/,The Island,"Miami, Florida, USA",,"Miami, Miami-Dade County, Florida, United States of America",25.7742658,-80.1936589
466,/title/tt0080934/,The Island,"Fort Lauderdale, Florida, USA",,"Fort Lauderdale, Broward County, Florida, United States of America",26.1223084,-80.1433786
467,/title/tt1059836/,Transit,"Praireville, Louisiana, USA",(street scenes)                        ,,,
468,/title/tt8295516/,Call of Duty: Black Ops 4,"Boston, Massachusetts, USA",,"Boston, Suffolk County, Massachusetts, United States of America",42.3602534,-71.0582912
469,/title/tt8295516/,Call of Duty: Black Ops 4,"Chicago, Illinois, USA",,"Chicago, Cook County, Illinois, United States of America",41.8755616,-87.6244212
470,/title/tt9098432/,Malibu Rescue,"Westward Beach - Westward Beach Road, Malibu, California, USA",(on location)                        ,,,
471,/title/tt0082332/,Enter the Ninja,"Manila, Metro Manila, Philippines",,"Manila, First District, Metro Manila, Philippines",14.5907332,120.9809674
472,/title/tt0082332/,Enter the Ninja,"Tokyo, Japan",,"東京都, 日本 (Japan)",35.6828387,139.7594549
473,/title/tt1649444/,[Rec]³: Génesis,"Orrius, Barcelona, Catalonia, Spain",,,,
474,/title/tt1649444/,[Rec]³: Génesis,"Cervelló, Barcelona, Catalonia, Spain",,"Ajuntament de Santa Coloma de Cervelló, 26, 34, Carrer Pau Casals, Santa Coloma de Cervelló, Baix Llobregat, Catalunya, 08690, España",41.3688973,2.0162709405485595
475,/title/tt0099575/,Fire Birds,"Mammoth, Arizona, USA",,"Mammoth, Pinal County, Arizona, 85618, United States of America",32.722568,-110.6406547
476,/title/tt0099575/,Fire Birds,"Mesa, Arizona, USA",,"Mesa, Maricopa County, Arizona, United States of America",33.4151117,-111.8314773
477,/title/tt0099575/,Fire Birds,"Davis-Monthan Air Force Base, Tucson, Arizona, USA",,"Davis-Monthan Air Force Base, Yuma Street, Vandenberg Village, Tucson, Pima County, Arizona, 85707-3529, United States of America",32.17079565,-110.86990239630313
478,/title/tt0099575/,Fire Birds,"Picketpost Mountain, Superior, Arizona, USA",,,,
479,/title/tt0099575/,Fire Birds,"Superstition Mountains, Arizona, USA",,"Superstition Mountains, Pinal County, Arizona, United States of America",33.4286606,-111.4181856
480,/title/tt0099575/,Fire Birds,"Miami, Arizona, USA",,"Miami, Gila County, Arizona, 85539, United States of America",33.3994776,-110.87095
481,/title/tt0099575/,Fire Birds,"Reymert, Arizona, USA",,"Reymert, Pinal County, Arizona, United States of America",33.2297793,-111.2092899
482,/title/tt0099575/,Fire Birds,"Apache Junction, Arizona, USA",,"Apache Junction, Pinal County, Arizona, United States of America",33.4150485,-111.549577
483,/title/tt2782232/,Circus of the Dead,"Odessa, Texas, USA",,"Odessa, Ector County, Texas, United States of America",31.8457149,-102.367687
484,/title/tt1727373/,The Kill Hole,"Portland, Oregon, USA",,"Portland, Multnomah County, Oregon, United States of America",45.5202471,-122.6741949
485,/title/tt4768764/,Beterang,"Seoul, South Korea",,"서울, 대한민국",37.5666791,126.9782914
486,/title/tt0306892/,George and the Dragon,"Carousel Picture Company, Luxembourg, Luxembourg",(studio)                        ,,,
487,/title/tt0119879/,Perdita Durango,"Nogales, Arizona, USA",,"Nogales, Santa Cruz County, Arizona, 85621, United States of America",31.3402134,-110.9360818
488,/title/tt0119879/,Perdita Durango,"Sonoran Desert, Arizona, USA",,"Sonoran Desert, Bates Well Road, Pima County, Arizona, United States of America",32.2598642,-112.9262583
489,/title/tt0119879/,Perdita Durango,Mexico,,"Ciudad de México, 06060, México",19.4326296,-99.1331785
490,/title/tt0119879/,Perdita Durango,"Texas, USA",,"Texas, United States of America",31.8160381,-99.5120986
491,/title/tt0119879/,Perdita Durango,"Xochimilco, Mexico City, Distrito Federal, Mexico",,"Xochimilco, Avenida 20 de Noviembre, Xochimilco, Xico, 16000, México",19.2593554,-99.1078466
492,/title/tt7052494/,Trading Paint,"Birmingham, Alabama, USA",,"Birmingham, Jefferson County, Alabama, United States of America",33.5206824,-86.8024326
493,/title/tt7052494/,Trading Paint,"Hueytown, Alabama, USA",(First Oil Change)                        ,"Hueytown, Jefferson County, Alabama, United States of America",33.4512197,-86.9966606
494,/title/tt7052494/,Trading Paint,"Hoover, Alabama, USA",(Golden Rule Bar BQ)                        ,"Hoover, Jefferson County, Alabama, 35226, United States of America",33.3848933,-86.8070484
495,/title/tt7052494/,Trading Paint,"Bessemer, Alabama, USA",(Town & Country Ford)                        ,"Bessemer, Jefferson County, Alabama, United States of America",33.3234935,-86.9191832007722
496,/title/tt2724532/,Gridlocked,"Toronto, Ontario, Canada",,"Toronto, Peel, Golden Horseshoe, Ontario, Canada",43.6534817,-79.3839347
497,/title/tt2236126/,Power Rangers Megaforce,"Auckland, New Zealand",,"Auckland, 1010, New Zealand",-36.852095,174.7631803
498,/title/tt0096149/,Space Mutiny,South Africa,,South Africa,-28.8166236,24.991639
499,/title/tt0142192/,The Corruptor,"Chinatown, Manhattan, New York City, New York, USA",,"Chinatown, Manhattan Community Board 2, Manhattan, New York County, New York, United States of America",40.7164913,-73.9962504
500,/title/tt1606384/,Mai wei,Latvia,,Latvija,56.8406494,24.7537645
501,/title/tt6599010/,Big Dogs,"New York City, New York, USA",(location)                        ,"New York, United States of America",40.7127281,-74.0060152
502,/title/tt6599010/,Big Dogs,"New York, USA",,"New York, United States of America",40.7127281,-74.0060152
503,/title/tt0103460/,Kung Fu: The Legend Continues,"Toronto, Ontario, Canada",,"Toronto, Peel, Golden Horseshoe, Ontario, Canada",43.6534817,-79.3839347
504,/title/tt2554270/,Ta-weo,"Seoul, South Korea",,"서울, 대한민국",37.5666791,126.9782914
505,/title/tt9786512/,Adiós,"Seville, Seville, Andalucía, Spain",,"Sevilla, Andalucía, España",37.3886303,-5.9953403
506,/title/tt2911674/,Tiger House,"Kirstenbosch Drive, Bishopscourt, Cape Town, Western Cape, South Africa",(Mark and Kelly shoot arrows)                        ,"Kirstenbosch Drive, Bishopscourt, Cape Town, City of Cape Town, Western Cape, 7708, South Africa",-33.9864018,18.4479061
507,/title/tt2911674/,Tiger House,"Waterlane House, 58th Avenue, Wynberg Park, Wynberg, Cape Town, Western Cape, South Africa",(Mark's house)                        ,,,
508,/title/tt0102797/,Robin Hood,"Peckforton Castle, Peckforton, Cheshire, England, UK",(used as principle location)                        ,"Peckforton Castle, Stone House Lane, Peckforton, Bulkeley, Cheshire East, North West England, England, CW6 9TN, United Kingdom",53.1177986,-2.6991619
509,/title/tt0102797/,Robin Hood,"Tatton Park, Knutsford, Cheshire, England, UK",,"Tatton Park, Tatton, Knutsford, Cheshire East, North West England, England, WA16 6QN, United Kingdom",53.32475975,-2.3770745048593858
510,/title/tt0086192/,Revenge of the Ninja,"Salt Lake City, Utah, USA",,"Salt Lake City, Salt Lake County, Utah, United States of America",40.7596198,-111.8867975
511,/title/tt0180748/,I Kina spiser de hunde,"Café Langebro, Islands Brygge, Copenhagen, Denmark",(bar scenes)                        ,"Cafe Langebro, 1 B, Islands Brygge, Christianshavn, København, Københavns Kommune, Region Hovedstaden, 2300, Danmark",55.6691735,12.5802893
512,/title/tt0456020/,Waist Deep,"Los Angeles, California, USA",,"Los Angeles, Los Angeles County, California, United States of America",34.0536909,-118.2427666
513,/title/tt2322158/,Crisis,"Gold Coast, Near North Side, Chicago, Illinois, USA",(witnessed filming)                        ,,,
514,/title/tt6613814/,Solo,"Kochi, Kerala, India",,"Kochi, Ernakulam district, Kerala, 682005, India",9.931308,76.2674136
515,/title/tt0451469/,Power Rangers Mystic Force,"Auckland, New Zealand",,"Auckland, 1010, New Zealand",-36.852095,174.7631803
516,/title/tt0451469/,Power Rangers Mystic Force,"Sacred Heart College, Lower Hutt, Wellington, New Zealand",,"Sacred Heart College, 65, Laings Road, Woburn, Lower Hutt, Lower Hutt City, Wellington, 5010, New Zealand",-41.214557600000006,174.906874810428
517,/title/tt1323925/,The Hunt for Gollum,"Epping Forest, Essex, England, UK",,"Epping Forest, Stoney Bridge Drive, Waltham Abbey, Epping Forest, Essex, East of England, England, EN9 3AZ, United Kingdom",51.6651914,0.054777964493725836
518,Code,Show Name,Location,Scene,"Location, Tucker County, West Virginia, United States of America",39.2138905,-79.6371124
519,/title/tt7858472/,Soeurs d'armes,Kurdistan,,"استان کردستان, ایران",35.672803,47.0124376
520,/title/tt7858472/,Soeurs d'armes,Iraq,,العراق,33.0955793,44.1749775
521,/title/tt2122656/,Giruti kuraun: Guilty Crown,"Tokyo, Japan",,"東京都, 日本 (Japan)",35.6828387,139.7594549
522,/title/tt8748608/,Deliler,"Aksaray, Turkey",(location)                        ,"Aksaray, İç Anadolu Bölgesi, Türkiye",38.4326291,33.8976963
523,/title/tt0100224/,Narrow Margin,"British Columbia, Canada",(Exterior train shots)                        ,"British Columbia, Canada",55.001251,-125.002441
524,/title/tt0100224/,Narrow Margin,"Grouse Mountain, North Vancouver, British Columbia, Canada",(cabin scene)                        ,"Grouse Mountain, Grousewoods, District of North Vancouver, Metro Vancouver Regional District, British Columbia, Canada",49.37886315,-123.07682131690603
525,/title/tt0115319/,Power Rangers Zeo,"Mammoth Mountain, California, USA",,"Mammoth Mountain, Mammoth Lakes, Mono County, California, United States of America",37.6307692,-119.0326342
526,/title/tt0115319/,Power Rangers Zeo,"Brandeis-Bardin Institute - 1101 Pepper Tree Lane, Simi Valley, California, USA","(Command Center, exteriors)                        ",,,
527,/title/tt0115319/,Power Rangers Zeo,"Simi Valley, California, USA","(Command Center, exteriors)                        ","Simi Valley, Ventura County, California, United States of America",34.2694474,-118.781482
528,/title/tt0053496/,Danger Man,"MGM British Studios, Borehamwood, Hertfordshire, England, UK",(studio)                        ,,,
529,/title/tt0108885/,Ocean Girl,"Great Barrier Reef, Queensland, Australia",,"Great barrier reef, Coral Sea, Mackay Regional, Queensland, Australia",-19.1013672,146.9558555
530,/title/tt0108885/,Ocean Girl,"Melbourne, Victoria, Australia",,"Melbourne, City of Melbourne, Victoria, 3000, Australia",-37.8142176,144.9631608
531,/title/tt0108885/,Ocean Girl,"Port Douglas, Queensland, Australia",,"Port Douglas, Douglas Shire, Queensland, 4877, Australia",-16.4845983,145.4636294
532,/title/tt0800328/,The Dukes of Hazzard: The Beginning,"Hollywood, Los Angeles, California, USA",(studio)                        ,"Hollywood, Los Angeles, Los Angeles County, California, 90028-8127, United States of America",34.0980031,-118.329523
533,/title/tt0800003/,Delta Farce,"Yuma, Arizona, USA",,"Yuma, Yuma County, Arizona, 85364, United States of America",32.6926588,-114.6276157
534,/title/tt0800003/,Delta Farce,"El Mirage Dry Lake, California, USA",,"El Mirage Dry Lake, Alegre Lane, San Bernardino County, California, United States of America",34.642436599999996,-117.59821798766575
535,/title/tt0800003/,Delta Farce,"Santa Clarita, California, USA",,"Santa Clarita, Los Angeles County, California, United States of America",34.3916641,-118.542586
536,/title/tt6304452/,Uncharted: The Lost Legacy,"New York City, New York, USA",,"New York, United States of America",40.7127281,-74.0060152
537,/title/tt5076054/,Kundschafter des Friedens,"Gran Canaria, Canary Islands, Spain",,"Gran Canaria, Tejeda, Las Palmas, Canarias, España",27.9580004,-15.6062305376665
538,/title/tt5076054/,Kundschafter des Friedens,"Cologne, North Rhine-Westphalia, Germany",,"Köln, Regierungsbezirk Köln, Nordrhein-Westfalen, Deutschland",50.938361,6.959974
539,/title/tt5076054/,Kundschafter des Friedens,"Glienicker Brücke, Potsdam, Germany",(Paula burns the results of her paternity test and throws them out of the car window while driving across the bridge.)                        ,"Glienicker Brücke, Nördliche Vorstädte, Potsdam, Brandenburg, 14467, Deutschland",52.413462,13.09022719891691
540,/title/tt5076054/,Kundschafter des Friedens,"Konnopke's Imbiß, Berlin, Germany",,"Konnopke’s Imbiß, 44b, Schönhauser Allee, Kollwitzkiez, Prenzlauer Berg, Pankow, Berlin, 10435, Deutschland",52.5406564,13.4121886
541,/title/tt9134678/,Invincible,"Bangkok, Thailand",,"กรุงเทพมหานคร, เขตพระนคร, กรุงเทพมหานคร, 10200, ประเทศไทย",13.7542529,100.493087
542,/title/tt0087222/,The Evil That Men Do,"Guadalajara, Jalisco, Mexico",,"Guadalajara, Jalisco, 44360, México",20.6720375,-103.3383962
543,/title/tt0087222/,The Evil That Men Do,Mexico,,"Ciudad de México, 06060, México",19.4326296,-99.1331785
544,/title/tt2622240/,Deadpool,"New York City, New York, USA",,"New York, United States of America",40.7127281,-74.0060152
545,/title/tt2622240/,Deadpool,"Newark, New Jersey, USA",,"Newark, Essex County, New Jersey, United States of America",40.735657,-74.1723667
546,/title/tt2622240/,Deadpool,"Cranford, New Jersey, USA",,"Cranford, Union County, New Jersey, 07016, United States of America",40.6584358,-74.2995923
547,/title/tt0156985/,Sadak,"Bridavan Garden, Baroda, Gujarat, India",,,,
548,/title/tt0156985/,Sadak,"Filmalaya Studio, Mumbai, Maharashtra, India",(studio)                        ,,,
549,/title/tt0156985/,Sadak,"Mukesh Mills, Colaba, Mumbai, Maharashtra, India",,,,
550,/title/tt0156985/,Sadak,"Natraj Studios, Mumbai, Maharashtra, India",(studio)                        ,,,
551,/title/tt0156985/,Sadak,"Ooty, Tamil Nadu, India",,"உதகமண்டலம், Udhagamandalam, நீலகிரி மாவட்டம், Tamil Nadu, 643001, India",11.4126769,76.7030504
552,/title/tt0209264/,Python,"Santa Clarita, California, USA",,"Santa Clarita, Los Angeles County, California, United States of America",34.3916641,-118.542586
553,/title/tt0209264/,Python,"Malibu, California, USA",,"Malibu, Los Angeles County, California, 90265-4797, United States of America",34.035591,-118.689423
554,/title/tt0108978/,V.R. Troopers,"Korean Friendship Bell, Angel's Gate Park - 3601 Gaffey Street, San Pedro, Los Angeles, California, USA",(opening and closing scenes)                        ,,,
555,/title/tt2720826/,Birth of the Dragon,"Vancouver, British Columbia, Canada",,"Vancouver, Metro Vancouver Regional District, British Columbia, Canada",49.2608724,-123.1139529
556,/title/tt2112277/,Swelter,"Piru, California, USA",(Swelter)                        ,"Piru, Ventura County, California, 93040, United States of America",34.4156137,-118.7927456
557,/title/tt1029235/,Max Manus,"Ardkinglas House, Cairndow, Argyll and Bute, Scotland, UK",,"Ardkinglas House, A815, Cairndow, Argyll and Bute, Scotland, PA26 8BQ, United Kingdom",56.25081285,-4.947039659089048
558,/title/tt1029235/,Max Manus,"Oslo, Norway",,"Oslo, 0026, Norge",59.9133301,10.7389701
559,/title/tt1029235/,Max Manus,Norway,,"Norge, Namsos, Trøndelag, Norge",64.5731537,11.52803643954819
560,/title/tt1029235/,Max Manus,UK,,United Kingdom,54.7023545,-3.2765753
561,/title/tt3791072/,Rise of the Tomb Raider,"New York City, New York, USA",,"New York, United States of America",40.7127281,-74.0060152
562,/title/tt9412268/,Hai Phuong,"Ho Chi Minh City, Vietnam",,"Thành phố Hồ Chí Minh, Việt Nam",10.7758439,106.7017555
563,/title/tt0098194/,The Return of the Musketeers,"Castillo de Manzanares El Real, Madrid, Spain",(Castle)                        ,"El Castillo, Manzanares el Real, Cuenca Alta del Manzanares, Comunidad de Madrid, 28410, España",40.7527705,-3.8784362
564,/title/tt0098194/,The Return of the Musketeers,"Studios Eclair, Epinay-sur-Seine, Seine-Saint-Denis, France",(as Sonaudi Epinay)                        ,"Studios d'Épinay, Chemin de Halage, Centre-Ville, Épinay-sur-Seine, Saint-Denis, Seine-Saint-Denis, Île-de-France, France métropolitaine, 93800, France",48.952424050000005,2.3083411936274523
565,/title/tt0098194/,The Return of the Musketeers,"Pedraza, Segovia, Castilla y León, Spain",,"Pedraza, Navafría, Castilla y León, 40172, España",41.1314254,-3.8111166
566,/title/tt0098194/,The Return of the Musketeers,"Royal Palace of Aranjuez, Aranjuez, Madrid, Spain",,,,
567,/title/tt0098194/,The Return of the Musketeers,"Puente de Alcántara, Toledo, Toledo, Castilla-La Mancha, Spain",(Stoned bridge)                        ,"Puente de Alcántara, Camino Natural del Tajo - GR 113, Santa Bárbara, Toledo, Castilla-La Mancha, 45001, España",39.860383,-4.017474243336769
568,/title/tt0098194/,The Return of the Musketeers,"Twickenham Film Studios, St Margarets, Twickenham, Middlesex, England, UK",,,,
569,/title/tt1386925/,The Dead,Burkina Faso,,Burkina Faso,12.0753083,-1.6880314
570,/title/tt1386925/,The Dead,UK,,United Kingdom,54.7023545,-3.2765753
571,/title/tt1376460/,Transmorphers: Fall of Man,"Eagle Mountain, California, USA",,"Eagle Mountain, Riverside County, California, United States of America",33.8575137,-115.4872075
572,/title/tt1376460/,Transmorphers: Fall of Man,"Los Angeles, California, USA",,"Los Angeles, Los Angeles County, California, United States of America",34.0536909,-118.2427666
573,/title/tt1376460/,Transmorphers: Fall of Man,"Palmdale, California, USA",,"Palmdale, Los Angeles County, California, United States of America",34.5793131,-118.1171108
574,/title/tt0073918/,The Yakuza,"Kyoto, Japan",,"京都市, 京都府, 日本 (Japan)",35.021041,135.7556075
575,/title/tt0073918/,The Yakuza,"Osaka, Japan",,"大阪府, 日本 (Japan)",34.6198813,135.490357
576,/title/tt0073918/,The Yakuza,"Malibu, California, USA",(scenes at Kilmer's house)                        ,"Malibu, Los Angeles County, California, 90265-4797, United States of America",34.035591,-118.689423
577,/title/tt0073918/,The Yakuza,"California, USA",,"California, United States of America",36.7014631,-118.7559974
578,/title/tt0073918/,The Yakuza,"Osaka International Airport, Osaka, Osaka, Japan",,"大阪国際空港, 大阪府豊中市螢池西町３丁目555, 阪神高速11号池田線, 上津島1丁目, 服部寿町四丁目, 豊中市, 大阪府, 561-0808, 日本 (Japan)",34.783984700000005,135.43904072806066
579,/title/tt0073918/,The Yakuza,"Kyoto International Conference Center, Takaraga-ike, Kyoto, Japan",(Kilmer meeting with Goro by the lake)                        ,,,
580,/title/tt0099701/,The Rift,"Madrid, Spain",,"Madrid, Área metropolitana de Madrid y Corredor del Henares, Comunidad de Madrid, 28001, España",40.4167047,-3.7035825
581,/title/tt0099701/,The Rift,"Los Angeles, California, USA",(Opening scene)                        ,"Los Angeles, Los Angeles County, California, United States of America",34.0536909,-118.2427666
582,/title/tt2190152/,Watch Dogs,"Chicago Illinois, USA",,"Chicago, Cook County, Illinois, United States of America",41.8755616,-87.6244212
583,/title/tt0083366/,Zorro: The Gay Blade,"Morelos, Mexico",,"Morelos, México",18.75,-99.0
584,/title/tt0083366/,Zorro: The Gay Blade,Mexico,,"Ciudad de México, 06060, México",19.4326296,-99.1331785
585,/title/tt0183869/,Taxi 2,"Marseille, Bouches-du-Rhône, France",,"Marseille, Bouches-du-Rhône, Provence-Alpes-Côte d'Azur, France métropolitaine, 13000, France",43.2961743,5.3699525
586,/title/tt0091060/,Flodder,"Kolleberg, Sittard, Limburg, Netherlands",(car chase and Zonnedael neighbourhood)                        ,,,
587,/title/tt0091060/,Flodder,"Avenue de Tervueren, Etterbeek, Brussels, Brussels-Capital, Belgium",(driving through city while moving)                        ,"Avenue de Tervueren - Tervurenlaan, Etterbeek, Région de Bruxelles-Capitale - Brussels Hoofdstedelijk Gewest, 1040, België - Belgique - Belgien",50.8389086,4.4003851
588,/title/tt0091060/,Flodder,"Spaarnwoude, Haarlemmerliede en Spaarnwoude, Noord-Holland, Netherlands",,"Stompe Toren Spaarnwoude, Kerkepad, Spaarndam-Oost, Spaarndam, Haarlemmermeer, Noord-Holland, Nederland, 2064, Nederland",52.40455735,4.694036072182426
589,/title/tt0120390/,Turbulence,"Clinton, New Jersey, USA",,"Clinton, Hunterdon County, New Jersey, 08809, United States of America",40.6362878,-74.9116603
590,/title/tt0120390/,Turbulence,"Los Angeles, California, USA",,"Los Angeles, Los Angeles County, California, United States of America",34.0536909,-118.2427666
591,/title/tt1680140/,The Stolen,New Zealand,,New Zealand / Aotearoa,-41.5000831,172.8344077
592,/title/tt0469916/,Hollow Man II,"Vancouver, British Columbia, Canada",,"Vancouver, Metro Vancouver Regional District, British Columbia, Canada",49.2608724,-123.1139529
593,/title/tt1979918/,Sinbad,Malta,,Malta,35.8885993,14.4476911
594,/title/tt0085387/,D.C. Cab,"Washington Dulles International Airport - 45020 Aviation Drive, Sterling, Virginia, USA",,,,
595,/title/tt0085387/,D.C. Cab,"400 Mateo Street, Los Angeles, California, USA",(Car robbery capture scene.)                        ,"400, Mateo Street, Arts District, Downtown, Los Angeles, Los Angeles County, California, 90013, United States of America",34.041778,-118.232723
596,Code,Show Name,Location,Scene,"Location, Tucker County, West Virginia, United States of America",39.2138905,-79.6371124
597,/title/tt0058846/,Danger Man,"MGM British Studios, Borehamwood, Hertfordshire, England, UK",(studio)                        ,,,
598,/title/tt0067637/,Les pétroleuses,"Cascajares de la Sierra, Burgos, Castilla y León, Spain",,"Cascajares de la Sierra, Salas de los Infantes, Castilla y León, España",42.0619334,-3.4002726
599,/title/tt1629348/,Metal Hurlant Chronicles,"Bucharest, Romania",,"Municipiul București, România",44.4361414,26.1027202
600,/title/tt0387541/,Ring of the Nibelungs,"Cape Town, Western Cape, South Africa",,"Cape Town, City of Cape Town, Western Cape, 8001, South Africa",-33.928992,18.417396
601,/title/tt1885102/,Transporter: The Series,"Toronto, Ontario, Canada",,"Toronto, Peel, Golden Horseshoe, Ontario, Canada",43.6534817,-79.3839347
602,/title/tt0105219/,Rapid Fire,"Chicago, Illinois, USA",,"Chicago, Cook County, Illinois, United States of America",41.8755616,-87.6244212
603,/title/tt0105219/,Rapid Fire,"Los Angeles, California, USA",,"Los Angeles, Los Angeles County, California, United States of America",34.0536909,-118.2427666
604,/title/tt0059095/,La decima vittima,"The Colosseum, Rome, Lazio, Italy",,"Colosseo, Piazza del Colosseo, Rione XIX Celio, Municipio Roma I, Roma, Roma Capitale, Lazio, 00184, Italia",41.8902614,12.493087103595503
605,/title/tt0059095/,La decima vittima,"Fiumicino Airport, Fiumicino, Lazio, Italy",,"Fiumicino Aeroporto Stazione Ferroviaria, Via Leonardo da Vinci, Episcopio di Porto, Fiumicino, Roma Capitale, 00054, Italia",41.7933509,12.2518611
606,/title/tt0059095/,La decima vittima,"Ostia, Rome, Lazio, Italy",,"Rome, Viale Gorizia, Quartiere XVII Trieste, Roma, Roma Capitale, Lazio, 00199, Italia",41.9185819,12.51433
607,/title/tt0059095/,La decima vittima,"Piazza di Siena, Rome, Lazio, Italy",,"Piazza di Siena, Quartiere III Pinciano, Roma, Roma Capitale, Lazio, Italia",41.913640799999996,12.487068580270714
608,/title/tt0059095/,La decima vittima,"Titanus Appia Studios, Rome, Lazio, Italy",,,,
609,/title/tt0059095/,La decima vittima,"Pennsylvania Station, New York City, New York, USA",(Opening scene)                        ,"Pennsylvania Station, 234, West 31st Street, Chelsea, Manhattan Community Board 5, Manhattan, New York County, New York, 10001, United States of America",40.7502382,-73.9928111
610,/title/tt0071424/,Dirty Mary Crazy Larry,"130 West Stockton St., Sonora, California, USA",(supermarket)                        ,"West Stockton Street, Saratoga Acres, Rancho Sonora Estates, Columbia, Tuolumne County, California, 95364, United States of America",37.995027,-120.400512
611,/title/tt0071424/,Dirty Mary Crazy Larry,"Tracy, California, USA",(draw bridge jump)                        ,"Tracy, San Joaquin County, California, United States of America",37.7396513,-121.4252227
