,Code,Show Name,Location,Scene,geocodedLocation,latitude,longitude
0,/title/tt0119173/,,"Lone Pine, California, USA",(Lybian desert/beach),"Lone Pine, Inyo County, California, 93545, United States of America",36.583175999999995,-118.07835929489717
1,/title/tt0119173/,,"Camp Blanding, Starke, Florida, USA",,,,
2,/title/tt0119173/,,"Shepperton Studios, Shepperton, Surrey, England, UK",(studio),,,
3,/title/tt0119173/,,"Middleburg, Florida, USA",,"Middleburg, Clay County, Florida, United States of America",30.055702500000002,-81.90363744258859
4,/title/tt0119173/,,"Washington, District of Columbia, USA",,"Washington, District of Columbia, 20230, United States of America",38.8949924,-77.0365581
5,/title/tt3181776/,,"Los Angeles, California, USA",,"Los Angeles, Los Angeles County, California, United States of America",34.0536909,-118.2427666
6,/title/tt1608290/,,Italy,,Italia,42.6384261,12.674297
7,/title/tt1608290/,,USA,,United States,39.7837304,-100.4458825
8,/title/tt1608290/,,"Roma, Lazio, Italy",,"Roma Capitale, Lazio, Italia",41.85223935,12.631036615953583
9,/title/tt0119707/,,"Parys Mountain, Amlwch, Anglesey, Wales, UK",,"Parys Mountain, B5111, Rhosybol, Ynys Môn / Isle of Anglesey, Cymru / Wales, LL68 9PS, United Kingdom",53.3877657,-4.3514395
10,/title/tt0119707/,,"Wales, UK",,"Cymru / Wales, United Kingdom",52.2928116,-3.73893
11,/title/tt0119707/,,"Ayuthaya, Thailand",,"กรุงเทพมหานคร, เขตพระนคร, กรุงเทพมหานคร, 10200, ประเทศไทย",13.7542529,100.493087
12,/title/tt0137494/,,"Eilean Donan Castle, Kyle of Lochalsh, Highland, Scotland, UK",(Robert MacDougal's castle in Scotland),,,
13,/title/tt0137494/,,"Malacca, Malaysia",,"Melaka, Malaysia",2.2245111,102.2614662
14,/title/tt0137494/,,"Albert R. Broccoli 007 Stage, Pinewood Studios, Iver Heath, Buckinghamshire, England, UK",(studio) (interiors: Petronas Towers skywalk),,,
15,/title/tt0137494/,,"KLCC Complex, Kuala Lumpur, Malaysia",,"KJ10 KLCC, Jalan Ampang, Kampung Baru, Kuala Lumpur, 50400, Malaysia",3.1593058,101.7132025
16,/title/tt0137494/,,"Lloyd's Building, Lime Street, Broadgate, London, England, UK",(Waverly Insurance office),,,
17,/title/tt0137494/,,"Kuala Lumpur, Malaysia",,"Kuala Lumpur, Malaysia",3.1516964,101.6942371
18,/title/tt0137494/,,"Pinewood Studios, Iver Heath, Buckinghamshire, England, UK",(studio),"Pinewood Studios, Pinewood Green, Iver, Iver Heath, Buckinghamshire, South East, England, SL0 0QJ, United Kingdom",51.54831515,-0.5346765566753087
19,/title/tt6160506/,,"Haldimand County, Ontario, Canada",,"Haldimand County, Southwestern Ontario, Ontario, Canada",42.945542,-79.8362031
20,/title/tt6160506/,,"Hamilton, Ontario, Canada",,"Hamilton, Golden Horseshoe, Ontario, L8P 0B3, Canada",43.2560802,-79.8728583
21,/title/tt0314353/,,"Honolulu, O'ahu, Hawaii, USA",,,,
22,/title/tt0314353/,,"Maunawili Valley, O'ahu, Hawaii, USA",,,,
23,/title/tt0314353/,,"Hawaii Film Studio - 18th Avenue & Diamond Head Road, Honolulu, O'ahu, Hawaii, USA",,,,
24,/title/tt0314353/,,"Kualoa Ranch - 49560 Kamehameha Highway, Ka'a'awa, O'ahu, Hawaii, USA",,,,
25,/title/tt0314353/,,"California, USA",,"California, United States of America",36.7014631,-118.7559974
26,/title/tt0314353/,,USA,,United States,39.7837304,-100.4458825
27,/title/tt0092746/,,"Death Valley National Park, California, USA",,"Death Valley National Park, Inyo County, California, 92328, United States of America",36.4914385,-117.10229360771876
28,/title/tt0092746/,,"Rhyolite, Nevada, USA",,"Rhyolite, Nye County, Nevada, United States of America",36.9038245,-116.8288837
29,/title/tt0092746/,,"Henderson, Nevada, USA","(Three Kids Mine - where Sam and E. rest, van pushed into open pit mine)","Henderson, Clark County, Nevada, United States of America",36.0301134,-114.9826194
30,/title/tt0092746/,,"Valley of Fire State Park - Route 169, Overton, Nevada, USA",(Sky Ranch),,,
31,/title/tt0092746/,,"Las Vegas Wash, Clark County, Nevada, USA",(were Sam and E first kiss),"Las Vegas Wash, North Las Vegas, Clark County, Nevada, 899030, United States of America",36.2701919,-115.1980881
32,/title/tt0092746/,,"Valley of Fire State Park, Nevada, USA",,"Valley of Fire State Park, Clark County, Nevada, 89040, United States of America",36.498769100000004,-114.51941890728114
33,/title/tt5193358/,,"Adelaide, South Australia, Australia",(Season 3),"Adelaide, Adelaide City Council, South Australia, Australia",-34.9281805,138.5999312
34,/title/tt5193358/,,"Adelaide Studios - South Australian Film Corporation, Glenside, South Australia, Australia",(Season 3),,,
35,/title/tt5193358/,,"Queenstown, Otago, New Zealand",(Season 2),"Queenstown, Queenstown-Lakes District, Otago, 9348, New Zealand",-45.0321923,168.661
36,/title/tt0119395/,,"Richmond, Virginia, USA",,"Richmond, Richmond City, Virginia, 23298, United States of America",37.5385087,-77.43428
37,/title/tt0119395/,,"Kapteeninkatu, Ullanlinna, Helsinki, Finland",,"Kapteeninkatu, Ullanlinna, Eteläinen suurpiiri, Helsinki, Helsingin seutukunta, Uusimaa, Manner-Suomi, 00121, Suomi",60.1569217,24.9451903
38,/title/tt0119395/,,"Radisson Métro Station, Montréal, Québec, Canada",,,,
39,/title/tt0119395/,,"Tehtaankatu, Ullanlinna, Helsinki, Finland",,"Tehtaankatu, Ullanlinna, Eteläinen suurpiiri, Helsinki, Helsingin seutukunta, Uusimaa, Manner-Suomi, 00121, Suomi",60.1582603,24.9460941
40,/title/tt0119395/,,"Moscow, Russia",,"Москва, Центральный административный округ, Москва, Центральный федеральный округ, Россия",55.7504461,37.6174943
41,/title/tt0119395/,,"Montréal-Mirabel International Airport, Mirabel, Québec, Canada",,"Aéroport international Montréal–Mirabel, Rue Jacqueline-Auriol, Sainte-Monique, Mirabel, Laurentides, Québec, J7N 2W1, Canada",45.6763769,-74.0442056
42,/title/tt0119395/,,"Colleton County, South Carolina, USA",,"Colleton County, South Carolina, United States of America",32.8620726,-80.677114
43,/title/tt0119395/,,"Wilmington, North Carolina, USA",,"Wilmington, New Hanover County, North Carolina, United States of America",34.2257282,-77.9447107
44,/title/tt0119395/,,"Montréal, Québec, Canada",,"Montréal, Agglomération de Montréal, Montréal (06), Québec, Canada",45.4972159,-73.6103642
45,/title/tt0119395/,,"Carolco Studios, Wilmington, North Carolina, USA",,,,
46,/title/tt0119395/,,"Burnham Park Yacht Club - 1500 Linn White Drive, Near South Side, Chicago, Illinois, USA",,,,
47,/title/tt0119395/,,"London, England, UK",,"London, Greater London, England, United Kingdom",51.5073219,-0.1276474
48,/title/tt0119395/,,"Washington, District of Columbia, USA",,"Washington, District of Columbia, 20230, United States of America",38.8949924,-77.0365581
49,/title/tt0119395/,,"Los Angeles, California, USA",,"Los Angeles, Los Angeles County, California, United States of America",34.0536909,-118.2427666
50,/title/tt0119395/,,"Charleston, South Carolina, USA",,"Charleston, Charleston County, South Carolina, United States of America",32.7876012,-79.9402728
51,/title/tt0040369/,,"Shafer Outlook, Goosenecks State Park - State Highway 316, Mexican Hat, Utah, USA",,,,
52,/title/tt0040369/,,"Goulding's Trading Post, Monument Valley, Utah, USA",,,,
53,/title/tt0040369/,,"Monument Valley, Arizona, USA",,"Monument Valley Navajo Tribal Park, Navajo County, Arizona, United States of America",36.9820026,-110.1108327
54,/title/tt0040369/,,"Mexican Hat, Utah, USA",,"Mexican Hat, San Juan County, Utah, 84531, United States of America",37.1482695,-109.8614383
55,/title/tt0040369/,,"Kanab, Utah, USA",,"Kanab, Kane County, Utah, United States of America",37.0481417,-112.5285476
56,/title/tt0040369/,,"Monument Valley, Utah, USA",,"Monument, Disera Boulevard, Magna, Salt Lake County, Utah, 84044, United States of America",40.7143227,-112.1045506
57,/title/tt0040369/,,"Kayenta, Arizona, USA",,"Kayenta, Navajo County, Arizona, United States of America",36.7218463,-110.2538722
58,/title/tt0040369/,,"Utah, USA",,"Utah, United States of America",39.4225192,-111.7143584
59,/title/tt0040369/,,"Mexican Water, Arizona, USA",,"Mexican Water, Apache County, Arizona, United States of America",36.9669462,-109.6378902
60,/title/tt0040369/,,"Selznick International Studios - 9336 W. Washington Blvd., Culver City, California, USA",,,,
61,/title/tt1611224/,,"Second Line Stages, New Orleans, Louisiana, USA",(stages),,,
62,/title/tt1611224/,,"New Orleans, Louisiana, USA",,"New Orleans, Orleans Parish, Louisiana, United States of America",29.9499323,-90.0701156
63,/title/tt1611224/,,USA,,United States,39.7837304,-100.4458825
64,/title/tt0055701/,,"Grim's Dyke House, Old Redding, Harrow Weald, Middlesex, England, UK","(episode ""Russian Prisoner"" & ""The Fiction Makers, The"")",,,
65,/title/tt1614989/,,"Oslo, Norway",,"Oslo, 0026, Norge",59.9133301,10.7389701
66,/title/tt1614989/,,"Nittedal, Norway",(cabin),"Nittedal, Viken, Norge",60.08045425,10.856610881659574
67,/title/tt1401152/,,"Airport Berlin-Tegel, Berlin, Germany",(Tegel Airport),"Flughafen Berlin-Tegel Otto Lilienthal, Nordlichtstraße, Reinickendorf, 13405, Deutschland",52.557373850000005,13.280509522074105
68,/title/tt1401152/,,"Spreeufer opposit Bode Museum, Monbijoustrasse, Mitte, Berlin, Germany",(Chat with Ernst Juergen),,,
69,/title/tt1401152/,,"Atelier_Formschoen, 5 Deminer Straße, Berlin, Germany",(as Hotel Pension next to sex shop),,,
70,/title/tt1401152/,,"Bridge over Strasse des 17. Juni next to Tiergarten S-Bahn Station, Tiergarten, Berlin, Germany",(Taxi ride to Airport to recover Suitcase),,,
71,/title/tt1401152/,,"Kulturkaufhaus Dussmann, Friedrichstrasse, Mitte, Berlin, Germany",(Car chase on walkway),"Dussmann das KulturKaufhaus, 90, Friedrichstraße, Spandauer Vorstadt, Mitte, Berlin, 10117, Deutschland",52.518369,13.389017253216112
72,/title/tt1401152/,,"Neue Nationalgalerie, Tiergarten, Berlin, Germany",(as Berliner Museum fuer Foto),"Neue Nationalgalerie, 50, Potsdamer Straße, Botschaftsviertel, Tiergarten, Mitte, Berlin, 10785, Deutschland",52.506981350000004,13.36758951359311
73,/title/tt1401152/,,"Soviet War Memorial, Tiergarten, Berlin, Germany","(Taxi ride from Airport, seen through window)",,,
74,/title/tt1401152/,,"Bode Museum, Mitte, Berlin, Germany",,"Bode-Museum, 1-3, Am Kupfergraben, Spandauer Vorstadt, Mitte, Berlin, 10117, Deutschland",52.5216541,13.394999067769014
75,/title/tt1401152/,,"Spree River, Berlin, Germany",,"Spree, Berlin, 10179, Deutschland",52.5147775,13.4113708
76,/title/tt1401152/,,"Ballonfahrerweg, Schöneberg, Berlin, Germany",(bus stop scene),"Ballonfahrerweg, Schöneberg, Tempelhof-Schöneberg, Berlin, 10829, Deutschland",52.4733405,13.3669972
77,/title/tt1401152/,,"Brandenburger Tor, Mitte, Berlin, Germany","(Taxi ride from Airport, seen at the end)","Brandenburger Tor, 1, Pariser Platz, Mitte, Berlin, 10117, Deutschland",52.51628045,13.37770188288172
78,/title/tt1401152/,,"Restaurant Vaporetto, Albrechtstraße 12, Mitte, Berlin, Germany",(Walking up to Bahnhof Friedrichstrasse),"Vaporetto, 12, Albrechtstraße, Spandauer Vorstadt, Mitte, Berlin, 10117, Deutschland",52.5210049,13.3850412
79,/title/tt1401152/,,"Studio Babelsberg, Potsdam, Brandenburg, Germany",,"Studio Babelsberg, 15, Babelsberg, Potsdam, Brandenburg, 14482, Deutschland",52.38260355,13.113726021425222
80,/title/tt1401152/,,"U-Franzoesische Strasse Subway Station, Friedrichstrasse, Mitte, Berlin, Germany",(Car chase),,,
81,/title/tt1401152/,,"Hotel Adlon Kempinski, 77 Unter den Linden, Berlin, Germany",,"Adlon Kempinski, 77, Unter den Linden, Mitte, Berlin, 10117, Deutschland",52.51557565,13.380069900354638
82,/title/tt0445946/,,"Spokane, Washington, USA",,"Spokane, Spokane County, Washington, United States of America",47.6579425,-117.4212265
83,/title/tt0445946/,,"Nu Boyana Film Studios, Sofia, Bulgaria",,,,
84,/title/tt0445946/,,USA,,United States,39.7837304,-100.4458825
85,/title/tt1712261/,,"Decatur, Georgia, USA",,"Decatur, DeKalb County, Georgia, United States of America",33.7737582,-84.296069
86,/title/tt1712261/,,"Buckhead, Georgia, USA",,"Buckhead, Atlanta, Georgia, 30305, United States of America",33.8398137,-84.3795589
87,/title/tt1712261/,,"Elliott Street Deli and Pub, 51 Elliott St SW, Atlanta, Georgia, USA",(location),"Elliott Street Deli & Pub, 51, Elliott Street Southwest, Castleberry Hill, Atlanta, Georgia, 30313, United States of America",33.7532205,-84.3982169
88,/title/tt0083511/,,"Warnerville, California, USA",(railroad tracks crossing Warnerville),"Warnerville, Stanislaus County, California, United States of America",37.7324299,-120.5965902
89,/title/tt0083511/,,"San Francisco, California, USA",,"San Francisco, San Francisco City and County, California, United States of America",37.7790262,-122.4199061
90,/title/tt0083511/,,"Los Angeles, California, USA",,"Los Angeles, Los Angeles County, California, United States of America",34.0536909,-118.2427666
91,/title/tt0083511/,,"Chinatown, Los Angeles, California, USA",(Reggie and Cates get in a fight),"Chinatown, Los Angeles, Los Angeles County, California, 90012, United States of America",34.0638402,-118.2358676
92,/title/tt0083511/,,"Lincoln Heights Jail - 401 N. Avenue 19, Lincoln Heights, Los Angeles, California, USA","(""Cates springs Reggie"")",,,
93,/title/tt0083511/,,"Engstrum Apartments 623 W 5th Street, Los Angeles, California, USA","(""Reggie leaves the girl to join Cates for the ride back to jail"")",,,
94,/title/tt0083511/,,"Intersection, W 5th Street and Broadway, Los Angeles, California, USA",(cop breaks up Reggie and Cates' fist fight),,,
95,/title/tt0098798/,,"Stage 17, Warner Brothers Burbank Studios - 4000 Warner Boulevard, Burbank, California, USA",,,,
96,/title/tt1034032/,,"Albuquerque, New Mexico, USA",,"Albuquerque, Bernalillo County, New Mexico, United States of America",35.0841034,-106.6509851
97,/title/tt1034032/,,"New Mexico, USA",,"New Mexico, United States of America",34.5708167,-105.993007
98,/title/tt10554898/,,"Guizhou Province, China",,"归州街道, 营口市, 盖州市, 辽宁省, China 中国",40.1133075,122.0548756
99,/title/tt2097307/,,"Fillmore, California, USA",(street scenes),"Fillmore, Ventura County, California, 93016, United States of America",34.3985613,-118.9125093
100,/title/tt2097307/,,"Piru, California, USA",,"Piru, Ventura County, California, 93040, United States of America",34.4156137,-118.7927456
101,/title/tt2097307/,,"Center Street, Piru, California, USA",(street scenes),"Center Street, Piru, Ventura County, California, 93040, United States of America",34.4154231,-118.7969859
102,/title/tt2097307/,,"559 Central Ave, Fillmore, California, USA",(Milton Valley College),"559, Central Avenue, Fillmore, Ventura County, California, 93015, United States of America",34.403634857142855,-118.91446846938776
103,/title/tt2097307/,,"29053 Old Adobe Ln, Santa Clarita, California, USA",(Gil Rathbinn's house),,,
104,/title/tt2097307/,,"7631 Topanga Canyon Blvd, Canoga Park, California, USA",(Super 8 hotel),"Topanga Canyon Boulevard, Canoga Park, Los Angeles, Los Angeles County, California, 91303, United States of America",34.1979929,-118.605932
105,/title/tt2097307/,,"Delmar T Oviatt Library, California State University Northridge - 18111 Nordhoff Street, Northridge, Los Angeles, California, USA",,,,
106,/title/tt2097307/,,"C St & River St, Fillmore, California, USA",(street scenes),,,
107,/title/tt2097307/,,"Pacific Coast Highway, Malibu, California, USA",(street scenes),"Pacific Coast Highway, Malibu Beach, Malibu, Los Angeles County, California, 90265-4797, United States of America",34.0396049,-118.6665197
108,/title/tt2097307/,,"Los Angeles River, Los Angeles, California, USA",(street scenes),"Los Angeles River, Los Angeles, Los Angeles County, California, 91303-2211, United States of America",34.1952667,-118.5886446
109,/title/tt1075417/,,"Palmdale, California, USA",,"Palmdale, Los Angeles County, California, United States of America",34.5793131,-118.1171108
110,/title/tt1075417/,,"Planet Hollywood Resort and Casino - 3667 Las Vegas Boulevard South, Las Vegas, Nevada, USA",,,,
111,/title/tt1075417/,,"Las Vegas, Nevada, USA",,"Las Vegas, Clark County, Nevada, United States of America",36.1672559,-115.1485163
112,/title/tt1075417/,,"Glendale, California, USA",,"Glendale, Los Angeles County, California, United States of America",34.1469416,-118.2478471
113,/title/tt1075417/,,"Los Angeles, California, USA",,"Los Angeles, Los Angeles County, California, United States of America",34.0536909,-118.2427666
114,/title/tt8809652/,,"Guilford Building, Cincinnati, Ohio, USA",,"Guilford Drive, West Chester Township, Butler County, Ohio, 45011, United States of America",39.3710081,-84.4656631
115,/title/tt7363104/,,"Lucknow, Uttar Pradesh, India",,"Lucknow, Sadar, Lucknow, Uttar Pradesh, 226019, India",26.8381,80.9346001
116,/title/tt0316356/,,"Calgary, Alberta, Canada",,"Calgary, Strathmore (town), Alberta, Canada",51.0534234,-114.0625892
117,/title/tt0316356/,,"Longview, Alberta, Canada",,"Village of Longview, Alberta, T0L 1H0, Canada",50.532999,-114.230784
118,/title/tt2315596/,,"Georgia, USA",,"Georgia, United States of America",32.3293809,-83.1137366
119,/title/tt5941692/,,"OMNIMAX Cinema, Centro Cultural Tijuana, Paseo de los Héroes 9350, Zona Urbana Rio Tijuana, Mexico",(Location of the Miss Baja Pageant),,,
120,/title/tt2172934/,,"Vattetot sur Mer, Seine-Maritime, France",(final scene),"Vattetot-sur-Mer, Le Havre, Seine-Maritime, Normandie, France métropolitaine, 76111, France",49.7282797,0.2800862
121,/title/tt2172934/,,Serbia,,"Србија, Доње Комарице, Град Крагујевац, Шумадијски управни округ, Централна Србија, Србија (Serbia)",44.024322850000004,21.07657433209902
122,/title/tt2172934/,,"Jardin d'acclimatation, Bois de Boulogne, Paris 16, Paris, France",(carousel),,,
123,/title/tt2172934/,,"15 Rue de l'Abreuvoir, Paris 18, Paris, France",(Christine Renner's house),"Rue de l'Abreuvoir, Quartier des Grandes-Carrières, Paris, Île-de-France, France métropolitaine, 75018, France",48.8882868,2.3387629
124,/title/tt2172934/,,"Angle Rue des Barres et Rue de l'Hôtel de Ville, Paris 4, Paris, France",(street scenes),,,
125,/title/tt2172934/,,"Hôtel George V, 31 avenue George V, Paris 8, Paris, France",,,,
126,/title/tt2172934/,,"Kalemegdan Park, Belgrade, Serbia",(opening sequence),"Калемегдан, Београд (Стари град), Градска општина Стари град, Град Београд, Централна Србија, Србија (Serbia)",44.8231517,20.450907315674336
127,/title/tt2172934/,,"Hotel Regence - 2 Villa de Guelma, Paris 18, Paris, France",,,,
128,/title/tt2172934/,,"Place de la Concorde, Paris 8, Paris, France",(street scenes),"Place de la Concorde, Quartier Saint-Germain-l'Auxerrois, Paris 8e Arrondissement, Paris, Île-de-France, France métropolitaine, 75008, France",48.863856,2.3214879
129,/title/tt2172934/,,"Rue de Castiglione, Paris 1, Paris, France",(street scenes),"Rue de Castiglione, Quartier Vendôme, Paris 1er Arrondissement, Paris, Île-de-France, France métropolitaine, 75001, France",48.8659921,2.327954
130,/title/tt2172934/,,"Cour Carrée, Musée du Louvre, Paris 1, Paris, France",,,,
131,/title/tt2172934/,,"Rue de l'Abreuvoir, Paris 18, Paris, France",(street scenes),"Rue de l'Abreuvoir, Quartier des Grandes-Carrières, Paris, Île-de-France, France métropolitaine, 75018, France",48.8882868,2.3387629
132,/title/tt2172934/,,"Orly Airport, Orly, Val-de-Marne, France",,"Hilton Garden Inn Paris Orly Airport, 4, Place des États-Unis, Parc ICADE Paris Orly-Rungis, Rungis, Arrondissement de L'Haÿ-les-Roses, Val-de-Marne, Île-de-France, France métropolitaine, 94150, France",48.748477050000005,2.35572229362018
133,/title/tt5614844/,,"Louisiana, USA",,"Louisiana, United States of America",30.8703881,-92.007126
134,/title/tt3045616/,,"Victoria and Albert Museum, South Kensington, London, England, UK",(Library interior),"Victoria and Albert Museum, Cromwell Road, Brompton, Royal Borough of Kensington and Chelsea, London, Greater London, England, SW7 2RL, United Kingdom",51.496883800000006,-0.17163721656927572
135,/title/tt3045616/,,"Stansted Airport, Essex, England, UK",(Heathrow Airport scenes),"Stansted Airport, Terminal Road South, Takeley, Uttlesford, Essex, East of England, England, CM22 6PL, United Kingdom",51.8899889,0.26150702197225434
136,/title/tt3045616/,,"Hatfield House, Hatfield, Hertfordshire, England, UK",(interiors and exteriors),"Hatfield House, The Stable Yard, Hatfield, Welwyn Hatfield, Hertfordshire, East of England, England, AL9 5NF, United Kingdom",51.7605139,-0.20879851305478084
137,/title/tt3045616/,,"ExCel Exhitbition Centre, London, England, UK",(exterior scenes),,,
138,/title/tt3045616/,,"The Standard, West Hollywood, California, USA",(hotel in Los Angeles),"The Standard, Hollywood, 8300, De Longpre Avenue, West Hollywood, Los Angeles County, California, 90069, United States of America",34.09590295,-118.37099535117187
139,/title/tt3045616/,,"Sunset Blvd at Echo Park, Los Angeles, California, USA",(Chase scene with Puke),"Sunset Boulevard, Echo Park, Los Angeles, Los Angeles County, California, 90012-2410, United States of America",34.0700818,-118.2504877
140,/title/tt4276624/,,Serbia,,"Србија, Доње Комарице, Град Крагујевац, Шумадијски управни округ, Централна Србија, Србија (Serbia)",44.024322850000004,21.07657433209902
141,/title/tt4276624/,,"Northern Ireland, UK",(made on location in),"Northern Ireland, United Kingdom",54.6294982,-6.7654416
142,/title/tt1924435/,,"Georgia, USA",,"Georgia, United States of America",32.3293809,-83.1137366
143,/title/tt0087995/,,"Tunnel at Lower Grand & West Gen Thad Kosciuszko Way, Los Angeles, California, USA",(Confrontation between Repo men and the two Mexicans),,,
144,/title/tt0087995/,,"Los Angeles, California, USA",,"Los Angeles, Los Angeles County, California, United States of America",34.0536909,-118.2427666
145,/title/tt0087995/,,"E 10th St & Crocker St, Los Angeles, California, USA",(Otto walks southeast onto 10th and Bud asks him for help moving his wife's car),,,
146,/title/tt0087995/,,"Stanford Ave & E 23rd St, Los Angeles, California, USA",(Otto hits trash cans on west side of intersection while offering Leila a ride),,,
147,/title/tt0087995/,,"Wilson St & Violet St, Los Angeles, California, USA",(Leila and Dr. Parnell talk at phone booths across the street from one another),,,
148,/title/tt0087995/,,"2404 E 28th St, Los Angeles, California, USA",(United Fruitcake Outlet building),"2404, East 28th Street, Vernon, Los Angeles County, California, 90058, United States of America",34.01178529556932,-118.23011289985736
149,/title/tt0087995/,,USA,,United States,39.7837304,-100.4458825
150,/title/tt0058805/,,"Paramount Studios - 5555 Melrose Avenue, Hollywood, Los Angeles, California, USA",(studio),,,
151,/title/tt2938956/,,"Paris, France",,"Paris, Île-de-France, France métropolitaine, 75004, France",48.8566969,2.3514616
152,/title/tt2938956/,,"Menton, Alpes-Maritimes, France",,"Menton, Nice, Alpes-Maritimes, Provence-Alpes-Côte d'Azur, France métropolitaine, 06500, France",43.7753495,7.5029213
153,/title/tt2938956/,,"Cannes, Alpes-Maritimes, France",,"Cannes, Grasse, Alpes-Maritimes, Provence-Alpes-Côte d'Azur, France métropolitaine, France",43.5515198,7.0134418
154,/title/tt2938956/,,"Jardins du Musée Masséna - 33 Promenade des Anglais, Nice, Alpes-Maritimes, France",(British Consulate),,,
155,/title/tt2938956/,,"Garage Galliéni - 38 Avenue Gallieni, Nice, Alpes-Maritimes, France",,,,
156,/title/tt2938956/,,"Palais de Justice - Place du Palais de Justice, Nice, Alpes-Maritimes, France",(Banque de Investissement de Monaco),"Palais de Justice, Place du Palais de Justice, Vieux Nice, Nice, Alpes-Maritimes, Provence-Alpes-Côte d'Azur, France métropolitaine, 06046, France",43.6964823,7.2741037
157,/title/tt2938956/,,"Quai de Monleon, Menton, Alpes-Maritimes, France",(street scenes),"Quai de Monléon, Garavan, Menton, Nice, Alpes-Maritimes, Provence-Alpes-Côte d'Azur, France métropolitaine, 06500, France",43.7759098,7.508534
158,/title/tt4785472/,,"St Margaret Drive, Twickenham, London, England UK",,,,
159,/title/tt0162650/,,"Sheepshead Bay, Brooklyn, New York City, New York, USA",,"Sheepshead Bay, Brooklyn, Kings County, New York, 11235, United States of America",40.5912161,-73.9445822
160,/title/tt0162650/,,"Lenox Lounge - 288 Lenox Avenue, Harlem, Manhattan, New York City, New York, USA",,,,
161,/title/tt0162650/,,"River Diner - 452 11th Avenue, Manhattan, New York City, New York, USA",,,,
162,/title/tt0162650/,,"Broadway & 20th Street, Chelsea, Manhattan, New York City, New York, USA",,,,
163,/title/tt0162650/,,"Brooklyn, New York City, New York, USA",,"Brooklyn, Kings County, New York, United States of America",40.6501038,-73.9495823
164,/title/tt0162650/,,"College Point, Queens, New York City, New York, USA",,"College Point, Queens County, New York, 11356, United States of America",40.7876014,-73.8459682
165,/title/tt0162650/,,"Jersey City, New Jersey, USA",,"Jersey City, Hudson County, New Jersey, United States of America",40.7281575,-74.0776417
166,/title/tt0162650/,,"Metronome - 18th & Broadway, Manhattan, New York City, New York, USA",,,,
167,/title/tt0162650/,,"New York City, New York, USA",,"New York, United States of America",40.7127281,-74.0060152
168,/title/tt0065214/,,"Torreón, Coahuíla, Mexico",,"Torreón, Coahuila de Zaragoza, 27289, México",25.542698,-103.410512
169,/title/tt0065214/,,"Parras, Coahuíla, Mexico",,"Parras, Coahuila de Zaragoza, México",25.591946,-102.38397132077614
170,/title/tt0065214/,,"Bavispe, Sonora, Mexico",,"Bavispe, Sonora, México",30.64958635,-109.07011790903056
171,/title/tt0065214/,,"Sierra Madre Occidental, Sonora, Mexico",,"Sierra Madre Occidental, Heroica Nogales, Municipio de Nogales, Sonora, 84030, México",31.3248176,-110.9190577
172,/title/tt0065214/,,"Saltillo, Coahuíla, Mexico",,"Saltillo, Coahuila de Zaragoza, 25000, México",25.4230425,-100.9927509
173,/title/tt0065214/,,"Otinapa, Durango, Mexico",,"Otinapa, Municipio de Durango, Durango, México",24.0534579,-105.00998
174,/title/tt0065214/,,"Yuma, Arizona, USA",(studio) (Scenes cut by studio),"Yuma, Yuma County, Arizona, 85364, United States of America",32.6926588,-114.6276157
175,/title/tt0065214/,,"Samalayuca, Chihuahua, Mexico",,"Samalayuca, Juárez, Chihuahua, México",31.3438489,-106.4783433
176,/title/tt0065214/,,"Yaqui River, Sonora, Mexico",,"Yaqui, Ciudad Obregón, Cajeme, Sonora, 85000-85059, México",27.6205426,-109.9369965
177,/title/tt1075747/,,"New Orleans, Louisiana, USA",,"New Orleans, Orleans Parish, Louisiana, United States of America",29.9499323,-90.0701156
178,/title/tt1075747/,,"Crown Pointe, Louisiana, USA",,,,
179,/title/tt1075747/,,"Lafayette Cemetery #1 - 1400 Washington Avenue, New Orleans, Louisiana, USA",,,,
180,/title/tt1075747/,,"City Park, New Orleans, Louisiana, USA","(as Cactus Hole, Mexico)","City Park, Faubourg St. John, New Orleans, Orleans Parish, Louisiana, United States of America",30.00093555,-90.09319722162581
181,/title/tt1075747/,,"Raceland, Louisiana, USA",(train scene),"Raceland, Lafourche Parish, Louisiana, 70394, United States of America",29.7274331,-90.598976
182,/title/tt1075747/,,"St. Bernard Parish, Louisiana, USA",,"Saint Bernard Parish, Louisiana, United States of America",29.8217562,-89.6008692
183,/title/tt1075747/,,"Los Angeles City Hall - 200 North Spring Street, Downtown, Los Angeles, California, USA",(reshoots),"Los Angeles City Hall, 200, North Spring Street, Civic Center, Downtown, Los Angeles, Los Angeles County, California, 90012, United States of America",34.0537767,-118.2428987
184,/title/tt1075747/,,"St. Francisville, Louisiana, USA","(as Stunk Crick, Nevada)","St. Francisville, West Feliciana Parish, Louisiana, United States of America",30.7807244,-91.3763353
185,/title/tt0355295/,,"Ledec nad Sázavou, Czech Republic",,"Ledeč nad Sázavou, okres Havlíčkův Brod, Kraj Vysočina, Jihovýchod, 58401, Česká republika",49.6954347,15.2776706
186,/title/tt0355295/,,"Barrandov Studios, Prague, Czech Republic",(studio),,,
187,/title/tt0355295/,,"Krivoklát, Czech Republic",(castle),"Křivoklát, okres Rakovník, Středočeský kraj, Střední Čechy, 270 23, Česká republika",50.0407511,13.881053944967714
188,/title/tt0087032/,,"Tucson, Arizona, USA",,"Tucson, Pima County, Arizona, United States of America",32.2228765,-110.9748477
189,/title/tt0087032/,,"Redondo Beach, California, USA",,"Redondo Beach, Los Angeles County, California, United States of America",33.8455911,-118.3886766
190,/title/tt0087032/,,"Darien, Connecticut, USA",,"Darien, Fairfield County, Connecticut, 06820, United States of America",41.0787079,-73.4692873
191,/title/tt0087032/,,"Las Vegas, Nevada, USA",,"Las Vegas, Clark County, Nevada, United States of America",36.1672559,-115.1485163
192,/title/tt0097733/,,"Columbia/Warner Bros. Ranch - 411 North Hollywood Way, Burbank, California, USA",(home of Roger Murtaugh),,,
193,/title/tt0097733/,,"San Pedro, Los Angeles, California, USA",,"San Pedro, Los Angeles, Los Angeles County, California, 90731, United States of America",33.7358518,-118.2922934
194,/title/tt0097733/,,"2nd Street Tunnel between Hill and Figueroa, Los Angeles, California, USA",(tunnel: chase),,,
195,/title/tt0097733/,,"Mulholland Drive, Hollywood Hills, Los Angeles, California, USA",(car chases),"Mulholland Drive, Hollywood Hills, Los Angeles, Los Angeles County, California, 90068-1106, United States of America",34.1202305,-118.3486678
196,/title/tt0097733/,,"Stage 21, Warner Brothers Burbank Studios - 4000 Warner Boulevard, Burbank, California, USA",(studio),,,
197,/title/tt0097733/,,"Beverly Hills, California, USA",,"Beverly Hills, Los Angeles County, California, United States of America",34.0696501,-118.3963062
198,/title/tt0097733/,,"Valencia, California, USA",(mock stilt house of Arjen 'Aryan' Rudd),"Valencia, Santa Clarita, Los Angeles County, California, 91355, United States of America",34.413819,-118.5610378
199,/title/tt0097733/,,"Marriott Hotel - 2152 Avenue of the Stars, Culver City, California, USA",,,,
200,/title/tt2758770/,,"Santa Monica, California, USA",,"Santa Monica, Los Angeles County, California, United States of America",34.0250724,-118.4965129
201,/title/tt0048634/,,"Big Bend of the Colorado River, Colorado River, Utah, USA",,,,
202,/title/tt0048634/,,"Professor Valley, Moab, Utah, USA",,,,
203,/title/tt0048634/,,"Grand Canyon National Park, Arizona, USA",,"Grand Canyon National Park, Coconino County, Arizona, United States of America",36.307854750000004,-112.29289603702432
204,/title/tt0146675/,,"St. Vincent Catholic Church - 621 W. Adams Blvd., Los Angeles, California, USA",,,,
205,/title/tt0146675/,,"San Pedro, Los Angeles, California, USA",,"San Pedro, Los Angeles, Los Angeles County, California, 90731, United States of America",33.7358518,-118.2922934
206,/title/tt0146675/,,"Linda Vista Hospital - 610 S. St. Louis Street, Los Angeles, California, USA",,,,
207,/title/tt0146675/,,"Los Angeles Theatre - 615 S. Broadway, Downtown, Los Angeles, California, USA",(Vatican City - interior),"Los Angeles Theatre, 615, South Broadway, Historic Core District, Downtown, Los Angeles, Los Angeles County, California, 90013, United States of America",34.04656305,-118.25281941907565
208,/title/tt0146675/,,"Belasco Theatre - 1060 S. Hill Street, Downtown, Los Angeles, California, USA",(Dark passageway immediately inside closed movie theatre),,,
209,/title/tt0146675/,,"Bryant Park, Manhattan, New York City, New York, USA",,"Bryant Park, 6th Avenue, Theater District, Manhattan Community Board 5, Manhattan, New York County, New York, 10018, United States of America",40.75375085,-73.98353680295259
210,/title/tt0146675/,,"New York City, New York, USA",,"New York, United States of America",40.7127281,-74.0060152
211,/title/tt1297919/,,"Three Mills Studios, Three Mill Lane, Bow, London, England, UK",(studio) (as 3 Mills Studios),,,
212,/title/tt1297919/,,"Station Road, Brixton, London, England, UK",,"Brixton, Brixton Road, Stockwell, London Borough of Lambeth, London, Greater London, England, SW9 8EA, United Kingdom",51.4626818,-0.1147325
213,/title/tt1297919/,,"Tooting Broadway, London, England, UK",(2nd copper murdered),"Tooting Broadway, Garratt Terrace, Tooting Graveney, Upper Tooting, London Borough of Wandsworth, London, Greater London, England, SW17 0ST, United Kingdom",51.4278041,-0.1683376
214,/title/tt1297919/,,"76 Shoe Lane, London, England, UK",(Top floor fire location),"1 New Street Square, 76, Shoe Lane, Blackfriars, City of London, Greater London, England, EC4, United Kingdom",51.5159209,-0.10682906123753566
215,/title/tt1297919/,,"Marchmont Street, Saint Pancras, London, England, UK",(Blitz is hit by a car),,,
216,/title/tt4353270/,,"Salt Lake City, Utah, USA",,"Salt Lake City, Salt Lake County, Utah, United States of America",40.7596198,-111.8867975
217,/title/tt0089470/,,"10539 South Padre Island Drive, Corpus Christi, Texas, USA",(Sonic Drive-In),"South Padre Island Drive, Central City, Corpus Christi, Nueces County, Texas, 78416, United States of America",27.7529214,-97.4564205
218,/title/tt0089470/,,"10306 South Padre Island Drive, Corpus Christi, Texas, USA",(Pyatt's Shop),"South Padre Island Drive, Central City, Corpus Christi, Nueces County, Texas, 78416, United States of America",27.7529214,-97.4564205
219,/title/tt0089470/,,"360 North Lower Broadway St, Corpus Christi, Texas, USA",(Hideout),"360, North Lower Broadway Street, Marina Arts District, Downtown, Corpus Christi, Nueces County, Texas, 78401, United States of America",27.795226220131585,-97.39592809307531
220,/title/tt0089470/,,"Copper Mountain, Colorado, USA",(Vermont),"Copper Mountain, Grand County, Colorado, United States of America",39.9552634,-106.288083
221,/title/tt0089470/,,"Flour Bluff, Texas, USA",,"Flour Bluff, Corpus Christi, Nueces County, Texas, 78418, United States of America",27.6606349,-97.2951714
222,/title/tt0089470/,,"1645 South Alameda St, Corpus Christi, Texas, USA",(Dollar Days store),"1645, South Alameda Street, Marina Arts District, Downtown, Corpus Christi, Nueces County, Texas, 78404, United States of America",27.774488539149925,-97.4019629308271
223,/title/tt0089470/,,"6300 Everhart Road, Corpus Christi, Texas, USA",(Golf Club),"6300, Everhart Road, Bay Area, Corpus Christi, Nueces County, Texas, 78413, United States of America",27.700269849860334,-97.39342565498833
224,/title/tt0089470/,,"Texas, USA",,"Texas, United States of America",31.8160381,-99.5120986
225,/title/tt7599942/,,"Paris, France",,"Paris, Île-de-France, France métropolitaine, 75004, France",48.8566969,2.3514616
226,/title/tt7599942/,,"Los Angeles, California, USA",,"Los Angeles, Los Angeles County, California, United States of America",34.0536909,-118.2427666
227,/title/tt7599942/,,"Congress Center, Prague, Czech Republic",(HQ),"Kongresové centrum Praha, Na Bučance, Pankrác, Nusle, Praha, okres Hlavní město Praha, Hlavní město Praha, Praha, 12800, Česká republika",50.062183,14.428585494547328
228,/title/tt1103153/,,"Woodstock, Georgia, USA",,"Woodstock, Cherokee County, Georgia, United States of America",34.1014112,-84.5192192
229,/title/tt1103153/,,"Marietta, Georgia, USA",(street scenes),"Marietta, Cobb, Georgia, United States of America",33.9528472,-84.5496148
230,/title/tt1103153/,,"Riverwood Studios - 600 Chestlehurst Rd, Senoia, Georgia, USA",(studio),,,
231,/title/tt1103153/,,"Nassau, Bahamas",,"Nassau, 242, Bahamas",25.0783456,-77.3383331
232,/title/tt1103153/,,"Ville Franche, Villefranche-sur-Mer, Alpes-Maritimes, France",,"La Ville, Villefranche-sur-Mer, Nice, Alpes-Maritimes, Provence-Alpes-Côte d'Azur, France métropolitaine, 06230, France",43.7051542,7.311853
233,/title/tt1103153/,,"Douglas County, Georgia, USA",,"Douglas County, Georgia, United States of America",33.6995565,-84.7622973
234,/title/tt1103153/,,"Alpes-Maritimes, France",,"Alpes-Maritimes, Provence-Alpes-Côte d'Azur, France métropolitaine, France",43.9210587,7.1790785
235,/title/tt1103153/,,South of France,,"The South of France, 1254, Westchester Avenue, The Bronx, Bronx County, New York, 10472, United States of America",40.831752,-73.8662124
236,/title/tt1103153/,,"Hôtel du Cap, Antibes, Alpes-Maritimes, France",(French Hotel),,,
237,/title/tt1103153/,,"Culver Studios - 9336 W. Washington Blvd., Culver City, California, USA",,,,
238,/title/tt1103153/,,"Cap d'Antibes, Antibes, Alpes-Maritimes, France",,"Cap d'Antibes, Antibes, Grasse, Alpes-Maritimes, Provence-Alpes-Côte d'Azur, France métropolitaine, 06160, France",43.5548344,7.1284027
239,/title/tt1103153/,,"Tributary Subdivision Douglasville, Georgia, USA",(on location),"Tributary, Douglasville, Douglas County, Georgia, United States of America",33.7129313,-84.6426467
240,/title/tt1598754/,,"Hampshire, England, UK",,"Hampshire, Itchen Valley, Winchester, Hampshire, South East, England, United Kingdom",51.04483545,-1.2434093603442158
241,/title/tt0088206/,,"Chicago, Illinois, USA",,"Chicago, Cook County, Illinois, United States of America",41.8755616,-87.6244212
242,/title/tt0088206/,,"Black Park Country Park, Wexham, Buckinghamshire, England, UK",,,,
243,/title/tt6811018/,,"Tintagal, Devon, England, UK","(Tintagel, Cornwall, England, UK)",,,
244,/title/tt6811018/,,"Davidstow airfield, Devon, England, UK","(Davidstoe airfield, Cornwall. England, UK)",,,
245,/title/tt8523042/,,South Korea,,대한민국,36.638392,127.6961188
246,/title/tt2631186/,,"Ramoji Film City, Hyderabad, Telangana, India",,,,
247,/title/tt2631186/,,"Athirappilly Water Fall, Thrissur, Kerala, India",,,,
248,/title/tt2631186/,,"Annapurna Studios, Hyderabad, Telangana, India",,,,
249,/title/tt6051216/,,"Hasköy, Beyoglu, Istanbul, Turkey",(kebab shop scenes),"Hasköy, Piri Paşa, Piri Paşa Mahallesi, İstanbul, Marmara Bölgesi, 34445, Türkiye",41.0430916,28.9538978
250,/title/tt6051216/,,"Sishane Street, Fatih, Istanbul, Turkey",(car park scenes),"Şişhane Caddesi, Ayvansaray Mahallesi, İstanbul, Fatih, İstanbul, Marmara Bölgesi, 34087, Türkiye",41.0345241,28.9408701
251,/title/tt0092003/,,"Old Tucson - 201 S. Kinney Road, Tucson, Arizona, USA",,"Old Tucson, 201, Kinney Road, Tucson Estates, Pima County, Arizona, 85735, United States of America",32.2186224,-111.1300273
252,/title/tt0092003/,,"Cascabel, Arizona, USA",,"Cascabel, Cochise County, Arizona, United States of America",32.2914623,-110.3795221
253,/title/tt0092003/,,"Tucson Mountains, Arizona, USA",,,,
254,/title/tt0092003/,,"Santa Cruz River, Arizona, USA",,"Santa Cruz River, Pinal County, Arizona, 85231, United States of America",32.668238,-111.539798
255,/title/tt0092003/,,"Rincon Mountains, Arizona, USA",,"Little Rincon Mountains, Cochise County, Arizona, United States of America",32.1684098,-110.4128539
256,/title/tt0092003/,,"Redington, Arizona, USA",,"Redington, Pima County, Arizona, United States of America",32.4275718,-110.49314
257,/title/tt3793630/,,"Chicago Illinois, USA",(Prairie Fields and Swampy Areas),"Chicago, Cook County, Illinois, United States of America",41.8755616,-87.6244212
258,/title/tt0098439/,,"Park Plaza Hotel - 607 S. Park View Street, Los Angeles, California, USA",,,,
259,/title/tt0098439/,,"Irwindale, California, USA",,"Irwindale, Los Angeles County, California, 91702-3221, United States of America",34.1069927,-117.9342148
260,/title/tt0098439/,,"117 N. Toluca Street, Los Angeles, California, USA",(Cash's apartment),"117, North Toluca Street, Echo Park, Los Angeles, Los Angeles County, California, 90026, United States of America",34.06201018367347,-118.2584150612245
261,/title/tt1648179/,,"Route 1 Saugus, Massachusetts, USA",(Hilltop Steak House),"Saugus, Essex County, Massachusetts, United States of America",42.4648183,-71.010051
262,/title/tt1648179/,,"Logan International Airport, Boston, Massachusetts, USA",(airport),"Logan International Airport, 1, Harborside Drive, Jeffries Point, East Boston, Boston, Suffolk County, Massachusetts, 02210, United States of America",42.3630236,-71.01340798670637
263,/title/tt1648179/,,"Quincy, Massachusetts, USA",,"Quincy, Norfolk County, Massachusetts, United States of America",42.2528772,-71.0022705
264,/title/tt1648179/,,"Faneuil Hall - Faneuil Hall Square, Boston, Massachusetts, USA",(naturalization ceremony),"Faneuil Hall, 1, Faneuil Hall Square, Dock Square, Financial District, Boston, Suffolk County, Massachusetts, 02109, United States of America",42.3600335,-71.05623415
265,/title/tt0086393/,,"High River, Alberta, Canada",(Smallville town scenes),"High River, Town of High River, Alberta, T1V 1P2, Canada",50.5797079,-113.8569213
266,/title/tt0086393/,,"Milton Keynes, Buckinghamshire, England, UK",(junkyard scenes),"Milton Keynes, South East, England, MK9 3AF, United Kingdom",52.0429797,-0.7589607
267,/title/tt0086393/,,Italy,(exterior footage),Italia,42.6384261,12.674297
268,/title/tt0056197/,,"Château de Chantilly, Chantilly, Oise, France",(Kommandantur scenes),"Château de Chantilly, Площадь Коннетабля, Chantilly, Senlis, Oise, Hauts-de-France, France métropolitaine, 60500, France",49.193852449999994,2.4852990180858905
269,/title/tt0056197/,,"Sainte-Mère-Eglise, Manche, France",(parachutists landing in the village),"Sainte-Mère-Église, Cherbourg, Manche, Normandie, France métropolitaine, 50480, France",49.411770399999995,-1.3268247811335525
270,/title/tt0056197/,,"Plage de Saleccia, Saint-Florent, Haute-Corse, France",,,,
271,/title/tt0056197/,,"Rivedoux-Plage, Ile de Ré, Charente-Maritime, France",(mayor celebrating with a champagne bottle),,,
272,/title/tt0056197/,,"La Rochelle, Charente-Maritime, France",,"La Rochelle, Charente-Maritime, Nouvelle-Aquitaine, France métropolitaine, 17000, France",46.1591126,-1.1520434
273,/title/tt0056197/,,"Plage de Lotu, Saint-Florent, Haute-Corse, France",,,,
274,/title/tt0056197/,,"Orne, France",,"Orne, Normandie, France métropolitaine, 61500, France",48.57605325,0.04466171759588161
275,/title/tt0056197/,,France,,France,46.603354,1.8883335
276,/title/tt9844522/,,"Cape Town, Western Cape, South Africa",,"Cape Town, City of Cape Town, Western Cape, 8001, South Africa",-33.928992,18.417396
277,/title/tt0120749/,,"Chicago, Illinois, USA",(Hyde Park),"Chicago, Cook County, Illinois, United States of America",41.8755616,-87.6244212
278,/title/tt0120749/,,"Universal Studios - 100 Universal City Plaza, Universal City, California, USA",(studio),,,
279,/title/tt2387499/,,"Red Brick Brewing Company - 2323 Defoor Hills Road NW, Atlanta, Georgia, USA",(What Ales Ya? - Homebrew Supplies & Tasting Bar),"Red Brick Brewing Company, 2323, Defoor Hills Road Northwest, Westover Plantation, Ellen, Atlanta, Georgia, 30318, United States of America",33.81830375,-84.43454138389865
280,/title/tt2387499/,,"Duncan Dr NW, Atlanta, Georgia, USA",(suburban cul-de-sac),"Duncan Drive NW, Dupont Commons, Tilford, Atlanta, Georgia, 30318, United States of America",33.8072423,-84.4472273
281,/title/tt2387499/,,"Atlanta, Georgia, USA",(Principal photography),"Atlanta, Georgia, United States of America",33.7490987,-84.3901849
282,/title/tt2387499/,,"1617 Duncan Dr NW, Atlanta, Georgia, USA",(Joneses's house),"1617, Duncan Drive NW, Dupont Commons, Tilford, Atlanta, Georgia, 30318, United States of America",33.80656258563725,-84.44719724861766
283,/title/tt2387499/,,"Underground Atlanta, 50 Central Ave SW #007, Atlanta, Georgia, USA","(exteriors: Marrakesh, Morocco) (Moroccan bazaar and Hazim's Cafe)",,,
284,/title/tt2387499/,,"1355 Clairmont Rd, Decatur, Georgia, USA",(parking lot of What Ales Ya?),"1355, Clairmont Road, Emory Estates, Oakhurst, North Decatur, DeKalb County, Georgia, 30033, United States of America",33.793129098236264,-84.3054682145964
285,/title/tt2387499/,,"Peachtree City, Georgia, USA","(MBI building - McDowell-Burton International, Aerospace & Defense)","Peachtree City, Georgia, 30269, United States of America",33.3967829,-84.5957629
286,/title/tt2387499/,,"Forest Park, Georgia, USA",(car and motorcycle chase),"Forest Park, Clayton County, Georgia, 30297, United States of America",33.6220542,-84.3690918
287,/title/tt0053221/,,"Stage 5, Warner Brothers Burbank Studios - 4000 Warner Boulevard, Burbank, California, USA",,,,
288,/title/tt0053221/,,"Sonoran Desert, Arizona, USA",,"Sonoran Desert, Bates Well Road, Pima County, Arizona, United States of America",32.2598642,-112.9262583
289,/title/tt0053221/,,"Ironwood Forest National Monument, Arizona, USA",,"Ironwood Forest National Monument, Farmers Way, Red Rock, Pinal County, Arizona, 85145, United States of America",32.4449519,-111.65212774769238
290,/title/tt0053221/,,"Sierrita Mountains, Arizona, USA",,,,
291,/title/tt0053221/,,"Arizona, USA",,"Arizona, United States of America",34.395342,-111.7632755
292,/title/tt0078723/,,"Haystack Rock, Cannon Beach, Oregon, USA","(establishing shot, opening scene)","Haystack Rock, Cannon Beach, Clatsop County, Oregon, United States of America",45.884422799999996,-123.96839928259067
293,/title/tt0078723/,,"Pacific Ocean Park, Santa Monica, California, USA",,,,
294,/title/tt0078723/,,"Mojave Desert, California, USA",,"Mojave Desert, Cima Road, Cima, San Bernardino County, California, 92323, United States of America",35.1456319,-115.54896378664561
295,/title/tt0078723/,,"Malibu, California, USA",,"Malibu, Los Angeles County, California, 90265-4797, United States of America",34.035591,-118.689423
296,/title/tt0078723/,,"Los Angeles, California, USA",,"Los Angeles, Los Angeles County, California, United States of America",34.0536909,-118.2427666
297,/title/tt0078723/,,USA,,United States,39.7837304,-100.4458825
298,/title/tt0078723/,,"Long Beach Airport - 4101 E. Donald Douglas Drive, Long Beach, California, USA",(Daugherty Field airport),,,
299,/title/tt8354752/,,"Wormsloe Plantation, Georgia, USA",,"Wormsloe Way, Turnwold, Putnam County, Georgia, United States of America",33.3953714,-83.2323186
300,/title/tt1640571/,,"RMS Queen Mary - 1126 Queens Highway, Long Beach, California, USA",,,,
301,/title/tt1640571/,,"San Pedro, Los Angeles, California, USA",,"San Pedro, Los Angeles, Los Angeles County, California, 90731, United States of America",33.7358518,-118.2922934
302,/title/tt0119501/,,"Bonanza Creek Ranch - 15 Bonanza Creek Lane, Santa Fe, New Mexico, USA",,,,
303,/title/tt0119501/,,"Santa Clara Pueblo, Santa Clara, New Mexico, USA",,,,
304,/title/tt0119501/,,"Valle Grande, New Mexico, USA",,"Valle Grande, Four Points, Mesilla, Doña Ana County, New Mexico, 88046, United States of America",32.275728,-106.8053838
305,/title/tt0086662/,,"Baxter Pharmaceutical - 1 Baxter Way, Thousand Oaks, California, USA",(FIRM building),,,
306,/title/tt0086662/,,"Denver Street, Backlot, Universal Studios - 100 Universal City Plaza, Universal City, California, USA",,,,
307,/title/tt0086662/,,"Six Points Texas, Backlot, Universal Studios - 100 Universal City Plaza, Universal City, California, USA",,,,
308,/title/tt0086662/,,"Monument Valley, Arizona, USA",,"Monument Valley Navajo Tribal Park, Navajo County, Arizona, United States of America",36.9820026,-110.1108327
309,/title/tt0086662/,,"Square of Warriors, Backlot, Universal Studios - 100 Universal City Plaza, Universal City, California, USA",,,,
310,/title/tt2199571/,,"Woodhaven, Queens, New York City, New York, USA",(Mike's Pub),"Woodhaven, Queens County, New York, 11421, United States of America",40.6892698,-73.8579131
311,/title/tt2199571/,,"Madison Square Garden, New York City, New York, USA",,"Madison Square Garden, 4, Pennsylvania Plaza, Chelsea, Manhattan Community Board 5, Manhattan, New York County, New York, 10001, United States of America",40.7505247,-73.99355027800776
312,/title/tt2199571/,,"Woodside/61st Street #7 subway station/LIRR station, Queens, New York, USA",,,,
313,/title/tt2199571/,,"Linden Plaza, 675 Lincoln Ave, Brooklyn, New York, USA",(Legs' apartment),,,
314,/title/tt0120784/,,"East Washington Street / North Garland Court, Chicago, Illinois, USA",(street scenes),,,
315,/title/tt0120784/,,"Chinatown, Armour Square, Chicago, Illinois, USA",,"Cermak-Chinatown, 138, West Cermak Road, Chinatown, South Loop, Chicago, Cook County, Illinois, 60616, United States of America",41.8530863,-87.6309866
316,/title/tt0120784/,,"Los Angeles, California, USA",,"Los Angeles, Los Angeles County, California, United States of America",34.0536909,-118.2427666
317,/title/tt0120784/,,"Randolph/Wabash El Station, The Loop, Downtown, Chicago, Illinois, USA",(L train station scenes),,,
318,/title/tt1549920/,,"Belen, New Mexico, USA","(as Sommerton Junction, Arizona)","Belen, Valencia County, New Mexico, United States of America",34.6627495,-106.7762
319,/title/tt1549920/,,"Albuquerque, New Mexico, USA","(as Las Vegas, Nevada)","Albuquerque, Bernalillo County, New Mexico, United States of America",35.0841034,-106.6509851
320,/title/tt1549920/,,"Mesita, New Mexico",,"Mesita, Cibola County, New Mexico, United States of America",35.01226145,-107.32623837380181
321,/title/tt1549920/,,"Laguna Pueblo, New Mexico, USA",,"Laguna Pueblo, New Mexico, United States of America",34.986220700000004,-107.23814866045801
322,/title/tt1549920/,,"Las Vegas, Nevada, USA",,"Las Vegas, Clark County, Nevada, United States of America",36.1672559,-115.1485163
323,/title/tt0118548/,,"Elk Neck State Park - 4395 Turkey Point Road, North East, Maryland, USA",,,,
324,/title/tt0118548/,,"Maryvale Preparatory School - 11300 Falls Road, Brooklandville, Maryland, USA",,,,
325,/title/tt0118548/,,"Baltimore, Maryland, USA",(Scenes depicting Washington D.C. suburbs),"Baltimore, Maryland, United States of America",39.2908816,-76.610759
326,/title/tt0118548/,,"Washington, District of Columbia, USA",,"Washington, District of Columbia, 20230, United States of America",38.8949924,-77.0365581
327,/title/tt0097138/,,"Wilmington, North Carolina, USA",,"Wilmington, New Hanover County, North Carolina, United States of America",34.2257282,-77.9447107
328,/title/tt0097138/,,"Davis-Monthan Air Force Base, Tucson, Arizona, USA",,"Davis-Monthan Air Force Base, Tucson, Pima County, Arizona, United States of America",32.17079565,-110.86990239630313
329,/title/tt0097138/,,"The Domes, Casa Grande, Arizona, USA",,,,
330,/title/tt0097138/,,"Roanoke Cement Factory - 6411 Ideal Cement Road, Castle Hayne, North Carolina, USA",,,,
331,/title/tt1034314/,,"Brisbane, Queensland, Australia",,"Brisbane City, Queensland, Australia",-27.4689682,153.0234991
332,/title/tt1034314/,,"Lielahti, Tampere, Finland",,"Lielahti, Tampere, Tampereen seutukunta, Pirkanmaa, Länsi- ja Sisä-Suomen aluehallintovirasto, Manner-Suomi, 33270, Suomi",61.5166527,23.6701373
333,/title/tt1034314/,,"New York City, New York, USA",,"New York, United States of America",40.7127281,-74.0060152
334,/title/tt0120844/,,"San Gabriel Dam, San Gabriel Canyon, Angeles National Forest, California, USA",(Exterior river scenes),,,
335,/title/tt0120844/,,"Lake Sherwood, California, USA",(Ba'ku Set),"Lake Sherwood, Cricketfield Court, Greenwich Village, Ventura County, California, 91361, United States of America",34.13705515,-118.87489587697775
336,/title/tt1724970/,,"Yogyakarta, Indonesia",(Sri Gethuk Waterfall),"Kota Yogyakarta, Daerah Istimewa Yogyakarta, Indonesia",-7.8011945,110.364917
337,/title/tt1724970/,,"Toronto, Ontario, Canada",(studio) (studio work),"Toronto, Golden Horseshoe, Ontario, Canada",43.6534817,-79.3839347
338,/title/tt1724970/,,"Marina del Rey, California, USA",(the marina),"Marina del Rey, Los Angeles County, California, 90292, United States of America",33.9776848,-118.4486479
339,/title/tt1724970/,,"Port of Los Angeles, Los Angeles, California, USA",,"Port of Los Angeles, Los Angeles, Los Angeles County, California, United States of America",33.74248485,-118.2613693317183
340,/title/tt0190865/,,"Southern Alps, New Zealand",,"Southern Alps / Kā Tiritiri o te Moana, Westland District, West Coast, New Zealand",-43.9649295,169.5863321
341,/title/tt0190865/,,New Zealand,,New Zealand / Aotearoa,-41.5000831,172.8344077
342,/title/tt0190865/,,"Queenstown, Otago, New Zealand",,"Queenstown, Queenstown-Lakes District, Otago, 9348, New Zealand",-45.0321923,168.661
343,/title/tt0190865/,,"Monument Valley, Utah, USA",,"Monument, Disera Boulevard, Magna, Salt Lake County, Utah, 84044, United States of America",40.7143227,-112.1045506
344,/title/tt0190865/,,"Paradise, Glenorchy, Otago, New Zealand",(Helicoptor Scenes),"Glenorchy, Queenstown-Lakes District, Otago, 9372, New Zealand",-44.8495067,168.3900502
345,/title/tt0190865/,,"Monument Valley, Arizona, USA",,"Monument Valley Navajo Tribal Park, Navajo County, Arizona, United States of America",36.9820026,-110.1108327
346,/title/tt0091209/,,"Roy's Motel and Cafe, Amboy, California, USA",(Roy's diner),"Roy's Motel and Café, National Trails Highway, Amboy, San Bernardino County, California, United States of America",34.55881155,-115.74357555726233
347,/title/tt0091209/,,"Calico Dry Lake, California, USA",,,,
348,/title/tt0091209/,,"Barstow, California, USA",,"Barstow, San Bernardino County, California, United States of America",34.8957684,-117.0172077
349,/title/tt0091209/,,"Lake Mead, Nevada, USA",,"Lake Mead, Boulder City, Clark County, Nevada, United States of America",36.217208150000005,-114.4109763071589
350,/title/tt0091209/,,"Mojave Desert, California, USA",,"Mojave Desert, Cima Road, Cima, San Bernardino County, California, 92323, United States of America",35.1456319,-115.54896378664561
351,/title/tt0091209/,,"Southern California, California, USA",,"University of Southern California, Flower Street, University Park, Los Angeles, Los Angeles County, California, 90089-0871, United States of America",34.0218833,-118.28586726915088
352,/title/tt0300556/,,"Montréal, Québec, Canada",,"Montréal, Agglomération de Montréal, Montréal (06), Québec, Canada",45.4972159,-73.6103642
353,/title/tt0300556/,,"Harrington, Québec, Canada",,"Harrington, Argenteuil, Laurentides, Québec, Canada",45.8432991,-74.5585055
354,/title/tt0300556/,,"Las Vegas, Nevada, USA",,"Las Vegas, Clark County, Nevada, United States of America",36.1672559,-115.1485163
355,/title/tt0300556/,,Canada,,Canada,61.0666922,-107.9917071
356,/title/tt0300556/,,"Nevada, USA",,"Nevada, United States of America",39.5158825,-116.8537227
357,/title/tt0300556/,,Czech Republic,,Česko,49.8167003,15.4749544
358,/title/tt0120768/,,"77 W. Wacker Drive, Downtown, Chicago, Illinois, USA",,,,
359,/title/tt0120768/,,"Raleigh Studios - 5300 Melrose Avenue, Hollywood, Los Angeles, California, USA",(studio),,,
360,/title/tt0120768/,,"Chicago River, Chicago, Illinois, USA",,"Chicago River, Chicago, Cook County, Illinois, 60601, United States of America",41.8888702,-87.6246786
361,/title/tt0120768/,,"Downtown, Chicago, Illinois, USA",,"Residence Inn Chicago Downtown/Loop, 11, West Madison Street, Loop, Chicago, Cook County, Illinois, 60603, United States of America",41.881644,-87.63209480891294
362,/title/tt0120768/,,"Long Beach, California, USA",,"Long Beach, Los Angeles County, California, United States of America",33.7690164,-118.1916048
363,/title/tt0120768/,,"Penn Central Freight Yards, Near West Side, Chicago, Illinois, USA",,,,
364,/title/tt0120768/,,"Duck Pond, El Dorado Regional Park - 7550 E. Spring Street, Long Beach, California, USA",(park in Chicago),,,
365,/title/tt0073631/,,"Olympic Basketball-Hall, Munich, Bavaria, Germany",,,,
366,/title/tt0073631/,,"Frankfurt, Germany",,"Frankfurt am Main, Hessen, 60311, Deutschland",50.1106444,8.6820917
367,/title/tt0073631/,,"Munich, Bavaria, Germany",,"München, Bayern, Deutschland",48.1371079,11.5753822
368,/title/tt0073631/,,"Palace of Nations, Geneva, Canton de Genève, Switzerland",(location),"Palais des Nations, 8 - 14, Avenue de la Paix, Pâquis, Genève, 1202, Switzerland",46.2282327,6.142438958875585
369,/title/tt0102744/,,"Alice Springs, Northern Territory, Australia",,"Alice Springs, Town of Alice Springs, Northern Territory, 0870, Australia",-23.6983884,133.8812885
370,/title/tt0102744/,,"Warrnambool, Victoria, Australia",,"Warrnambool, City of Warrnambool, Victoria, 3280, Australia",-38.3826241,142.4814191
371,/title/tt0102744/,,"Glebe, Sydney, New South Wales, Australia",,"Glebe, Sydney, Council of the City of Sydney, New South Wales, 2037, Australia",-33.8777782,151.1862377
372,/title/tt0102744/,,"Victoria, Australia",,"Victoria, Australia",-36.5986096,144.6780052
373,/title/tt2724064/,,"Los Angeles, California, USA",,"Los Angeles, Los Angeles County, California, United States of America",34.0536909,-118.2427666
374,/title/tt2724064/,,"California, USA",,"California, United States of America",36.7014631,-118.7559974
375,/title/tt0338459/,,"University of Texas, Austin, Texas, USA",,,,
376,/title/tt0338459/,,"307 E Pine Street, Austin, Texas, USA",(video game store),"307, East 5th Street, Dirty Sixth, Austin, Travis County, Texas, 78701, United States of America",30.266306102040815,-97.74058081632653
377,/title/tt0117331/,,"Greystone Park & Mansion - 905 Loma Vista Drive, Beverly Hills, California, USA",,,,
378,/title/tt0117331/,,"Los Angeles, California, USA",,"Los Angeles, Los Angeles County, California, United States of America",34.0536909,-118.2427666
379,/title/tt0117331/,,"Playboy Mansion - 10236 Charing Cross Road, Holmby Hills, Los Angeles, California, USA",(Diana Palmer's House),,,
380,/title/tt0117331/,,"Griffith Park - 4730 Crystal Springs Drive, Los Angeles, California, USA",(chase scene and zoo),,,
381,/title/tt0117331/,,Australia,,Australia,-24.7761086,134.755
382,/title/tt0117331/,,USA,,United States,39.7837304,-100.4458825
383,/title/tt0130414/,,"Pembrokeshire, Wales, UK",,"Pembrokeshire, Cymru / Wales, United Kingdom",51.8339209,-4.916667
384,/title/tt0130414/,,"Snowdonia, Gwynedd, Wales, UK",,"Snowdonia National Park, Trawsfynydd, Gwynedd, Cymru / Wales, United Kingdom",52.9155626,-3.8326012926334223
385,/title/tt0345950/,,"HMS Bounty, The Pier, St. Petersburg, Florida, USA",,,,
386,/title/tt0116136/,,"Spissky Castle, Slovakia",(Avalon),"Spišský hrad, 18, Granč-Petrovce, okres Levoča, Prešovský kraj, Východné Slovensko, 05304, Slovensko",48.999434,20.76803014952728
387,/title/tt0116136/,,"Tomásovský výhlad, Slovakia",,"Tomášovský výhľad, Mostik pod Tomášovským výhľadom, Spišské Tomášovce, okres Spišská Nová Ves, Košický kraj, Východné Slovensko, 053 13, Slovensko",48.9450576,20.4597096
388,/title/tt0116136/,,"Dreveník, Slovakia",,"Dreveník, okres Spišská Nová Ves, Košický kraj, Východné Slovensko, 05304, Slovensko",48.984167,20.772778
389,/title/tt0110478/,,"Glen Canyon, Utah, USA",,"Glen Canyon National Recreation Area, Garfield County, Utah, 86036, United States of America",37.6580958,-111.09320889669256
390,/title/tt0110478/,,"Leidig Meadow, Yosemite National Park, California, USA",,,,
391,/title/tt0110478/,,"Lone Pine, California, USA",,"Lone Pine, Inyo County, California, 93545, United States of America",36.583175999999995,-118.07835929489717
392,/title/tt0110478/,,"Lee's Ferry, Arizona, USA",,"Lee's Ferry, Spencer Trail, Coconino County, Arizona, United States of America",36.86611515,-111.58721229452009
393,/title/tt0110478/,,"Grand Canyon National Park, Arizona, USA",,"Grand Canyon National Park, Coconino County, Arizona, United States of America",36.307854750000004,-112.29289603702432
394,/title/tt0110478/,,"Mescal, Arizona, USA",,"Mescal, Cochise County, Arizona, United States of America",31.9900824,-110.4353531
395,/title/tt0110478/,,"Glen Canyon, Arizona, USA",,"Glen Canyon, South Lake Powell Boulevard, Page, Coconino County, Arizona, 86040-0418, United States of America",36.8796091,-111.5342184
396,/title/tt0110478/,,"Stage 18, Warner Brothers Burbank Studios - 4000 Warner Boulevard, Burbank, California, USA",,,,
397,/title/tt0110478/,,"Stage 21, Warner Brothers Burbank Studios - 4000 Warner Boulevard, Burbank, California, USA",,,,
398,/title/tt3316948/,,"St. James Parish, Louisiana, USA",,"St. James Parish, Louisiana, United States of America",30.0096684,-90.7989525
399,/title/tt3316948/,,"Raceland, Louisiana, USA",,"Raceland, Lafourche Parish, Louisiana, 70394, United States of America",29.7274331,-90.598976
400,/title/tt3316948/,,"Norco, Louisiana, USA",,"Norco, St. Charles Parish, Louisiana, 70079, United States of America",29.9990924,-90.4123042
401,/title/tt3316948/,,"Houma, Louisiana, USA",,"Houma, Terrebonne Parish, Louisiana, United States of America",29.5957696,-90.7195348
402,/title/tt3316948/,,"Hammond, Louisiana, USA",,"Hammond, Tangipahoa Parish, Louisiana, United States of America",30.5043583,-90.4611995
403,/title/tt3316948/,,"Kenner, Louisiana, USA",,"Kenner, Jefferson Parish, Louisiana, United States of America",29.9942265,-90.2417806
404,/title/tt0337921/,,"527 Loring Ave, Los Angeles, California, USA",,"527, Loring Avenue, Westwood, Los Angeles, Los Angeles County, California, 90024, United States of America",34.07187466305475,-118.43395222007794
405,/title/tt0337921/,,"Venice, Los Angeles, California, USA",,"Venice, Los Angeles, Los Angeles County, California, United States of America",33.995044,-118.4668875
406,/title/tt0337921/,,"Anaheim, California, USA",,"Anaheim, Orange County, California, United States of America",33.8347516,-117.911732
407,/title/tt0337921/,,"Los Angeles, California, USA",,"Los Angeles, Los Angeles County, California, United States of America",34.0536909,-118.2427666
408,/title/tt0093640/,,"Omni Shorehan Hotel - 2500 Calvert Street NW, Rock Creek Park, Washington, District of Columbia, USA",(party where Tom first meets Susan),,,
409,/title/tt0093640/,,"1503 30th St NW, Washington, District of Columbia, USA",(Tom's Apartment),"1503, 30th Street Northwest, Georgetown, Washington, District of Columbia, 20566, United States of America",38.9094506,-77.05897986776117
410,/title/tt0093640/,,"Hotel Washington - 515 15th Street, Washington, District of Columbia, USA",,,,
411,/title/tt0093640/,,"Arlington, Virginia, USA",,"Arlington, Arlington County, Virginia, United States of America",38.8903961,-77.0841585
412,/title/tt0093640/,,"The Pentagon - 48 N. Rotary Road, Arlington, Virginia, USA",,,,
413,/title/tt0093640/,,"Washington, District of Columbia, USA",,"Washington, District of Columbia, 20230, United States of America",38.8949924,-77.0365581
414,/title/tt0093640/,,"Department of the Interior Building, 1849 C Street, NW, Washington, District of Columbia, USA",(Pentagon interiors - note black and white tiles floors),,,
415,/title/tt0093640/,,"Trump International Hotel, Washington, D.C., 1100 Pennsylvania Ave NW, Washington, DC 20004, United States",,,,
416,/title/tt7605074/,,"Beijing, China",,"北京市, 通州区, 北京市, China 中国",39.9020668,116.718583
417,/title/tt0450336/,,"MediaPro Studios, Bucharest, Romania",(studio),,,
418,/title/tt0462504/,,"Alameda, California, USA",(final scenes),"Alameda County, California, United States of America",37.6090291,-121.899142
419,/title/tt0462504/,,"California, USA",,"California, United States of America",36.7014631,-118.7559974
420,/title/tt0107206/,,"Holly, Michigan, USA",,"Holly, Oakland County, Michigan, United States of America",42.7919727,-83.6277255
421,/title/tt0107206/,,"Lincoln Memorial, National Mall, Washington, District of Columbia, USA",,,,
422,/title/tt0107206/,,"Civic Center Park, Denver, Colorado, USA",(Campaign meeting at the Greek Amphitheater),"Civic Center Park, 101, Golden Triangle, Denver, Denver County, Colorado, 80202, United States of America",39.73923565,-104.98911415389385
423,/title/tt0107206/,,"Los Angeles, California, USA",,"Los Angeles, Los Angeles County, California, United States of America",34.0536909,-118.2427666
424,/title/tt0107206/,,"1804 Belmont Road NW, Washington, District of Columbia, USA",(Horrigan's apartment),"High Road Hostel DC, 1804, Belmont Road Northwest, Adams Morgan, Washington, District of Columbia, 20009, United States of America",38.9204074,-77.0422782
425,/title/tt0107206/,,"Old Ebbitt Grill - 675 15th Street Northwest, Washington, District of Columbia, USA",(Presidents' favorite bar),"Old Ebbitt Grill, 675, 15th Street Northwest, Washington, District of Columbia, 20005-5702, United States of America",38.898056,-77.0333288
426,/title/tt0107206/,,"Lafayette Park - Pennsylvania Avenue & H Street NW, Washington, District of Columbia, USA",(Leary escaping after phone call),,,
427,/title/tt0107206/,,"1331 Park Road NW, Washington, District of Columbia, USA",(hotel Leary exits just before police arrival),"1331, Park Road Northwest, Columbia Heights, Washington, District of Columbia, 20010, United States of America",38.9311613,-77.03071258693137
428,/title/tt0107206/,,"Sony Pictures Studios - 10202 W. Washington Blvd., Culver City, California, USA",(studio),,,
429,/title/tt0107206/,,"White House - 1600 Pennsylvania Avenue NW, Washington, District of Columbia, USA",,"White House, 1600, Pennsylvania Avenue Northwest, Washington, District of Columbia, 20500, United States of America",38.8976998,-77.03655348862276
430,/title/tt3554580/,,"New York City, New York, USA",,"New York, United States of America",40.7127281,-74.0060152
431,/title/tt1111422/,,"Lower Bay Station, Toronto, Ontario, Canada",(as several different NYC subway stations),"Lower Bay, Mayfair Mews, University—Rosedale, Old Toronto, Toronto, Golden Horseshoe, Ontario, M5R 2A7, Canada",43.6706718,-79.3880299
432,/title/tt1111422/,,"Kensington, Brooklyn, New York City, New York, USA",,"Kensington, Brooklyn, Kings County, New York, 11218, United States of America",40.6462149,-73.970694
433,/title/tt1111422/,,"Astoria, Queens, New York City, New York, USA",,"Astoria, Queens County, New York, 11102, United States of America",40.7720145,-73.9302673
434,/title/tt1111422/,,"Jay Street, Brooklyn, New York City, New York, USA",,"Jay Street, DUMBO, Brooklyn, Kings County, New York, 11201, United States of America",40.6977631,-73.9870168
435,/title/tt0122151/,,"Long Beach Harbor, Long Beach, California, USA",,,,
436,/title/tt0122151/,,"Paradise Cove - 28128 Pacific Coast Highway, Malibu, California, USA",(Riggs beach house),,,
437,/title/tt0122151/,,"Long Beach Naval Shipyard - Ocean Boulevard & Navy Way, Long Beach, California, USA",(car crashing through office building),,,
438,/title/tt0122151/,,"Windmill Lane, Las Vegas, Nevada, USA",,"Windmill Lane, Arden, Enterprise, Clark County, Nevada, 89113, United States of America",36.0413676,-115.2423241
439,/title/tt0122151/,,"Burbank, California, USA",,"Burbank, Los Angeles County, California, United States of America",34.1816482,-118.3258554
440,/title/tt0122151/,,"First Street, Downtown, Los Angeles, California, USA",(gas station - flamethrower sequence),,,
441,/title/tt0122151/,,"Los Angeles, California, USA",,"Los Angeles, Los Angeles County, California, United States of America",34.0536909,-118.2427666
442,/title/tt0122151/,,"Ord Street, Chinatown, Los Angeles, California, USA",,"Ord Street, New Chinatown, Chinatown, Los Angeles, Los Angeles County, California, 90012, United States of America",34.0603027,-118.2392251
443,/title/tt0122151/,,"Stage 21, Warner Brothers Burbank Studios - 4000 Warner Boulevard, Burbank, California, USA",(studio),,,
444,/title/tt0122151/,,"Stage 28, Warner Brothers Burbank Studios - 4000 Warner Boulevard, Burbank, California, USA",(studio),,,
445,/title/tt0122151/,,"Carson, California, USA",(foreign trade zone compound shootout),"Carson, Los Angeles County, California, United States of America",33.8322043,-118.2517547
446,/title/tt7439064/,,"Kyiv, Ukraine",,"Київ, Україна",50.4500336,30.5241361
447,/title/tt3205376/,,New Zealand,,New Zealand / Aotearoa,-41.5000831,172.8344077
448,/title/tt4951982/,,Norway,,"Norge, Namsos, Trøndelag, Norge",64.5731537,11.52803643954819
449,/title/tt4951982/,,"Egmontstraat 5, Brussels, Belgium",,"FNRS-FRS, 5, Rue d'Egmont - Egmontstraat, Bruxelles / Brussel, Ixelles - Elsene, Région de Bruxelles-Capitale - Brussels Hoofdstedelijk Gewest, 1000, België - Belgique - Belgien",50.8391512,4.365301317616943
450,/title/tt4951982/,,"Palace, Markt, Deinze, Belgium",(Press conference room),,,
451,/title/tt4951982/,,"Brest, Finistère, France",,"Brest, Finistère, Bretagne, France métropolitaine, 29200, France",48.3905283,-4.4860088
452,/title/tt4951982/,,France,,France,46.603354,1.8883335
453,/title/tt0197182/,,"Bayonne, New Jersey, USA",,"Bayonne, Hudson County, New Jersey, 07002, United States of America",40.6687141,-74.1143091
454,/title/tt0197182/,,"Central Park, Manhattan, New York City, New York, USA",,"Central Park, Manhattan, New York County, New York, United States of America",40.7827725,-73.9653627406542
455,/title/tt0197182/,,"Coney Island, Brooklyn, New York City, New York, USA",,"Coney Island, Brooklyn, Kings County, New York, 11224, United States of America",40.57592745,-73.99219674341339
456,/title/tt0197182/,,"New York City, New York, USA",,"New York, United States of America",40.7127281,-74.0060152
457,/title/tt1186367/,,"Studio Babelsberg, Potsdam, Brandenburg, Germany",(studio),"Studio Babelsberg, 15, Babelsberg, Potsdam, Brandenburg, 14482, Deutschland",52.38260355,13.113726021425222
458,/title/tt0986263/,,"Boston, Massachusetts, USA",,"Boston, Suffolk County, Massachusetts, United States of America",42.3602534,-71.0582912
459,/title/tt0986263/,,"Taunton, Massachusetts, USA","(old Paul Dever school, as the Prophet's headquarters)","Taunton, Bristol County, Massachusetts, United States of America",41.8946107,-71.11113
460,/title/tt0986263/,,"Woburn, Massachusetts, USA",,"Woburn, Middlesex County, Massachusetts, United States of America",42.4792618,-71.1522766
461,/title/tt0986263/,,"Milford, Massachusetts, USA",,"Milford, Worcester County, Massachusetts, 01757, United States of America",42.1540735,-71.521871
462,/title/tt0986263/,,"Worcester, Massachusetts, USA",(former Worcester courthouse),"Worcester, Worcester County, Massachusetts, United States of America",42.2625932,-71.8022934
463,/title/tt7215646/,,"Spaladium Arena, Split, Croatia",(location),"Spaladium Arena, Put Lore, Lovret, Split, Grad Split, Splitsko-dalmatinska županija, 021, Hrvatska",43.524316150000004,16.43449599811544
464,/title/tt7215646/,,"Rijeka, Croatia",(location),"Grad Rijeka, Primorsko-goranska županija, Hrvatska",45.3271752,14.4412309
465,/title/tt0066636/,,"Los Angeles, California, USA",,"Los Angeles, Los Angeles County, California, United States of America",34.0536909,-118.2427666
466,/title/tt0103060/,,"Castle Hayne, North Carolina, USA",,"Castle Hayne, New Hanover County, North Carolina, United States of America",34.3548975,-77.90655083435975
467,/title/tt0103060/,,"Brooklyn, New York City, New York, USA",,"Brooklyn, Kings County, New York, United States of America",40.6501038,-73.9495823
468,/title/tt0103060/,,"Wilmington, North Carolina, USA",,"Wilmington, New Hanover County, North Carolina, United States of America",34.2257282,-77.9447107
469,/title/tt0103060/,,USA,,United States,39.7837304,-100.4458825
470,/title/tt0831887/,,"New Mexico, USA",,"New Mexico, United States of America",34.5708167,-105.993007
471,/title/tt0831887/,,USA,,United States,39.7837304,-100.4458825
472,/title/tt0432021/,,"Laguna Salada, Mexicali, Baja California Norte, Mexico",(desert),"Laguna Salada, Privada Gesell, Mexicali, Baja California, 21000, México",32.33225325,-115.65265494519332
473,/title/tt0432021/,,"Churubusco Studios, Mexico City, Distrito Federal, Mexico",(soundstages),,,
474,/title/tt0116225/,,"Schlitterbahn Waterpark New Braunfels - 400 N Liberty Avenue, New Braunfels, Texas, USA",(Snake Plissken and Pipeline surf down Wilshire Canyon),,,
475,/title/tt0116225/,,"Miami, Florida, USA",,"Miami, Miami-Dade County, Florida, United States of America",25.7742658,-80.1936589
476,/title/tt0116225/,,USA,,United States,39.7837304,-100.4458825
477,/title/tt0116225/,,"Universal Studios Hollywood - 1000 Universal Studios Blvd, Universal City, California, USA",(studio),,,
478,/title/tt0116225/,,"Downtown, Los Angeles, California, USA",,"Downtown, Los Angeles, Los Angeles County, California, United States of America",34.0428494,-118.2476732
479,/title/tt0116225/,,"Florida, USA",,"Florida, United States of America",27.7567667,-81.4639835
480,/title/tt0116225/,,"California, USA",,"California, United States of America",36.7014631,-118.7559974
481,/title/tt0114194/,,"Miami, Arizona, USA",,"Miami, Gila County, Arizona, 85539, United States of America",33.3994776,-110.87095
482,/title/tt0114194/,,"Superior High School, Superior, Arizona, USA",,"Superior High School, North High School Avenue, Superior, Pinal County, Arizona, 85173, United States of America",33.2950561,-111.0945637
483,/title/tt0114194/,,"Picketpost Mountain, Superior, Arizona, USA",,,,
484,/title/tt0114194/,,"Magma Hotel, Superior, Arizona, USA",,,,
485,/title/tt0114194/,,"St. Vincent Catholic Church - 621 W. Adams Blvd., Los Angeles, California, USA",,,,
486,/title/tt0091499/,,"Wilmington, North Carolina, USA",,"Wilmington, New Hanover County, North Carolina, United States of America",34.2257282,-77.9447107
487,/title/tt0091499/,,"Intersection of Lanvale Rd NE and Fletcher Rd NE, Leland, North Carolina, USA",(Location of RD's Truck Stop where Curt and Connie are attacked by the tow truck.),,,
488,/title/tt0498380/,,"Sandvík, Iceland",(black beaches),"Sandvík, Ísland",66.2197039,-15.5725315
489,/title/tt0498380/,,"Odessa Canyon, Yermo, California, USA",,,,
490,/title/tt0498380/,,Iceland,,Ísland,64.9841821,-18.1059013
491,/title/tt0498380/,,Japan,,日本,36.5748441,139.2394179
492,/title/tt0498380/,,USA,,United States,39.7837304,-100.4458825
493,/title/tt2515034/,,"Cape Town, South Africa",,"Cape Town, City of Cape Town, Western Cape, 8001, South Africa",-33.928992,18.417396
494,/title/tt2515034/,,"Wimbledon Studios, Wimbledon, London, England, UK",,"Wimbledon Studios, Windsor Avenue, Lombard Business Park, Merton, London Borough of Merton, London, Greater London, England, SW19 2RR, United Kingdom",51.410148050000004,-0.18650038060619495
495,/title/tt2515034/,,"Diagonal ZeroZero Telefonica Tower, Barcelona, Catalonia, Spain",(Exteriors & Interiors),,,
496,/title/tt2515034/,,Gibraltar,,"Gibraltar, GX11 1AA, Gibraltar",36.140807,-5.3541295
497,/title/tt0808096/,,"London, England, UK",,"London, Greater London, England, United Kingdom",51.5073219,-0.1276474
498,/title/tt0882977/,,"Shreveport, Louisiana, USA",,"Shreveport, Caddo Parish, Louisiana, United States of America",32.5221828,-93.7651944
499,/title/tt0346156/,,"Radio City Music Hall - 1260 6th Avenue, Rockefeller Center, Manhattan, New York City, New York, USA",(background shots),,,
500,/title/tt0346156/,,"Elstree Studios, Borehamwood, Hertfordshire, England, UK",(studio),"Elstree Studios, Shenley Road, Elstree and Borehamwood, Hertsmere, Hertfordshire, East of England, England, WD6 1JG, United Kingdom",51.657052050000004,-0.2675206399488197
501,/title/tt0346156/,,"England, UK",,"England, United Kingdom",52.7954791,-0.5402402866174321
502,/title/tt0346156/,,"Los Angeles, California, USA",,"Los Angeles, Los Angeles County, California, United States of America",34.0536909,-118.2427666
503,/title/tt0346156/,,USA,,United States,39.7837304,-100.4458825
504,/title/tt0346156/,,"New York City, New York, USA",,"New York, United States of America",40.7127281,-74.0060152
505,/title/tt0346156/,,UK,,United Kingdom,54.7023545,-3.2765753
506,/title/tt0083470/,,"Century Towers - 2220 & 2222 Avenue of the Stars, Century City, Los Angeles, California, USA",,,,
507,/title/tt0083470/,,"Sun Valley, Los Angeles, California, USA",,"Sun Valley, Los Angeles, Los Angeles County, California, 91352, United States of America",34.2175042,-118.3703576
508,/title/tt1502404/,,"Shreveport, Louisiana, USA",,"Shreveport, Caddo Parish, Louisiana, United States of America",32.5221828,-93.7651944
509,/title/tt1502404/,,"3975 Greenwood Rd Shreveport, Louisiana, USA",(location),"3975, Greenwood Road, Cynthia Park, Shreveport, Caddo Parish, Louisiana, 71109, United States of America",32.47111341426573,-93.8084398830768
510,/title/tt1502404/,,"Louisiana 3049 & Sentell Rd, Shreveport, Louisiana, USA",,,,
511,/title/tt1502404/,,"Louisiana, USA",,"Louisiana, United States of America",30.8703881,-92.007126
512,/title/tt4669264/,,"Tangier, Morocco",(city: Beirut) (environs: desert regions),"Tanger ⵟⴰⵏⵊⴰ طنجة, pachalik de Tanger طنجة, Préfecture de Tanger-Assilah عمالة طنجة-أصيلة, Tanger-Tétouan-Al Hoceima ⵟⴰⵏⵊ-ⵟⵉⵜⴰⵡⵉⵏ-ⵍⵃⵓⵙⵉⵎⴰ طنجة تطوان الحسيمة, 90013, Maroc",35.777103,-5.803792
513,/title/tt0109403/,,"Charleston, South Carolina, USA",,"Charleston, Charleston County, South Carolina, United States of America",32.7876012,-79.9402728
514,/title/tt0109403/,,"Mount Pleasant, South Carolina, USA",,"Mount Pleasant, Charleston County, South Carolina, United States of America",32.7940651,-79.8625851
515,/title/tt0109403/,,"South Carolina, USA",,"South Carolina, United States of America",33.6874388,-80.4363743
516,/title/tt0109403/,,"Wilmington, North Carolina, USA",(location),"Wilmington, New Hanover County, North Carolina, United States of America",34.2257282,-77.9447107
517,/title/tt1757678/,,"Los Angeles, California, USA",,"Los Angeles, Los Angeles County, California, United States of America",34.0536909,-118.2427666
518,/title/tt1038919/,,"60-15 Eliot Avenue, Middle Village, Queens, New York City, New York, USA",(exterior shot of tattoo shop),"Eliot Avenue, Middle Village, Queens County, New York, 11379, United States of America",40.7223555,-73.8849505
519,/title/tt1038919/,,"Nyack, New York, USA",,"Nyack, Town of Orangetown, Rockland County, New York, 10960, United States of America",41.091121,-73.9196794
520,/title/tt1038919/,,"Trump Taj Mahal Casino and Resort - 1000 Boardwalk at Virginia Avenue, Atlantic City, New Jersey, USA",,,,
521,/title/tt1038919/,,"Brooklyn, New York City, New York, USA",,"Brooklyn, Kings County, New York, United States of America",40.6501038,-73.9495823
522,/title/tt1038919/,,"Harlem, New York, USA",,"Harlem, Manhattan Community Board 10, Manhattan, New York County, New York, United States of America",40.8078786,-73.9454154
523,/title/tt1038919/,,"Manhattan Avenue, Greenpoint, Brooklyn, New York City, New York, USA",(4th of July parade),"Manhattan Avenue, Greenpoint, Brooklyn, Kings County, New York, 11222, United States of America",40.7227516,-73.9501974
524,/title/tt0055630/,,Japan,,日本,36.5748441,139.2394179
525,/title/tt0421054/,,"Santa Clarita, California, USA",,"Santa Clarita, Los Angeles County, California, United States of America",34.3916641,-118.542586
526,/title/tt0421054/,,"Alexandria Hotel - 501 S. Spring Street, Downtown, Los Angeles, California, USA",,"Alexandria Hotel, 501, South Spring Street, Gallery Row, Downtown, Los Angeles, Los Angeles County, California, 90013, United States of America",34.04739884999999,-118.25014663366291
527,/title/tt0421054/,,"Hollywood Center Studios - 1040 N. Las Palmas Avenue, Hollywood, Los Angeles, California, USA",(studio),"Hollywood Center Studios, Romaine Street, Hollywood, Los Angeles, Los Angeles County, California, 90038, United States of America",34.08981165,-118.33500930891499
528,/title/tt0421054/,,"Los Angeles Center Studios - 450 S. Bixel Street, Downtown, Los Angeles, California, USA",(studio),,,
529,/title/tt0421054/,,"Santa Monica DMV - 2235 Colorado Avenue, Santa Monica, California, USA",,,,
530,/title/tt1656186/,,"New Orleans, Louisiana, USA",,"New Orleans, Orleans Parish, Louisiana, United States of America",29.9499323,-90.0701156
531,/title/tt2393813/,,"Miami, Florida, USA",,"Miami, Miami-Dade County, Florida, United States of America",25.7742658,-80.1936589
532,/title/tt1748227/,,"Los Angeles, California, USA",(reshoots),"Los Angeles, Los Angeles County, California, United States of America",34.0536909,-118.2427666
533,/title/tt1074206/,,"Callanwolde Fine Arts Center - 980 Briarcliff Road NE, Atlanta, Georgia, USA",(Exteriors of Project Noah),"Callanwolde Fine Arts Center, 980, Briarcliff Road Northeast, Atlanta, DeKalb County, Georgia, 30345, United States of America",33.7817721,-84.3452031
534,/title/tt0475276/,,"Boston, Massachusetts, USA",,"Boston, Suffolk County, Massachusetts, United States of America",42.3602534,-71.0582912
535,/title/tt0475276/,,"Newark Liberty International Airport - 10 Toler Place, Newark, New Jersey, USA",,,,
536,/title/tt0475276/,,"Pinewood Studios, Iver Heath, Buckinghamshire, England, UK",,"Pinewood Studios, Pinewood Green, Iver, Iver Heath, Buckinghamshire, South East, England, SL0 0QJ, United Kingdom",51.54831515,-0.5346765566753087
537,/title/tt1788391/,,"England, UK",,"England, United Kingdom",52.7954791,-0.5402402866174321
538,/title/tt0365686/,,Isle of Man,,Isle of Man,54.2358167,-4.514598745698255
539,/title/tt0365686/,,"London, England, UK",,"London, Greater London, England, United Kingdom",51.5073219,-0.1276474
540,/title/tt0365686/,,UK,,United Kingdom,54.7023545,-3.2765753
541,/title/tt0206314/,,"Interstate 80, Nevada, USA",,"Craig Interstate Plaza 1, North Las Vegas, Clark County, Nevada, United States of America",36.2408327,-115.11904517796725
542,/title/tt0206314/,,"Hazen, Nevada, USA",,"Hazen, Churchill County, Nevada, United States of America",39.5651915,-119.0462731
543,/title/tt0206314/,,"Wells, Nevada, USA",,"Wells, Elko County, Nevada, 89835, United States of America",41.1107264,-114.963144
544,/title/tt0206314/,,"676 6th Street, Wells, Nevada, USA",(Lone Star Motel),"676, 6th Street, Wells, Elko County, Nevada, 89835, United States of America",41.10944115428153,-114.96222326437402
545,/title/tt0206314/,,"5625 W. Winnemucca Boulevard, Winnemucca, Nevada, USA",(State Line Truck Stop),"West Winnemucca Boulevard, Winnemucca, Humboldt County, Nevada, 89445, United States of America",40.9671167,-117.7425554
546,/title/tt0206314/,,"Lancaster, California, USA",,"Lancaster, Los Angeles County, California, United States of America",34.6981064,-118.1366153
547,/title/tt0206314/,,"Redlands, California, USA",,"Redlands, San Bernardino County, California, United States of America",34.055735,-117.1888961
548,/title/tt0206314/,,"Santa Clarita, California, USA",,"Santa Clarita, Los Angeles County, California, United States of America",34.3916641,-118.542586
549,/title/tt0206314/,,"Delle Exit Thoroughfare, Grantsville, Utah, USA",(Lewis and Fuller stop for gas),,,
550,/title/tt0206314/,,"Delle, Utah, USA",,"Delle, Tooele County, Utah, United States of America",40.7599375,-112.7774705
551,/title/tt0206314/,,"Playa del Rey, Los Angeles, California, USA",,"Playa del Rey, Los Angeles, Los Angeles County, California, United States of America",33.9550828,-118.4367496
552,/title/tt2638144/,,"Cinecittà Studios, Cinecittà, Rome, Lazio, Italy",,,,
553,/title/tt2638144/,,"Painted Canyons, Mecca Hills, California, USA",(2nd Unit Filming Location),,,
554,/title/tt0100263/,,"Rue Louis Codet, Paris 7, Paris, France",(exteriors: Nikita's second apartment),"Rue Louis Codet, Paris 7e Arrondissement, Paris, Île-de-France, France métropolitaine, 75007, France",48.8550123,2.3086593
555,/title/tt0100263/,,"Old Seita factory, Paris 12, Paris, France",(secret services training center),,,
556,/title/tt0100263/,,"Paris, France",,"Paris, Île-de-France, France métropolitaine, 75004, France",48.8566969,2.3514616
557,/title/tt0100263/,,Italy,,Italia,42.6384261,12.674297
558,/title/tt1598828/,,"Ambridge, Pennsylvania, USA",,"Ambridge, Beaver County, Pennsylvania, United States of America",40.5892339,-80.22506
559,/title/tt1598828/,,"Pittsburgh, Pennsylvania, USA",,"Pittsburgh, Allegheny County, Pennsylvania, United States of America",40.4416941,-79.9900861
560,/title/tt0064505/,,"Kilmainham Jail, Dublin, County Dublin, Ireland",,"Kilmainham Gaol, Inchicore Road, Kilmainham, Kilmainham B ED, Dublin 8, County Dublin, Leinster, D08P 89W, Ireland",53.34174585,-6.309578660652412
561,/title/tt0064505/,,"Coventry, West Midlands, England, UK",(The Minis drive through the sewer),"Coventry, Station Square, Cheylesmore, Coventry, West Midlands Combined Authority, England, CV1 2GT, United Kingdom",52.400739,-1.5135474
562,/title/tt0064505/,,"Dover Ferry Terminal, Eastern Docks, Dover, Kent, England, UK","(exteriors, The Gang Boarding the Ferry)",,,
563,/title/tt0064505/,,"Valle d'Aosta, Italy",,"Valle d'Aosta/Vallée d'Aoste, Italia",45.730099,7.387426
564,/title/tt0064505/,,"Thorn House, Bridge Road, Chertsey, Surrey, England, UK",,,,
565,/title/tt0064505/,,"Villa della Regina, Turin, Piedmont, Italy",,,,
566,/title/tt0064505/,,"Bray, County Wicklow, Ireland",,"Bray, County Wicklow, Leinster, A98 T9D9, Ireland",53.2014604,-6.1105049
567,/title/tt0064505/,,"Turin, Piedmont, Italy",,,,
568,/title/tt0064505/,,"Royal Lancaster Hotel, Westbourne Terrace, Bayswater, London, England, UK",,,,
569,/title/tt0064505/,,"Apex House, Hanworth, Middlesex, England, UK",(exteriors: Turin Traffic Control Centre),,,
570,/title/tt0064505/,,"Portobello Road, Notting Hill, London, England, UK",,"Portobello Road, Notting Hill, Royal Borough of Kensington and Chelsea, London, Greater London, England, W11 1LU, United Kingdom",51.5164653,-0.2054244
571,/title/tt6864046/,,"Beijing, China",,"北京市, 通州区, 北京市, China 中国",39.9020668,116.718583
572,/title/tt0094074/,,"Didcot Power Station, Didcot, Oxfordshire, England, UK",,,,
573,/title/tt0094074/,,"Milton Keynes, Buckinghamshire, England, UK",,"Milton Keynes, South East, England, MK9 3AF, United Kingdom",52.0429797,-0.7589607
574,/title/tt0094074/,,"Elstree Studios, Borehamwood, Hertfordshire, England, UK",,"Elstree Studios, Shenley Road, Elstree and Borehamwood, Hertsmere, Hertfordshire, East of England, England, WD6 1JG, United Kingdom",51.657052050000004,-0.2675206399488197
575,/title/tt1591479/,,"Silurian Dry Lake, Mojave Desert, California, USA",,,,
576,/title/tt1591479/,,"El Centro, California, USA",,"El Centro, Imperial County, California, United States of America",32.792,-115.5630514
577,/title/tt1591479/,,"Fort Campbell, Kentucky, USA",,"WABD-AM (Fort Campbell), State Line Road, Edgoten, Oak Grove, Christian County, Kentucky, 42262, United States of America",36.6411584,-87.4344543
578,/title/tt1591479/,,"Key West, Florida Keys, Florida, USA",,,,
579,/title/tt1591479/,,"Pier, Imperial Beach, California, USA",(Chief Dave & Lieutenant Rorke surf and family get-together on beach.),"Imperial Beach Pier Plaza, Imperial Beach, San Diego County, California, United States of America",32.57987665,-117.13219446893454
580,/title/tt1591479/,,Ukraine,,Україна,49.4871968,31.2718321
581,/title/tt1591479/,,USA,,United States,39.7837304,-100.4458825
582,/title/tt4034452/,,"Shilo, Manitoba, Canada",,"CFB Shilo, Manitoba, R0K 2A0, Canada",49.806008,-99.643247
583,/title/tt4034452/,,"CFB Shilo, Manitoba, Canada",(http: //www.winnipegfreepress.com/arts-and-life/entertainment/movies/Hyena-Road-328953321.html),"CFB Shilo, Manitoba, R0K 2A0, Canada",49.806008,-99.643247
584,/title/tt0327850/,,"Kaua'i, Hawaii, USA",(location),"Kauaʻi, Kauaʻi County, Hawaii, United States of America",22.050466550000003,-159.55876775017003
585,/title/tt0327850/,,Brazil,,Brasil,-10.3333333,-53.2
586,/title/tt1524137/,,"Panama City, Panama",,"Panamá, Distrito Panamá, 080807, Panama",8.9714493,-79.5341802
587,/title/tt1740828/,,"California, USA",,"California, United States of America",36.7014631,-118.7559974
588,/title/tt1740828/,,"Los Angeles Central Library - 630 W. Fifth Street, Downtown, Los Angeles, California, USA",,,,
589,/title/tt1740828/,,"Santa Clarita Studios - 25135 Anza Drive, Santa Clarita, California, USA",(studio),,,
590,/title/tt1308728/,,"Market Hotel - 966 South San Pedro Street, Los Angeles, California, USA",(Phil Phillips' office exterior),,,
591,/title/tt1308728/,,"Henri's Restaurant - 21601 Sherman Way, Canoga Park, California, USA",(restaurant where Phil and his brother eat),,,
592,/title/tt1308728/,,"Teragram Ballroom - 1234 West 7th Street, Los Angeles, California, USA",(Star Showgirls exterior),"Teragram Ballroom, 1234, West 7th Street, Westlake South, Westlake, Los Angeles, Los Angeles County, California, 90017, United States of America",34.0517911,-118.2668426
593,/title/tt1308728/,,"1001 South Hill Street, Los Angeles, California, USA",(where the ambulance makes a sharp turn to go to the airport),"1001, South Hill Street, South Park, Downtown, Los Angeles, Los Angeles County, California, 90015, United States of America",34.041547,-118.258638
594,/title/tt1308728/,,"Santa Clarita, California, USA",,"Santa Clarita, Los Angeles County, California, United States of America",34.3916641,-118.542586
595,/title/tt1308728/,,"Million Air - 2800 North Clybourn Avenue, Burbank, California, USA",(airport terminal),,,
596,/title/tt0418689/,,"Iwo Jima, Japan",,"硫黄島飛行場, 小笠原支庁, 小笠原村, 日本 (Japan)",24.785239400000002,141.32427248235138
597,/title/tt0418689/,,"Soldier Field - 1410 South Museum Campus Drive, Chicago, Illinois, USA",(Bond rally),,,
598,/title/tt0418689/,,"Krueger Funeral Home - 13050 S. Greenwood Avenue, Blue Island, Illinois, USA",,,,
599,/title/tt0418689/,,"Chicago, Illinois, USA",,"Chicago, Cook County, Illinois, United States of America",41.8755616,-87.6244212
600,/title/tt0418689/,,"S.S. Lane Victory, Pier 94, San Pedro, Los Angeles, California, USA",,,,
601,/title/tt0418689/,,"Washington, District of Columbia, USA",,"Washington, District of Columbia, 20230, United States of America",38.8949924,-77.0365581
602,/title/tt0418689/,,"Los Angeles City Hall - 200 North Spring Street, Downtown, Los Angeles, California, USA",(building in Baltimore),"Los Angeles City Hall, 200, North Spring Street, Civic Center, Downtown, Los Angeles, Los Angeles County, California, 90012, United States of America",34.0537767,-118.2428987
603,/title/tt0418689/,,"Glencoe Metra Station - Park & Greenbay, Glencoe, Illinois, USA",(Rene Gagnon steps off the train),,,
604,/title/tt0418689/,,"400 Richmond Road, Kenilworth, Illinois, USA",(Greyhound Bus Station),"Kenilworth, 400, Richmond Road, Kenilworth, New Trier Township, Cook County, Illinois, 60043, United States of America",42.0870984,-87.7175783
605,/title/tt0418689/,,"1611 Milan Avenue, South Pasadena, California, USA",(Bradley Residence),"1611, Milan Avenue, Raymond Hill, South Pasadena, Los Angeles County, California, 91030, United States of America",34.10758698503549,-118.14436506481468
606,/title/tt0418689/,,"1842 Oxley Street, South Pasadena, California, USA",(Gagnon Residence),"1842, Oxley Street, South Pasadena, Los Angeles County, California, 91030, United States of America",34.11408468965517,-118.14474520689654
607,/title/tt0990407/,,"350 N Carolwood Dr., Los Angeles, California, USA",(Reid Mansion),"350, North Carolwood Drive, Los Angeles, Los Angeles County, California, 90077, United States of America",34.0850821036557,-118.42800568696937
608,/title/tt0990407/,,"Sony Pictures Studios - 10202 W. Washington Blvd., Culver City, California, USA",(studio),,,
609,/title/tt0990407/,,"Lennox, California, USA",,"Lennox, Los Angeles County, California, United States of America",33.9391385,-118.3516697
610,/title/tt0990407/,,"Culver City, California, USA",,"Culver City, Los Angeles County, California, United States of America",34.0211224,-118.3964665
611,/title/tt0990407/,,USA,,United States,39.7837304,-100.4458825
612,/title/tt0990407/,,"851 New Depot St, Los Angeles, California, USA",,"851, New Depot Street, New Chinatown, Chinatown, Los Angeles, Los Angeles County, California, 90012, United States of America",34.06478734251555,-118.2443477290079
613,/title/tt0990407/,,"Chinatown, Los Angeles, California, USA",,"Chinatown, Los Angeles, Los Angeles County, California, 90012, United States of America",34.0638402,-118.2358676
614,/title/tt0990407/,,"Craven Estate - 430 Madeline Avenue, Pasadena, California, USA",,,,
615,/title/tt0990407/,,"Holmby Hills, Los Angeles, California, USA",,,,
616,/title/tt0120179/,,"Key West, Florida Keys, Florida, USA",,,,
617,/title/tt0120179/,,"Valencia, California, USA",,"Valencia, Santa Clarita, Los Angeles County, California, 91355, United States of America",34.413819,-118.5610378
618,/title/tt0120179/,,Bahamas,,The Bahamas,24.7736546,-78.0000547
619,/title/tt1552224/,,"Yunnan, China",,"云南省, China 中国",25.0,102.0
620,/title/tt10172268/,,"Warner Bros. Studios, Leavesden, Hertfordshire, England, UK",,"Warner Bros Studios Leavesden, Essex Lane, Warner Bros. Studios Leavesden, Abbots Langley, Three Rivers, Hertfordshire, East of England, England, WD25 7LP, United Kingdom",51.6934642,-0.4205376395864987
621,/title/tt10172268/,,"Hex River Mountains, Cape Town, Western Cape, South Africa",,,,
622,/title/tt10172268/,,"Matroosberg, Western Cape, South Africa",,"Matroosberg, Witzenberg Local Municipality, Cape Winelands District Municipality, Western Cape, South Africa",-33.3818473,19.6686771
623,/title/tt0100029/,,"Argyle Hotel - 8358 Sunset Blvd., West Hollywood, California, USA",,,,
624,/title/tt0100029/,,"New York City, New York, USA",,"New York, United States of America",40.7127281,-74.0060152
625,/title/tt0096933/,,"Silverado Country Club - 1600 Atlas Peak Road, Napa, Napa Valley, California, USA",(Motorcycle Chase),,,
626,/title/tt0096933/,,"Napa Valley, California, USA",(Motorcycle Chase),"Napa, Napa County, California, 94559, United States of America",38.2971367,-122.2855293
627,/title/tt0096933/,,"1000 N. Crescent Drive, Hollywood, Los Angeles, California, USA",(Nick's House),"Crescent Drive, Hollywood Hills West, Los Angeles, Los Angeles County, California, 90046-1128, United States of America",34.1114799,-118.3819421
628,/title/tt0096933/,,"Brooklyn Bridge, New York City, New York, USA",,"Brooklyn Bridge, Dover Street, Financial District, Manhattan Community Board 1, Manhattan, New York County, New York, 10038, United States of America",40.70569125,-73.9963578678543
629,/title/tt0096933/,,"Ennis House - 2607 Glendower Avenue, Los Feliz, Los Angeles, California, USA",(Mob Boss' House),"Ennis House, Glendower Avenue, Los Feliz, Los Angeles, Los Angeles County, California, 90027, United States of America",34.1162064,-118.2928586
630,/title/tt0096933/,,"Los Feliz, Los Angeles, California, USA",,"Los Feliz, Los Angeles, Los Angeles County, California, United States of America",34.1076561,-118.2875062
631,/title/tt0096933/,,"Manhattan, New York City, New York, USA",,"Manhattan, New York County, New York, United States of America",40.7896239,-73.9598939
632,/title/tt0096933/,,"Silvercup Studios - 4222 22nd Street, Long Island City, Queens, New York City, New York, USA",(studio),"Silvercup Studios Main Lot, 42-22, 22nd Street, Queens, Queens County, New York, 11101, United States of America",40.7513513,-73.94424267969767
633,/title/tt0096933/,,"Los Angeles, California, USA",,"Los Angeles, Los Angeles County, California, United States of America",34.0536909,-118.2427666
634,/title/tt0340163/,,"Topanga, California, USA",,"Topanga, Los Angeles County, California, 90290, United States of America",34.0897,-118.6029649
635,/title/tt0340163/,,"Malibu, California, USA",,"Malibu, Los Angeles County, California, 90265-4797, United States of America",34.035591,-118.689423
636,/title/tt0340163/,,"Los Angeles, California, USA",,"Los Angeles, Los Angeles County, California, United States of America",34.0536909,-118.2427666
637,/title/tt1893256/,,"London, England, UK",,"London, Greater London, England, United Kingdom",51.5073219,-0.1276474
638,/title/tt1893256/,,"59 Rupert St Soho, London, England, UK",(When joey confronts and fights with rivals putting prostitution cards in a phone box),"Rupert Supermarket, 59, Rupert Street, Soho, City of Westminster, London, Greater London, England, W1, United Kingdom",51.5121205,-0.1336542
639,/title/tt1893256/,,"Dartford Crossing - QEII Bridge, Dartford, Kent, England, UK",(Joey drives a van across the bridge and a lorry approaches the toll.),,,
640,/title/tt1893256/,,"Covent Garden Market, London, England, UK",(Where Cristina finds Joey after the ballet),"Covent Garden Market, Southampton Street, St Clement Danes, Covent Garden, City of Westminster, London, Greater London, England, WC2E 7QH, United Kingdom",51.51198545,-0.1227134931581556
641,/title/tt1893256/,,"Regent's Park, London, England, UK",(external),"The Regent's Park, Marylebone, City of Westminster, London, Greater London, England, NW1 4NR, United Kingdom",51.530202450000004,-0.1539332484783809
642,/title/tt1893256/,,"Royal Opera House, London, England, UK",(location),"Royal Opera House, Bow Street, St Clement Danes, Covent Garden, City of Westminster, London, Greater London, England, WC2E 9DD, United Kingdom",51.512873600000006,-0.12254367918576929
643,/title/tt5592230/,,"Manhattan, New York City, New York, USA",(On Location),"Manhattan, New York County, New York, United States of America",40.7896239,-73.9598939
644,/title/tt0057197/,,"Paestum, Capaccio, Salerno, Campania, Italy",(Harpy Temple),"Paestum, Capaccio Paestum, Salerno, Campania, 84047, Italia",40.4238379,15.0069514
645,/title/tt0057197/,,"Capaccio, Salerno, Campania, Italy",,"Capaccio Paestum, Salerno, Campania, 84047, Italia",40.44386235,15.040038348299316
646,/title/tt0057197/,,"S.A.F.A. Studios, Rome, Lazio, Italy",(studio),,,
647,/title/tt0057197/,,"Campania, Italy",,"Campania, Italia",40.860672,14.843984
648,/title/tt0057197/,,"Faracchio, Salerno, Campania, Italy",(Skeleton Fight),,,
649,/title/tt1179034/,,"Studio Sets, Stains, Seine-Saint-Denis, France",(studio),,,
650,/title/tt1179034/,,"Voie Georges Pompidou, Paris 4, Paris, France",(seen while the opening credits roll),"Voie Georges Pompidou, Quartier Les Îles, Paris, Île-de-France, France métropolitaine, 75004, France",48.854117,2.354821
651,/title/tt1179034/,,"Cours Albert 1er, Paris 8, Paris, France",(seen while the opening credits roll),"Cours Albert 1er, Quartier des Champs-Élysées, Paris, Île-de-France, France métropolitaine, 75008, France",48.8648647,2.3079262
652,/title/tt1179034/,,"Observatoire de Paris, 77 avenue Denfert-Rochereau, Paris 14, Paris, France",(secnes featuring the ambassador and th US delegation),,,
653,/title/tt1179034/,,"Rue Baudricourt, Paris 13, Paris, France",(chase of the Chinese waiter),"Rue Baudricourt, Paris 13e Arrondissement, Paris, Île-de-France, France métropolitaine, 75013, France",48.8285028,2.364984
654,/title/tt1179034/,,"Eiffel Tower, Paris, France",(scenes at the Eiffel Tower restaurant and on the Tower),"Tour Eiffel, 5, Avenue Anatole France, Quartier du Gros-Caillou, Paris, Île-de-France, France métropolitaine, 75007, France",48.858260200000004,2.2944990543196795
655,/title/tt1179034/,,"Passage Lemoine, 230 rue saint-Denis, Paris 2, Paris, France",(Charlie and James look for the Pakistanis),,,
656,/title/tt1179034/,,"La Coudraie, Poissy, Yvelines, France",(scene with the terrorists),"La Coudraie, Poissy, Saint-Germain-en-Laye, Yvelines, Île-de-France, France métropolitaine, 78300, France",48.9198628,2.0136787
657,/title/tt1179034/,,"Paris Charles de Gaulle Airport, Roissy-en-France, Val-d'Oise, France",(arrival of the American delegation) (final scene),,,
658,/title/tt1179034/,,"Autoroute A41, au nord d'Annecy, Annecy, Haute-Savoie, France",(car chases on the highway) (explosion of the terrorist's car),,,
659,/title/tt5622412/,,"Mobile, Alabama, USA",,"Mobile, Mobile County, Alabama, United States of America",30.6943566,-88.0430541
660,/title/tt5622412/,,USA,,United States,39.7837304,-100.4458825
661,/title/tt0114608/,,"Vancouver, British Columbia, Canada",,"Vancouver, Metro Vancouver Regional District, British Columbia, Canada",49.2608724,-123.1139529
662,/title/tt0114608/,,"Westwood Village Theater, 961 Broxton Ave, Los Angeles, California, USA",(Cryptkeeper attends the movie premiere here in the epilogue),,,
663,/title/tt0114608/,,"Aircraft Hanger, Van Nuys Airport - 6590 Hayvenhurst Avenue, Van Nuys, Los Angeles, California, USA",(Interiors and exterors of the hotel),,,
664,/title/tt1645155/,,"Bourse, Brussels, Brussels-Capital, Belgium",,"Bourse - Beurs, Rue de la Bourse - Beursstraat, Quartier du Centre - Centrumwijk, Bruxelles / Brussel, Ville de Bruxelles - Stad Brussel, Région de Bruxelles-Capitale - Brussels Hoofdstedelijk Gewest, 1000, België - Belgique - Belgien",50.84794215,4.350434187720638
665,/title/tt1645155/,,"Montréal, Québec, Canada",,"Montréal, Agglomération de Montréal, Montréal (06), Québec, Canada",45.4972159,-73.6103642
