,Code,Show Name,Location,Scene,geocodedLocation,latitude,longitude
0,/title/tt0055277/,The Parent Trap,"Bluff Lake, Big Bear Valley, San Bernardino National Forest, California, USA",,,,
1,/title/tt0055277/,The Parent Trap,"Pebble Beach, California, USA",(Golf course scenes)                        ,"Pebble Beach, Monterey County, California, 93953, United States of America",36.5672414,-121.9442134
2,/title/tt0055277/,The Parent Trap,"Santa Clarita, California, USA",,"Santa Clarita, Los Angeles County, California, United States of America",34.3916641,-118.542586
3,/title/tt0055277/,The Parent Trap,"Lake Arrowhead, San Bernardino National Forest, California, USA",,,,
4,/title/tt0055277/,The Parent Trap,"Monterey, California, USA",,"Monterey County, California, United States of America",36.2231079,-121.3877428
5,/title/tt0055277/,The Parent Trap,"Monterey Peninsula Airport - 200 Fred Kane Drive, Monterey, California, USA",,,,
6,/title/tt0207275/,The 10th Kingdom,"Falls, Krimml, Salzburg, Austria",,,,
7,/title/tt0207275/,The 10th Kingdom,"Black Park Country Park, Wexham, Buckinghamshire, England, UK",,,,
8,/title/tt0207275/,The 10th Kingdom,"Frensham Little Pond, Farnham, Surrey, England, UK",(Entry to the Third Kingdom across pond by boat)                        ,,,
9,/title/tt0207275/,The 10th Kingdom,"Kaysersberg, Haut-Rhin, France",(Kissing Town sequences)                        ,"Kaysersberg, Kaysersberg-Vignoble, Colmar-Ribeauvillé, Haut-Rhin, Grand Est, France métropolitaine, 68240, France",48.157187300000004,7.241094008940136
10,/title/tt0207275/,The 10th Kingdom,"Pinewood Studios, Iver Heath, Buckinghamshire, England, UK",(studio)                        ,"Pinewood Studios, Pinewood Green, Iver, Iver Heath, Buckinghamshire, South East, England, SL0 0QJ, United Kingdom",51.54831515,-0.5346765566753087
11,/title/tt0207275/,The 10th Kingdom,"Schloss Werfen, Salzburg, Austria",,"Festung Hohenwerfen, Eishöhlenstraße, Werfen, Bezirk St. Johann im Pongau, Salzburg, 5450, Österreich",47.48269645,13.188591774168714
12,/title/tt0207275/,The 10th Kingdom,"Turckheim, Haut-Rhin, France",(Kissing Town sequences)                        ,"Turckheim, Colmar-Ribeauvillé, Haut-Rhin, Grand Est, France métropolitaine, 68230, France",48.0878217,7.278011
13,/title/tt0207275/,The 10th Kingdom,"Weald & Downland Open Air Museum, Singleton, Chichester, West Sussex, England, UK",(All Little Lamb Village Sequences)                        ,"Weald & Downland Open Air Museum, A286, Singleton, Chichester, West Sussex, South East, England, PO18 0EU, United Kingdom",50.90719945,-0.7593845176796019
14,/title/tt0207275/,The 10th Kingdom,"New York City, New York, USA",,"New York, United States of America",40.7127281,-74.0060152
15,/title/tt1986770/,Anger Management,"Los Angeles, California, USA",,"Los Angeles, Los Angeles County, California, United States of America",34.0536909,-118.2427666
16,/title/tt0062595/,One Life to Live,"Old Tucson - 201 S. Kinney Road, Tucson, Arizona, USA",(1988 episode)                        ,"Old Tucson, 201, Kinney Road, Tucson Estates, Pima County, Arizona, 85735, United States of America",32.2186224,-111.1300273
17,/title/tt0062595/,One Life to Live,"Kingston, Jamaica",,"Kingston, Surrey County, KINGSTON 14, Jamaika",17.9712148,-76.7928128
18,/title/tt0062595/,One Life to Live,"Buenos Aires, Federal District, Argentina",,,,
19,/title/tt0062595/,One Life to Live,"Iguazú Waterfalls, Misiones, Argentina",,,,
20,/title/tt0062595/,One Life to Live,"New Vernon, New Jersey, USA","(St. James Church, exteriors)                        ","New Vernon, Harding Township, Morris County, New Jersey, 07976, United States of America",40.7453784,-74.4973774
21,/title/tt0062595/,One Life to Live,"Ocho Rios, St. Ann, Jamaica",,"Ocho Rios, Saint Ann, Middlesex County, JM19, Jamaika",18.4081045,-77.1011092
22,/title/tt0062595/,One Life to Live,"Salzburg, Salzburg, Austria",,"Salzburg, 5020, Österreich",47.7981346,13.0464806
23,/title/tt0062595/,One Life to Live,"Southampton, New York, USA",,"Southampton, Suffolk County, New York, United States of America",40.884267,-72.3895296
24,/title/tt7413448/,Pretty Little Liars: The Perfectionists,"Portland, Oregon, USA",(Pilot)                        ,"Portland, Multnomah County, Oregon, United States of America",45.5202471,-122.6741949
25,/title/tt7413448/,Pretty Little Liars: The Perfectionists,"Forest Grove, Oregon, USA",,"Forest Grove, Washington County, Oregon, United States of America",45.5197452,-123.1114405
26,/title/tt0112883/,Don Juan DeMarco,"New York, USA",,"New York, United States of America",40.7127281,-74.0060152
27,/title/tt0112883/,Don Juan DeMarco,"Santa Clarita, California, USA",,"Santa Clarita, Los Angeles County, California, United States of America",34.3916641,-118.542586
28,/title/tt0112883/,Don Juan DeMarco,"S.S. Lane Victory, Pier 94, San Pedro, Los Angeles, California, USA",,,,
29,/title/tt0037096/,Mrs. Parkington,"Metro-Goldwyn-Mayer Studios - 10202 W. Washington Blvd., Culver City, California, USA",(studio)                        ,,,
30,/title/tt0047437/,Sabrina,"George Lewis Mansion - Benedict Canyon Drive, Bel Air, Los Angeles, California, USA",(Larrabee estate) (demolished in the 1960's)                        ,,,
31,/title/tt0047437/,Sabrina,"30 Broad Street, Manhattan, New York City, New York, USA",(exteriors: Larrabee companies headquarters)                        ,"Continental Bank Building, 30, Broad Street, Financial District, Manhattan Community Board 1, Manhattan, New York County, New York, 10004, United States of America",40.706275250000004,-74.01165136248397
32,/title/tt0047437/,Sabrina,"Paramount Studios - 5555 Melrose Avenue, Hollywood, Los Angeles, California, USA",(studio)                        ,,,
33,/title/tt0352248/,Cinderella Man,"Distillery District, Toronto, Ontario, Canada",(exterior scenes)                        ,"Distillery District, Old Toronto, Toronto, Peel, Golden Horseshoe, Ontario, M5A 3C4, Canada",43.6502947,-79.3595401
34,/title/tt0352248/,Cinderella Man,"Maple Leaf Gardens, Toronto, Ontario, Canada",(boxing scenes)                        ,"Maple Leaf Gardens, Carlton Street, Toronto Centre, Old Toronto, Toronto, Peel, Golden Horseshoe, Ontario, M5B 2H9, Canada",43.66220065,-79.38030165941599
35,/title/tt0352248/,Cinderella Man,"Hudson's Bay Department Store, Richmond Street, Toronto, Ontario, Canada",(Madison Square Garden exterior)                        ,,,
36,/title/tt0352248/,Cinderella Man,"Toronto, Ontario, Canada",,"Toronto, Peel, Golden Horseshoe, Ontario, Canada",43.6534817,-79.3839347
37,/title/tt0842926/,The Kids Are All Right,"Los Angeles, California, USA",,"Los Angeles, Los Angeles County, California, United States of America",34.0536909,-118.2427666
38,/title/tt3395184/,Spring,"Bari, Apulia, Italy",,"Bari, Puglia, Italia",41.1257843,16.8620293
39,/title/tt3395184/,Spring,"Conversano, Italy",,"Conversano, Bari, Puglia, 70014, Italia",40.9683956,17.1137706
40,/title/tt3395184/,Spring,"Rome, Italy",,"Roma, Roma Capitale, Italia",41.8933203,12.4829321
41,/title/tt0104779/,Bitter Moon,"Paris Studios Cinéma, Billancourt, Hauts-de-Seine, France",(studio)                        ,,,
42,/title/tt0111495/,Trois couleurs: Rouge,"Rue des Sources, Geneva, Canton de Genève, Switzerland",(Valentine's and Auguste's apartments)                        ,"Rue des Sources, Plainpalais, Genève, 1205, Switzerland",46.1960224,6.1464764
43,/title/tt0111495/,Trois couleurs: Rouge,"Geneva, Canton de Genève, Switzerland",,"Genève, Switzerland",46.2017559,6.1466014
44,/title/tt0111495/,Trois couleurs: Rouge,"Carouge, Canton de Genève, Switzerland",,"Carouge, Genève, 1227, Switzerland",46.1846691,6.1396839
45,/title/tt0111495/,Trois couleurs: Rouge,Switzerland,,Schweiz/Suisse/Svizzera/Svizra,46.7985624,8.2319736
46,/title/tt0483726/,Man of the Year,"Dundas, Ontario, Canada",,"Dundas, Hopkins Survey, Hamilton, Golden Horseshoe, Ontario, L9H 1T5, Canada",43.2661904,-79.9546341
47,/title/tt0483726/,Man of the Year,"Toronto, Ontario, Canada",,"Toronto, Peel, Golden Horseshoe, Ontario, Canada",43.6534817,-79.3839347
48,/title/tt0483726/,Man of the Year,"New York City, New York, USA",,"New York, United States of America",40.7127281,-74.0060152
49,/title/tt0483726/,Man of the Year,"Silver Spring, Maryland, USA",,"Silver Spring, Montgomery County, Maryland, United States of America",38.9959461,-77.0276231
50,/title/tt0483726/,Man of the Year,"Uxbridge, Ontario, Canada",,"Uxbridge, Durham Region, Golden Horseshoe, Ontario, Canada",44.1088502,-79.1226768
51,/title/tt5723282/,Endless,"Kelowna, British Columbia, Canada",,"Kelowna, Regional District of Central Okanagan, British Columbia, Canada",49.889326,-119.498291
52,/title/tt0054387/,De bruiden der Morlock monsters,"Culver City, California, USA",,"Culver City, Los Angeles County, California, United States of America",34.0211224,-118.3964665
53,/title/tt0104040/,The Cutting Edge,"Hamilton, Ontario, Canada",,"Hamilton, Golden Horseshoe, Ontario, L8P 0B3, Canada",43.2560802,-79.8728583
54,/title/tt0104040/,The Cutting Edge,"Markham, Ontario, Canada",,"Markham, York Region, Golden Horseshoe, Ontario, Canada",43.8563707,-79.3376825
55,/title/tt0104040/,The Cutting Edge,"Mayfield Senior School - 500 Bellefontaine Street, Pasadena, California, USA",(interior of chateau in France)                        ,"Mayfield Senior School, Bellefontaine Place, Pasadena, Los Angeles County, California, 91184, United States of America",34.1302858,-118.1614605
56,/title/tt4858674/,Stargirl,"New Mexico, USA",,"New Mexico, United States of America",34.5708167,-105.993007
57,/title/tt4858674/,Stargirl,USA,,United States,39.7837304,-100.4458825
58,/title/tt0356680/,The Family Stone,"Drew University - 36 Madison Avenue, Madison, New Jersey, USA",,"Drew University, West Street, Fairwoods, Madison, Morris County, New Jersey, 07940, United States of America",40.76066025,-74.42803490202135
59,/title/tt0356680/,The Family Stone,"Greenwich, Connecticut, USA",,"Greenwich, Fairfield County, Connecticut, United States of America",41.0264862,-73.6284598
60,/title/tt0356680/,The Family Stone,"New Jersey, USA",,"New Jersey, United States of America",40.0757384,-74.4041622
61,/title/tt0356680/,The Family Stone,"Culver Studios - 9336 W. Washington Blvd., Culver City, California, USA",,,,
62,/title/tt0356680/,The Family Stone,"New York, USA",,"New York, United States of America",40.7127281,-74.0060152
63,/title/tt0081696/,Urban Cowboy,"Toppers Steakhouse, 2408 Spencer Highway, Pasadena, Texas, USA","(Restaurant scenes, restaurant sat between 2408 & 2510.)                        ",,,
64,/title/tt0081696/,Urban Cowboy,"225 Red Bluff Rd, Pasadena, Texas, USA","(where Sissy is working with a tow truck, towing a car)                        ","225, Red Bluff Road, Pasadena, Harris County, Texas, 77506, United States of America",29.718592938125095,-95.20917619749208
65,/title/tt0081696/,Urban Cowboy,"Huntsville, Texas, USA",(Prison rodeo)                        ,"Huntsville, Walker County, Texas, United States of America",30.7235263,-95.5507771
66,/title/tt0081696/,Urban Cowboy,"1885 St. James Place, Houston, Texas, USA","(The Uptown 3 Level Nightclub where Pam takes Bud, Bob, and Corene.)                        ","1885, Saint James Place, Lamar Terrace, Houston, Harris County, Texas, 77056, United States of America",29.746701146748652,-95.47298575074792
67,/title/tt0081696/,Urban Cowboy,"Houston, Texas, USA",,"Houston, Harris County, Texas, United States of America",29.7589382,-95.3676974
68,/title/tt8750570/,Sergio,Jordan,,الأردن,31.1667049,36.941628
69,/title/tt8750570/,Sergio,"Rio de Janeiro, Rio de Janeiro, Brazil",,"Rio de Janeiro, Região Geográfica Imediata do Rio de Janeiro, Região Metropolitana do Rio de Janeiro, Região Geográfica Intermediária do Rio de Janeiro, Rio de Janeiro, Região Sudeste, Brasil",-22.9110137,-43.2093727
70,/title/tt1279935/,Date Night,"608 Vallombrosa Dr, Pasadena, California, USA",,,,
71,/title/tt1279935/,Date Night,"Wilshire Blvd & S Grand Ave, Los Angeles, California, USA",,,,
72,/title/tt1279935/,Date Night,"New York City, New York, USA",,"New York, United States of America",40.7127281,-74.0060152
73,/title/tt1279935/,Date Night,"Times Square, Manhattan, New York City, New York, USA",,"Times Square, West 45th Street, Times Square, Manhattan Community Board 5, Times Square, New York County, New York, 10036, United States of America",40.757280550000004,-73.98585503545917
74,/title/tt9164986/,The Baker and the Beauty,Puerto Rico,,"Puerto Rico, Orocovis, Puerto Rico, United States of America",18.2214149,-66.41328179513847
75,/title/tt0472160/,Penelope,"56 Holland Park, Holland Park, London, England, UK",(Edward Vanderman's house exterior)                        ,"Holland Park, Holland Park Avenue, Notting Hill, Royal Borough of Kensington and Chelsea, London, Greater London, England, W11 4UA, United Kingdom",51.5071908,-0.2055243
76,/title/tt0472160/,Penelope,"Land Registry, 32 Lincoln's Inn Fields, Holborn, London, England, UK",(City Hospital)                        ,,,
77,/title/tt0472160/,Penelope,"Hall Barn, Beaconsfield, Buckinghamshire, England, UK",,"Hall Barn, M40, Beaconsfield, Buckinghamshire, South East, England, HP9 2BF, United Kingdom",51.59397725,-0.6393289127827194
78,/title/tt0472160/,Penelope,"Primrose Hill, London, England, UK",,"Primrose Hill, Belsize Park, London Borough of Camden, London, Greater London, England, NW8 7LS, United Kingdom",51.5390165,-0.16193786284392453
79,/title/tt0472160/,Penelope,"Blackfriars Bridge, London, UK",(Penelope lowers envelope of photos to Lemon)                        ,"Blackfriars Bridge, Blackfriars Road, Bankside, Southwark, London Borough of Southwark, London, Greater London, England, SE1 9UD, United Kingdom",51.5097451,-0.10440562555424326
80,/title/tt0472160/,Penelope,"Langham St at Middleton Pl, Fitzrovia, London, England, UK","(Penelope's parents search for her, match a photo)                        ",,,
81,/title/tt0472160/,Penelope,"The Crown and Sceptre - 86 Great Titchfield Street, Fitzrovia, London, England, UK",(Cloverdilly pub)                        ,"Crown & Sceptre, 86, Great Titchfield Street, Cavendish Square & Oxford Market (South), Fitzrovia, City of Westminster, London, Greater London, England, W1W 6SD, United Kingdom",51.51930125,-0.1407217723047301
82,/title/tt0472160/,Penelope,"George Farmiloe Building - 28-36 St John Street, Clerkenwell, London, England, UK",,,,
83,/title/tt2756032/,The One I Love,"Ojai, California, USA",,"Ojai, Ventura County, California, 93023, United States of America",34.4480495,-119.242889
84,/title/tt2756032/,The One I Love,USA,,United States,39.7837304,-100.4458825
85,/title/tt0095270/,Hairspray,"Allentown, Pennsylvania, USA",,"Allentown, Lehigh County, Pennsylvania, United States of America",40.6022059,-75.4712794
86,/title/tt0095270/,Hairspray,"Baltimore, Maryland, USA",,"Baltimore, Maryland, United States of America",39.2908816,-76.610759
87,/title/tt0095270/,Hairspray,"Wild Water Kingdom - 3830 Dorney Park Road, Allentown, Pennsylvania, USA",,,,
88,/title/tt0366548/,Happy Feet,"Fox Studios, Moore Park, Sydney, New South Wales, Australia",,"Fox Studios Australia, Moore Park, Sydney, Council of the City of Sydney, New South Wales, 2021, Australia",-33.890960899999996,151.22750517838074
89,/title/tt0091954/,Sid and Nancy,"Oakland Court, Holland Park, London, England, UK",(John & Sid vandalise a Rolls Royce)                        ,,,
90,/title/tt0091954/,Sid and Nancy,"Spice of Life pub, Moor Street, Soho, London, England, UK",(Sid and Wally walking throguh Soho scene)                        ,"The Spice of Life, 6, Moor Street, Soho, City of Westminster, London, Greater London, England, W1D 5NA, United Kingdom",51.51339145,-0.1297714991445717
91,/title/tt0091954/,Sid and Nancy,"Berwick Street, Soho, London, England, UK",(Sid and Wally walking through Soho scene)                        ,"Berwick Street, Soho, City of Westminster, London, Greater London, England, W1, United Kingdom",51.5150882,-0.1361559
92,/title/tt0091954/,Sid and Nancy,"Ingestre Place, Soho, London, England, UK",(Sid and Wally meet Nancy)                        ,"Ingestre Place, Soho, City of Westminster, London, Greater London, England, W1F 0HS, United Kingdom",51.5128962,-0.1348445
93,/title/tt0091954/,Sid and Nancy,"Tower Bridge, London, England, UK",(Boat concert scene)                        ,"Tower Bridge, Wapping, London Borough of Tower Hamlets, London, Greater London, England, SE1 2LY, United Kingdom",51.5054985,-0.0753581
94,/title/tt0091954/,Sid and Nancy,"Bleecker Street, Manhattan, New York City, New York, USA",,"Bleecker Street, NoHo, Manhattan Community Board 2, NoHo Historic District, New York County, New York, 10012, United States of America",40.7259471,-73.9946797
95,/title/tt0091954/,Sid and Nancy,"Chelsea, Manhattan, New York City, New York, USA",,"Chelsea, Manhattan Community Board 4, Manhattan, New York County, New York, United States of America",40.7464906,-74.0015283
96,/title/tt0091954/,Sid and Nancy,"Jersey City, New Jersey, USA",,"Jersey City, Hudson County, New Jersey, United States of America",40.7281575,-74.0776417
97,/title/tt0091954/,Sid and Nancy,"Los Angeles, California, USA",,"Los Angeles, Los Angeles County, California, United States of America",34.0536909,-118.2427666
98,/title/tt0091954/,Sid and Nancy,"New York City, New York, USA","(Chelsea Hotel, exteriors)                        ","New York, United States of America",40.7127281,-74.0060152
99,/title/tt0091954/,Sid and Nancy,"San Francisco, California, USA",,"San Francisco, San Francisco City and County, California, United States of America",37.7790262,-122.4199061
100,/title/tt0091954/,Sid and Nancy,"Houses of Parliament, Westminster, London, England, UK",(Boat concert scene)                        ,"Palace of Westminster, The Terrace, Westminster, Millbank, City of Westminster, London, Greater London, England, SW1A 0AA, United Kingdom",51.499425200000005,-0.12444777279476393
101,/title/tt0091954/,Sid and Nancy,"Westminster Pier, Westminster, London, England, UK",(Sid and Nancy disembark off the boat)                        ,"Westminster Pier, Victoria Embankment, Westminster, Covent Garden, City of Westminster, London, Greater London, England, SW1A 2JH, United Kingdom",51.502254449999995,-0.12317358542568899
102,/title/tt0108327/,The Thing Called Love,"Bluebird Cafe - 4104 Hillsboro Pike, Nashville, Tennessee, USA",,,,
103,/title/tt0108327/,The Thing Called Love,"Tennessee, USA",,"Tennessee, United States of America",35.7730076,-86.2820081
104,/title/tt0108327/,The Thing Called Love,"Blakey's Diner - Murfreesboro Pike & Parris Avenue, Nashville, Tennessee, USA","(Miranda & Kyle eat and write songs here, now demolished.)                        ",,,
105,/title/tt0108327/,The Thing Called Love,"Halfway House Cafe - 15564 Sierra Highway, Santa Clarita, California, USA","(bus stop / cafe where Miranda writes the song ""Maybe God's A Woman Too"")                        ",,,
106,/title/tt0108327/,The Thing Called Love,"Memphis, Tennessee, USA",,"Memphis, Shelby County, Tennessee, United States of America",35.1490215,-90.0516285
107,/title/tt1920849/,Bachelorette,"Carleton Hotel, New York City, New York, USA",,"The Carleton, 99-11, 60th Avenue, Queens, Queens County, New York, 11368, United States of America",40.73669615,-73.85867014410556
108,/title/tt1616195/,J. Edgar,"Warrenton, Virginia, USA",,"Warrenton, Fauquier County, Virginia, United States of America",38.7135498,-77.795367
109,/title/tt1616195/,J. Edgar,"Library of Congress - 101 Independence Ave. SE, Washington, District of Columbia, USA",(Card catalog scene)                        ,"Library of Congress, James Madison Memorial Building, 101, Independence Avenue Southeast, Southeast, Washington, District of Columbia, 20540, United States of America",38.8867409,-77.00470552789514
110,/title/tt1616195/,J. Edgar,"The Cicada Restaurant and Club - 617 S Olive St, Los Angeles, California, USA",,,,
111,/title/tt2126357/,Second Act,"New York City, New York, USA",,"New York, United States of America",40.7127281,-74.0060152
112,/title/tt2126357/,Second Act,"Silvercup Studios - 4222 22nd Street, Long Island City, Queens, New York City, New York, USA",(studio)                        ,"Silvercup Studios Main Lot, 42-22, 22nd Street, Queens, Queens County, New York, 11101, United States of America",40.7513513,-73.94424267969767
113,/title/tt1850397/,The Loft,Belgium,,België / Belgique / Belgien,50.6402809,4.6667145
114,/title/tt1850397/,The Loft,"Brussels, Brussels-Capital, Belgium",,"Bruxelles / Brussel, Ville de Bruxelles - Stad Brussel, Région de Bruxelles-Capitale - Brussels Hoofdstedelijk Gewest, België - Belgique - Belgien",50.8465573,4.351697
115,/title/tt6479178/,Picture of Beauty,Poland,,Polska,52.215933,19.134422
116,/title/tt0071577/,The Great Gatsby,"Rosecliff Mansion - 548 Bellevue Avenue, Newport, Rhode Island, USA",(Gatsby Mansion: Exteriors and Some Interiors)                        ,"Rosecliff Mansion, 548, Bellevue Avenue, Salve Regina University, Ward 3, Newport, Newport County, Rhode Island, 02840, United States of America",41.4649956,-71.30459738149852
117,/title/tt0071577/,The Great Gatsby,"Heatherden Hall, Pinewood Studios, Iver Heath, Buckinghamshire, England, UK",(Buchanan's residence)                        ,,,
118,/title/tt0071577/,The Great Gatsby,"Hope Street, Bristol, Rhode Island, USA",(Daisy's house when a child)                        ,"Hope Street, Bristol Highlands, Bristol, Bristol County, Rhode Island, 02809, United States of America",41.702234,-71.279877
119,/title/tt0071577/,The Great Gatsby,"Pinewood Studios, Iver Heath, Buckinghamshire, England, UK",(studio) (interiors)                        ,"Pinewood Studios, Pinewood Green, Iver, Iver Heath, Buckinghamshire, South East, England, SL0 0QJ, United Kingdom",51.54831515,-0.5346765566753087
120,/title/tt0071577/,The Great Gatsby,"Ocean Drive, Newport, Rhode Island, USA",,"Ocean Drive, Little Compton, Newport County, Rhode Island, 02837, United States of America",41.4872151,-71.1419326
121,/title/tt0071577/,The Great Gatsby,"Manhattan, New York City, New York, USA",,"Manhattan, New York County, New York, United States of America",40.7896239,-73.9598939
122,/title/tt0071577/,The Great Gatsby,"5th Avenue, Manhattan, New York City, New York, USA",,"5th Avenue, East Harlem, Manhattan Community Board 11, Manhattan, New York County, New York, 10030, United States of America",40.8147478,-73.9361291
123,/title/tt0071577/,The Great Gatsby,"Midtown, Manhattan, New York City, New York, USA",,"Midtown, Manhattan Community Board 5, Manhattan, New York County, New York, United States of America",40.7601085,-73.97816329087175
124,/title/tt0071577/,The Great Gatsby,"Park Avenue, Manhattan, New York City, New York, USA",,"Park Avenue, Murray Hill, Manhattan Community Board 5, Manhattan, New York County, New York, 10037, United States of America",40.7509833,-73.9786564
125,/title/tt1178663/,Whatever Works,"East Village, Manhattan, New York City, New York, USA",,"East Village, Manhattan Community Board 3, Manhattan, New York County, New York, United States of America",40.7292688,-73.9873613
126,/title/tt1178663/,Whatever Works,"Manhattan, New York City, New York, USA",,"Manhattan, New York County, New York, United States of America",40.7896239,-73.9598939
127,/title/tt1178663/,Whatever Works,"Chinatown, Manhattan, New York City, New York, USA",,"Chinatown, Manhattan Community Board 2, Manhattan, New York County, New York, United States of America",40.7164913,-73.9962504
128,/title/tt1178663/,Whatever Works,"New York City, New York, USA",,"New York, United States of America",40.7127281,-74.0060152
129,/title/tt0120632/,City of Angels,"San Francisco Public Library Main Branch - 100 Larkin Street, Civic Center, San Francisco, California, USA",,,,
130,/title/tt0120632/,City of Angels,"Dodger Stadium - 1000 Vin Scully Avenue, Chavez Ravine, Elysian Park, Los Angeles, California, USA",,,,
131,/title/tt0120632/,City of Angels,"Big Bear Lake, Big Bear Valley, San Bernardino National Forest, California, USA",,,,
132,/title/tt0120632/,City of Angels,"Lake Tahoe, California, USA",,"Lake Tahoe, California, 96140, United States of America",39.08854049999999,-120.05035277301698
133,/title/tt0120632/,City of Angels,"Grand Central Market - 317 S. Broadway, Downtown, Los Angeles, California, USA",(Maggie shops there several times.)                        ,"Grand Central Market, 315, South Broadway, Historic Core District, Downtown, Los Angeles, Los Angeles County, California, 90013, United States of America",34.050924949999995,-118.2489634996624
134,/title/tt0120632/,City of Angels,"Los Angeles, California, USA",,"Los Angeles, Los Angeles County, California, United States of America",34.0536909,-118.2427666
135,/title/tt0120632/,City of Angels,"Mulholland Drive, Hollywood Hills, Los Angeles, California, USA",,"Mulholland Drive, Hollywood Hills, Los Angeles, Los Angeles County, California, 90068-1106, United States of America",34.1202305,-118.3486678
136,/title/tt0120632/,City of Angels,"Stage 18, Warner Brothers Burbank Studios - 4000 Warner Boulevard, Burbank, California, USA",,,,
137,/title/tt0275022/,Crossroads,"Hollywood Roosevelt Hotel - 7000 Hollywood Blvd., Hollywood, Los Angeles, California, USA",(Pete Wagner's hotel)                        ,"Hollywood Roosevelt Hotel, 7000, Hollywood Boulevard, Hollywood, Los Angeles, Los Angeles County, California, 90028, United States of America",34.100968050000006,-118.34181478202902
138,/title/tt0275022/,Crossroads,"Louisiana, USA",,"Louisiana, United States of America",30.8703881,-92.007126
139,/title/tt0275022/,Crossroads,"Leo Carrillo State Beach - 35000 W. Pacific Coast Highway, Malibu, California, USA",,,,
140,/title/tt0275022/,Crossroads,"Sportsmen's Lodge - 12825 Ventura Blvd., Studio City, Los Angeles, California, USA",(graduation dance)                        ,,,
141,/title/tt0275022/,Crossroads,"Santa Clarita, California, USA",,"Santa Clarita, Los Angeles County, California, United States of America",34.3916641,-118.542586
142,/title/tt2374744/,The Next Step,"Toronto, Ontario, Canada",,"Toronto, Peel, Golden Horseshoe, Ontario, Canada",43.6534817,-79.3839347
143,/title/tt5912454/,Blue Jay,"Crest Forest Drive, Crestline, California, USA",(Location of Jim & Amanda's Walk Through Town)                        ,"Crest Forest Drive, Skyland, San Bernardino County, California, 92325, United States of America",34.2342935,-117.2814139
144,/title/tt0106014/,Goodnight Sweetheart,"Royal Oak Hotel - 73 Columbia Road, Bethnal Green, London, England, UK",,,,
145,/title/tt0110950/,Reality Bites,"Houston, Texas, USA",,"Houston, Harris County, Texas, United States of America",29.7589382,-95.3676974
146,/title/tt0110950/,Reality Bites,"409 West Clay Street, Houston, Texas, USA",(Lelaina and Vickie's apartment)                        ,"409, West Clay Street, Houston, Harris County, Texas, 77019, United States of America",29.755464502512563,-95.38663587437185
147,/title/tt0110950/,Reality Bites,"Tranquility Park - 400 Rusk Street, Houston, Texas, USA",(newsstand)                        ,,,
148,Code,Show Name,Location,Scene,"Location, Tucker County, West Virginia, United States of America",39.2138905,-79.6371124
149,/title/tt0316356/,Open Range,"Stoney Indian Reservation, Alberta, Canada",,,,
150,/title/tt0316356/,Open Range,"Alberta, Canada",,"Alberta, Canada",55.001251,-115.002136
151,/title/tt0316356/,Open Range,"Morley, Alberta, Canada",,"Morley, Municipal District of Bighorn, Alberta, T0L 1N0, Canada",51.166667,-114.85
152,/title/tt0108174/,So I Married an Axe Murderer,"Dunsmuir House & Gardens - 2960 Peralta Oaks Court, Oakland, California, USA",,,,
153,/title/tt0108174/,So I Married an Axe Murderer,"Fog City Diner 1300 Battery St, San Francisco, California, USA",(Charlie and Harriet's double date with Tony and Susan)                        ,"Fog City Diner, 1300, Battery Street, Northeast Waterfront Historic District, San Francisco, San Francisco City and County, California, 94113, United States of America",37.8034359,-122.40185044353396
154,/title/tt0108174/,So I Married an Axe Murderer,"Alamo Square, Hayes Valley, San Francisco, California, USA",(on location)                        ,,,
155,/title/tt0108174/,So I Married an Axe Murderer,"North Beach Pizza - 1462 Grant Ave, San Francisco, California, USA",(Meats of the World)                        ,"North Beach Pizza, 1462, Grant Avenue, North Beach, San Francisco, San Francisco City and County, California, 94133, United States of America",37.8005275,-122.4074703
156,/title/tt0108174/,So I Married an Axe Murderer,"253 Columbus Ave, San Francisco, California, USA",(Cafe Roads)                        ,"Vesuvio, 253, Columbus Avenue, Chinatown, San Francisco, San Francisco City and County, California, 94133, United States of America",37.7974945,-122.40644904143764
157,/title/tt0108174/,So I Married an Axe Murderer,"R.Iacopi Meat Market, North Beach, San Francisco, California, USA",(Butcher shop scene)                        ,,,
158,/title/tt11617052/,Undine,"Berlin, Germany",(main setting of the action)                        ,"Berlin, 10117, Deutschland",52.5170365,13.3888599
159,/title/tt11617052/,Undine,"Stadtmuseum, Poststrasse 13-14, Berlin, Germany",,,,
160,/title/tt11617052/,Undine,"Babelsberg Studios, August-Bebel-Strasse, Potsdam, Germany",(underwater world)                        ,,,
161,/title/tt1186830/,Agora,"Delimara, Malta",,"Delimara, Triq Delimara, Marsaxlokk, Xlokk, MXK1472, Malta",35.8220107,14.5588523
162,/title/tt1186830/,Agora,"Marsaxlokk, Malta",,"Marsaxlokk, Xlokk, Malta",35.8417662,14.5448353
163,/title/tt1186830/,Agora,"Valletta, Malta",,"Valletta, Xlokk, Malta",35.8989818,14.5136759
164,/title/tt0078638/,Knots Landing,"1761 Potrero Road, Hidden Valley, Thousand Oaks, California, USA",(exteriors: Galveston Ranch)                        ,,,
165,/title/tt0078638/,Knots Landing,"Balboa Blvd, Granada Hills, Los Angeles, California, USA",(street scenes)                        ,"Balboa Boulevard, Granada Hills, Los Angeles, Los Angeles County, California, 91344, United States of America",34.2738863,-118.5021923
166,/title/tt0078638/,Knots Landing,"Gateway West Building - 1801 Avenue of the Stars, Century City, Los Angeles, California, USA",(establishing shots: Mack's office) (demolished)                        ,,,
167,/title/tt0078638/,Knots Landing,"Burton W. Chace Park - 13650 Mindano Way, Marina del Rey, California, USA",(exteriors: Lotus Point Marina)                        ,,,
168,/title/tt0078638/,Knots Landing,"El Tovar Apartments - 603 Ocean Ave, Santa Monica, California, USA",(establishing shots: Ciji's Apartment)                        ,,,
169,/title/tt0078638/,Knots Landing,"Hummingbird Nest Ranch - 2940 Kuehner Drive, Simi Valley, California, USA",(Greg Sumner's ranch)                        ,,,
170,/title/tt0078638/,Knots Landing,"Salishan Spa and Golf Resort - 7760 Highway 101 North, Gleneden Beach, Oregon, USA",(establishing shots and some early location shots: Point Lotus)                        ,,,
171,/title/tt0078638/,Knots Landing,"Sandstone Horse Sales - 1666 Hidden Valley Road, Thousand Oaks, California, USA",(exteriors: Westfork Ranch)                        ,,,
172,/title/tt1247690/,Serena,"Prague, Czech Republic",,"Praha, okres Hlavní město Praha, Hlavní město Praha, Praha, Česká republika",50.0874654,14.4212535
173,/title/tt1247690/,Serena,"Barrandov Studios, Prague, Czech Republic",,,,
174,/title/tt1247690/,Serena,"Great Smoky Mountains National Park - 107 Park Headquarters Road, Gatlinburg, Tennessee, USA",(Clingman's Dome)                        ,,,
175,/title/tt0075584/,Soap,"Columbia/Sunset Gower Studios - 1438 N. Gower Street, Hollywood, Los Angeles, California, USA",(studio) (studio: stages 15 and 18)                        ,,,
176,/title/tt0096332/,De ondraaglijke lichtheid van het bestaan,"Prague, Czech Republic",(archive footage)                        ,"Praha, okres Hlavní město Praha, Hlavní město Praha, Praha, Česká republika",50.0874654,14.4212535
177,/title/tt0096332/,De ondraaglijke lichtheid van het bestaan,"Lyon, Rhône, Rhône-Alpes, France",,"Lyon, Métropole de Lyon, Circonscription départementale du Rhône, Auvergne-Rhône-Alpes, France métropolitaine, France",45.7578137,4.8320114
178,/title/tt0096332/,De ondraaglijke lichtheid van het bestaan,"San Francisco, California, USA",,"San Francisco, San Francisco City and County, California, United States of America",37.7790262,-122.4199061
179,/title/tt0096332/,De ondraaglijke lichtheid van het bestaan,"Bèze, Côte-d'Or, France",,"Bèze, Dijon, Côte-d'Or, Bourgogne-Franche-Comté, France métropolitaine, 21310, France",47.4673513,5.2703892
180,/title/tt0096332/,De ondraaglijke lichtheid van het bestaan,"Paris, France",,"Paris, Île-de-France, France métropolitaine, 75004, France",48.8566969,2.3514616
181,/title/tt0096332/,De ondraaglijke lichtheid van het bestaan,"Traboule, Cour des Voraces, Lyon, Rhône, Rhône-Alpes, France",(straicases leading to the engineer's appartment)                        ,,,
182,/title/tt0096332/,De ondraaglijke lichtheid van het bestaan,Switzerland,,Schweiz/Suisse/Svizzera/Svizra,46.7985624,8.2319736
183,/title/tt0096332/,De ondraaglijke lichtheid van het bestaan,Czech Republic,,Česko,49.8167003,15.4749544
184,/title/tt0096332/,De ondraaglijke lichtheid van het bestaan,"Hôtel de Beauvais, 68 rue François Miron, Paris 4, Paris, France",(Tomas seduced by woman while cleaning windows)                        ,"Cour administrative d'appel, 68, Rue François Miron, Quartier Saint-Gervais, Paris, Île-de-France, France métropolitaine, 75004, France",48.85524235,2.3581719598696598
185,/title/tt0104454/,Howards End,"Fortnum & Mason's, Piccadilly, London, England, UK",(where Ruth and Margaret do their Christmas shopping)                        ,,,
186,/title/tt0104454/,Howards End,"Bewdley Station, Worcestershire, England, UK",(Hilton Railway Station)                        ,"Bewdley Station, Station Drive, Bewdley, Wyre Forest, Worcestershire, England, DY12 1DP, United Kingdom",52.375815349999996,-2.3071164091244194
187,/title/tt0104454/,Howards End,"St. Pancras Station, St. Pancras, London, England, UK",,"Boots, Pancras Road, London Borough of Camden, London, Greater London, England, N1C 4QL, United Kingdom",51.5327386,-0.1264236
188,/title/tt0104454/,Howards End,"St James Court Hotel, Buckingham Gate, Westminster, London, England, UK",(Wilcox's London flat)                        ,,,
189,/title/tt0104454/,Howards End,"Victoria Square, Westminster, London, England, UK",(Schlegel home)                        ,"Victoria Square, Victoria, City of Westminster, London, Greater London, England, SW1W 0EJ, United Kingdom",51.4980934,-0.14469
190,/title/tt0104454/,Howards End,"Chiswick Mall, Chiswick, London, England, UK",,"Chiswick Mall, London Borough of Hounslow, London, Greater London, England, W4 2PW, United Kingdom",51.4871849,-0.2480168
191,/title/tt0104454/,Howards End,"Henley-on-Thames, Oxfordshire, England, UK",,"Henley-on-Thames, Oxfordshire, South East, England, RG9 2AN, United Kingdom",51.5375786,-0.9050287
192,/title/tt0104454/,Howards End,"Magdalen College, High Street, Oxford, Oxfordshire, England, UK",,"Porters' Lodge, High Street, St Clement's, City Centre, Oxford, Oxfordshire, South East, England, OX1 4AU, United Kingdom",51.751967199999996,-1.2473847168086407
193,/title/tt0104454/,Howards End,"Oxford, Oxfordshire, England, UK","(Lecture Hall, interior)                        ","Oxford, Oxfordshire, South East, England, United Kingdom",51.7520131,-1.2578499
194,/title/tt0104454/,Howards End,"Peppard Common, Rotherfield Peppard, Oxfordshire, England, UK",,"Peppard Common, South Oxfordshire, Oxfordshire, South East, England, RG9 5EH, United Kingdom",51.5280637,-0.9864174
195,/title/tt0104454/,Howards End,"Wigmore Hall, Marylebone, London, England, UK",,"Wigmore Hall, 36, Wigmore Street, Mayfair, City of Westminster, London, Greater London, England, W1U 2BP, United Kingdom",51.51688395,-0.14834071314290803
196,/title/tt0104454/,Howards End,"Brampton Bryan Castle, Brampton Bryan, Herefordshire, England, UK",(wedding party at the castle)                        ,"Brampton Bryan Castle, Ludlow Road, Knighton, Brampton Bryan, Herefordshire, West Midlands, Cymru / Wales, SY7 0DG, United Kingdom",52.347684650000005,-2.925815583349533
197,/title/tt0103488/,Martin,"Stage 31, Universal Studios - 100 Universal City Plaza, Universal City, California, USA",,,,
198,/title/tt3318220/,Jongens,"Ankeveen, Holland",(Swimming Spot)                        ,"Ankeveen, Wijdemeren, Noord-Holland, Nederland",52.2652457,5.0948047171831155
199,/title/tt3318220/,Jongens,"Muiden, Holland",(Ice Cream Bar)                        ,"Muiden, Gooise Meren, Noord-Holland, Nederland, 1398, Nederland",52.3305,5.06701
200,/title/tt3318220/,Jongens,"Krommenie, Holland",(Training Area)                        ,"Krommenie, Zaanstad, Noord-Holland, Nederland",52.50709354999999,4.762476380539308
201,/title/tt3318220/,Jongens,"Beverwijk, Holland",(Sieger's House)                        ,"Beverwijk, Noord-Holland, Nederland",52.478626,4.6732036218509
202,/title/tt5635086/,God's Own Country,"Laycock, Keighley, Bradford, West Yorkshire, England, UK",,"Laycock, Bradford, West Yorkshire, Yorkshire and the Humber, England, BD22 0PG, United Kingdom",53.8649667,-1.9528896
203,/title/tt5635086/,God's Own Country,"Haworth, Keighley, Bradford, West Yorkshire, England, UK",,,,
204,/title/tt5635086/,God's Own Country,"Otley, Leeds, West Yorkshire, England, UK",,"Otley, Leeds, West Yorkshire, Yorkshire and the Humber, England, LS21, United Kingdom",53.9055083,-1.6938874
205,/title/tt5635086/,God's Own Country,"Leeds, West Yorkshire, England, UK",,"Leeds, West Yorkshire, Yorkshire and the Humber, England, United Kingdom",53.7974185,-1.5437941
206,/title/tt0398375/,Rumor Has It...,"717 S Hudson Ave, Pasadena, California, USA",,"717, South Hudson Avenue, Pasadena, Los Angeles County, California, 91106, United States of America",34.13349133044276,-118.13385856431833
207,/title/tt0398375/,Rumor Has It...,"New York City, New York, USA",,"New York, United States of America",40.7127281,-74.0060152
208,/title/tt0398375/,Rumor Has It...,"Los Angeles, California, USA",,"Los Angeles, Los Angeles County, California, United States of America",34.0536909,-118.2427666
209,/title/tt0398375/,Rumor Has It...,"Stage 15, Warner Brothers Burbank Studios - 4000 Warner Boulevard, Burbank, California, USA",,,,
210,/title/tt0398375/,Rumor Has It...,"Stage 19, Warner Brothers Burbank Studios - 4000 Warner Boulevard, Burbank, California, USA",,,,
211,/title/tt0398375/,Rumor Has It...,"Los Angeles International Airport - 1 World Way, Los Angeles, California, USA",,,,
212,/title/tt5719700/,Home Again,"Los Angeles, California, USA",,"Los Angeles, Los Angeles County, California, United States of America",34.0536909,-118.2427666
213,/title/tt0048280/,Lady and the Tramp,"Walt Disney Feature Animation - 500 S. Buena Vista Street, Burbank, California, USA",,,,
214,/title/tt1067774/,Monte Carlo,"Budapest, Hungary",,"Budapest, Közép-Magyarország, 1011, Magyarország",47.4983815,19.0404707
215,/title/tt1067774/,Monte Carlo,"Hungarian National Opera, Andrassy Ave 22, Budapest, Hungary","(Grace, Emma and Meg arrive at the Grand Belle Hotel in Paris)                        ",,,
216,/title/tt1067774/,Monte Carlo,"Raleigh Studios Budapest- Felsokert utca 9, Budapest, Hungary",,,,
217,/title/tt1067774/,Monte Carlo,"Dallas, Texas, USA",,"Dallas, Dallas County, Texas, United States of America",32.7762719,-96.7968559
218,/title/tt1067774/,Monte Carlo,Monaco,,Monaco,43.7323492,7.4276832
219,/title/tt1067774/,Monte Carlo,"Quai d'Orsay, Paris 7, Paris, France","(Grace, Emma and Meg's bus ride across Paris)                        ","Quai d'Orsay, Quartier du Gros-Caillou, Paris, Île-de-France, France métropolitaine, 75007, France",48.8623588,2.3021623
220,/title/tt1067774/,Monte Carlo,"Pont Alexandre III, Paris 7, Paris, France","(Grace, Emma and Meg's bus ride across Paris)                        ","Pont Alexandre III, Quartier des Invalides, Paris, Île-de-France, France métropolitaine, 75007, France",48.8630102,2.3134682
221,/title/tt1067774/,Monte Carlo,"Rue du Petit Pont, Paris 5, Paris, France","(Grace, Emma and Meg's bus ride across Paris)                        ","Rue du Petit Pont, Quartier de la Sorbonne, Paris, Île-de-France, France métropolitaine, 75005, France",48.8524794,2.3464789
222,/title/tt1067774/,Monte Carlo,"Avenue de Friedland, Paris 8, Paris, France",(viewed from the Arch of Triumph)                        ,"Avenue de Friedland, Quartier du Faubourg-du-Roule, Paris, Île-de-France, France métropolitaine, 75008, France",48.8747903,2.3050151
223,/title/tt1067774/,Monte Carlo,"Avenue Marceau, Paris 8, Paris, France",(viewed from the Arch of Triumph)                        ,"Avenue Marceau, Quartier de Chaillot, Paris, Île-de-France, France métropolitaine, 75008, France",48.8652632,2.2998512
224,/title/tt1067774/,Monte Carlo,"Pyramide du Louvre, Cour Napoléon, Musée du Louvre, Paris 1, Paris, France","(Grace, Emma and Meg arrive at the Louvre)                        ",,,
225,/title/tt1067774/,Monte Carlo,"Basilique du Sacré-Coeur, Montmartre, Paris 18, Paris, France","(the guide takes Grace, Emma and Meg to the Sacré Coeur)                        ","Basilique du Sacré-Cœur, 35, Rue du Chevalier de la Barre, Château Rouge, Quartier de Clignancourt, Paris, Île-de-France, France métropolitaine, 75018, France",48.88680575,2.3430153448835087
226,/title/tt1067774/,Monte Carlo,"Place Jacques Rueff, Paris 7, Paris, France",(the bus arrives near the Eiffel Tower)                        ,"Place Jacques Rueff, Quartier du Gros-Caillou, Paris, Île-de-France, France métropolitaine, 75007, France",48.8558514,2.2973283
227,/title/tt1067774/,Monte Carlo,"La Rocher, Monaco-Ville, Monaco",(aerial view)                        ,"Tunnel Rocher Nogues, Monaco-Ville, Monaco, 98000, Monaco",43.7319625,7.4221604
228,/title/tt1067774/,Monte Carlo,"Musée Océanographique, Monaco-Ville, Monaco",(aerial view)                        ,"Musée Océanographique, Avenue Saint-Martin, Monaco-Ville, Monaco, 98000, Monaco",43.73068045,7.4255127294624055
229,/title/tt1067774/,Monte Carlo,"Allée des Boulingrins, Monte-Carlo, Monaco",(Théo drives across Monte Carlo)                        ,,,
230,/title/tt1067774/,Monte Carlo,"Avenue Princesse Grace, Monaco-Ville, Monaco",(Meg meets Riley at the seaside)                        ,,,
231,/title/tt1067774/,Monte Carlo,"Avenue de la Porte Neuve, Monaco-Ville, Monaco",(Théo and Grace watch a fireworks display)                        ,"Avenue de la Porte Neuve, Monaco-Ville, Monaco, 98020, Monaco",43.7322802,7.4196763
232,/title/tt1067774/,Monte Carlo,"Escalier du restaurant Le Train Bleu, gare de Lyon, Place Louis Armand, Paris 12, Paris, France",(Owen arrives at the station)                        ,,,
233,/title/tt1067774/,Monte Carlo,"Port Hercule, La Condamine, Monaco",(aerial view)                        ,,,
234,/title/tt1067774/,Monte Carlo,France,,France,46.603354,1.8883335
235,/title/tt0988820/,The Inspector Lynley Mysteries,"London, England, UK",,"London, Greater London, England, United Kingdom",51.5073219,-0.1276474
236,/title/tt0425123/,Just Like Heaven,"Mission Delores Park, 566 Dolores St, San Francisco, California, USA",(park)                        ,,,
237,/title/tt0425123/,Just Like Heaven,"Caffe Trieste - 601 Vallejo St, San Francisco, California, USA",(David and Jack's rendezvous)                        ,"Caffe Trieste, 601, Vallejo Street, North Beach, San Francisco, San Francisco City and County, California, 94133, United States of America",37.7986305,-122.4073519
238,/title/tt0425123/,Just Like Heaven,"The Saloon, 1232 Grant Ave, San Francisco, California, USA",(bar scene)                        ,"The Saloon, 1232, Grant Avenue, North Beach, San Francisco, San Francisco City and County, California, 94113, United States of America",37.7985549,-122.4070947
239,/title/tt0425123/,Just Like Heaven,"Washington Square Park - Union St, San Francisco, California, USA",(street scenes)                        ,,,
240,/title/tt0425123/,Just Like Heaven,"San Francisco, California, USA",,"San Francisco, San Francisco City and County, California, United States of America",37.7790262,-122.4199061
241,/title/tt0425123/,Just Like Heaven,"Fresno St, San Francisco, California, USA",(street scenes)                        ,"Fresno Street, Telegraph Hill, San Francisco, San Francisco City and County, California, 94113, United States of America",37.7986036,-122.4063891
242,/title/tt0425123/,Just Like Heaven,"Los Angeles, California, USA",,"Los Angeles, Los Angeles County, California, United States of America",34.0536909,-118.2427666
243,/title/tt1758772/,Switched at Birth,"918 N Alpine Dr, Beverly Hills, California, USA",(Kennish family's residence)                        ,"918, Alpine Drive, Beverly Hills, Los Angeles County, California, 90210, United States of America",34.086668314499164,-118.40890138869949
244,/title/tt0066301/,Rio Lobo,"Old Tucson - 201 S. Kinney Road, Tucson, Arizona, USA",,"Old Tucson, 201, Kinney Road, Tucson Estates, Pima County, Arizona, 85735, United States of America",32.2186224,-111.1300273
245,/title/tt0066301/,Rio Lobo,"Tucson, Arizona, USA",,"Tucson, Pima County, Arizona, United States of America",32.2228765,-110.9748477
246,/title/tt0066301/,Rio Lobo,"Sonoran Desert, Arizona, USA",,"Sonoran Desert, Bates Well Road, Pima County, Arizona, United States of America",32.2598642,-112.9262583
247,/title/tt0066301/,Rio Lobo,"Tucson Mountains, Arizona, USA",,,,
248,/title/tt0066301/,Rio Lobo,"Ruby, Arizona, USA",,"Ruby, Santa Cruz County, Arizona, United States of America",31.46121,-111.2366592
249,/title/tt0066301/,Rio Lobo,"Tumacacori, Arizona, USA",,"Tumacacori, Santa Cruz County, Arizona, 85640, United States of America",31.568702,-111.0523126
250,/title/tt0066301/,Rio Lobo,"Bacerac, Sonora, Mexico",,"Bacerac, Sonora, México",30.2530664,-108.73106595608989
251,/title/tt0093191/,Der Himmel über Berlin,"Staatsbibliothek, Tiergarten, Berlin, Germany",,"Staatsbibliothek zu Berlin, 33, Potsdamer Straße, Botschaftsviertel, Tiergarten, Mitte, Berlin, 10785, Deutschland",52.5073702,13.370841108625656
252,/title/tt0093191/,Der Himmel über Berlin,"Berlin, Germany",,"Berlin, 10117, Deutschland",52.5170365,13.3888599
253,/title/tt0093191/,Der Himmel über Berlin,"Potsdamer Platz, Mitte, Berlin, Germany",,"Potsdamer Platz, Tiergarten, Mitte, Berlin, 10785, Deutschland",52.5100508,13.3758847
254,/title/tt0093191/,Der Himmel über Berlin,"Kurfürstendamm, Charlottenburg, Berlin, Germany",,"Kurfürstendamm, Charlottenburg, Charlottenburg-Wilmersdorf, 10707, Deutschland",52.5006413,13.3126145
255,/title/tt0093191/,Der Himmel über Berlin,"ICC Berlin, West Berlin, Berlin, Germany",(aerial shot)                        ,"ICC, Halenseestraße, Westend, Charlottenburg-Wilmersdorf, 14055, Deutschland",52.5028585,13.2799385
256,/title/tt0093191/,Der Himmel über Berlin,"Adalbertstraße, Kreuzberg, Berlin, Germany",(Damiel walks on the street with his armour)                        ,"Adalbertstraße, Kreuzberg, Friedrichshain-Kreuzberg, Berlin, 10999, Deutschland",52.5006605,13.4188475
257,/title/tt0093191/,Der Himmel über Berlin,"Kreuzberg, Berlin, Germany",(Damiel walks on the street with his armour) (background exterior)                        ,"Kreuzberg, Friedrichshain-Kreuzberg, Berlin, Deutschland",52.4976443,13.411914
258,/title/tt0093191/,Der Himmel über Berlin,"Tiergarten, Berlin, Germany",,"Tiergarten, Mitte, Berlin, Deutschland",52.5097776,13.3572597
259,/title/tt0092492/,Thirtysomething,"Metro-Goldwyn-Mayer Studios - 10202 W. Washington Blvd., Culver City, California, USA",,,,
260,/title/tt3984356/,Only,"Georgia, USA",(locations)                        ,"Georgia, United States of America",32.3293809,-83.1137366
261,/title/tt3984356/,Only,"East Point, Georgia, USA",(Filming location)                        ,"East Point, Georgia, 30344, United States of America",33.6795531,-84.4393724
262,/title/tt3984356/,Only,"Atlanta, Georgia, USA",(locations)                        ,"Atlanta, Georgia, United States of America",33.7490987,-84.3901849
263,/title/tt0487189/,Waterloo Road,"Hilltop Primary School, Kirkholt, Rochdale, Greater Manchester, England, UK",(Waterloo Road school)                        ,,,
264,/title/tt0487189/,Waterloo Road,"Manchester, Greater Manchester, England, UK",(location)                        ,"Manchester, Greater Manchester, North West England, England, United Kingdom",53.4794892,-2.2451148
265,/title/tt1763303/,The First Time,"Los Angeles, California, USA",,"Los Angeles, Los Angeles County, California, United States of America",34.0536909,-118.2427666
266,/title/tt0091445/,Lucas,"Michael's Chicago Style Red Hots - 1879 2nd St., Highland Park, Illinois, USA",,,,
267,/title/tt0091445/,Lucas,"Glenbard West High School - 670 Crescent Blvd., Glen Ellyn, Illinois, USA",(school)                        ,"Glenbard West High School, 670, Crescent Boulevard, Glen Ellyn, DuPage County, Illinois, 60137, United States of America",41.8795742,-88.06039760448863
268,/title/tt0091445/,Lucas,"The Glen Theatre - 540 Crescent Blvd., Glen Ellyn, Illinois, USA",,,,
269,/title/tt0091445/,Lucas,"1412 Waverly Rd., Highland Park, Illinois, USA",(Lucas' fake house)                        ,"1412, Waverly Road, Highland Park, Illinois, 60035, United States of America",42.1791063096924,-87.78381320567325
270,/title/tt0091445/,Lucas,"374 N. Deere Park Dr. E., Highland Park, Illinois, USA",(Alise's house)                        ,"374, North Deere Park Drive East, Braeside, Highland Park, Illinois, 60035, United States of America",42.15924553932025,-87.7673000449308
271,/title/tt0091445/,Lucas,"Highland Park, Illinois, USA",,"Highland Park, Illinois, 60035, United States of America",42.1816919,-87.8003438
272,/title/tt0091445/,Lucas,"Maryknoll Seminary, Glen Ellyn, Illinois, USA",(hospital)                        ,"Maryknoll Seminary, West Driveway, Glen Ellyn, DuPage County, Illinois, 60137, United States of America",41.8564185,-88.0492329
273,/title/tt0091445/,Lucas,"Ryan Field - 1501 Central Street, Northwestern University, Evanston, Illinois, USA",(outdoor concert scene)                        ,,,
274,/title/tt1602620/,Amour,France,,France,46.603354,1.8883335
275,/title/tt1602620/,Amour,"Studio d'Epinay, Epinay-sur-Seine, Seine-Saint-Denis, France",(Georges and Anne's appartment)                        ,,,
276,/title/tt7131334/,Falling for Vermont,"Agassiz, British Columbia, Canada",,"Agassiz, Kent, Fraser Valley Regional District, British Columbia, V0M 1A2, Canada",49.233333,-121.766667
277,/title/tt0332047/,The Perfect Catch,"Fenway Park - 4 Jersey Street, Boston, Massachusetts, USA",,"Fenway Park, 4, Jersey Street, Audubon Square, Jamaica Plain, Boston, Suffolk County, Massachusetts, 02115, United States of America",42.3464621,-71.0971002033302
278,/title/tt0332047/,The Perfect Catch,"Showline Studios, Toronto, Ontario, Canada",,,,
279,/title/tt0332047/,The Perfect Catch,"Parkwood Estate, Oshawa, Ontario, Canada",(interiors)                        ,"Parkwood Estate, 270, Simcoe Street North, Thornton's Corners, Oshawa, Durham Region, Golden Horseshoe, Ontario, L1G 4T5, Canada",43.904216149999996,-78.867903675
280,/title/tt0332047/,The Perfect Catch,"St. Louis, Missouri, USA",(Busch Stadium)                        ,"Saint Louis, City of Saint Louis, Missouri, 63102-1102, United States of America",38.6264178,-90.1998378
281,/title/tt0332047/,The Perfect Catch,"Boston, Massachusetts, USA",,"Boston, Suffolk County, Massachusetts, United States of America",42.3602534,-71.0582912
282,/title/tt5978724/,My Days of Mercy,"Cincinnati, Ohio, USA",(Location)                        ,"Cincinnati, Hamilton County, Ohio, United States of America",39.1014537,-84.5124602
283,/title/tt5978724/,My Days of Mercy,USA,,United States,39.7837304,-100.4458825
284,/title/tt1103153/,Killers,"Villefranche-sur-Mer, Alpes-Maritimes, France",(as Nice)                        ,"Villefranche-sur-Mer, Nice, Alpes-Maritimes, Provence-Alpes-Côte d'Azur, France métropolitaine, 06230, France",43.7042317,7.309969
285,/title/tt1103153/,Killers,"Douglasville, Georgia, USA",,"Douglasville, Douglas County, Georgia, United States of America",33.7514966,-84.7477136
286,/title/tt1103153/,Killers,"Atlanta, Georgia, USA",,"Atlanta, Georgia, United States of America",33.7490987,-84.3901849
287,/title/tt1103153/,Killers,"Marietta Square, Marietta, Georgia, USA",,"Marietta Square, Marietta, Cobb, Georgia, United States of America",33.9527545,-84.54961598411646
288,/title/tt1103153/,Killers,"Nassau, Paradise Island, Bahamas",,"Nassau, 242, Bahamas",25.0783456,-77.3383331
289,/title/tt1103153/,Killers,"Port, Villefranche-sur-Mer, Alpes-Maritimes, France",,"Port de la Darse, Quai de la Corderie, L'Octroi, Villefranche-sur-Mer, Nice, Alpes-Maritimes, Provence-Alpes-Côte d'Azur, France métropolitaine, 06230, France",43.69840635,7.308164190450388
290,/title/tt1103153/,Killers,"Nice, Alpes-Maritimes, France",(location)                        ,"Nice, Alpes-Maritimes, Provence-Alpes-Côte d'Azur, France métropolitaine, France",43.7009358,7.2683912
291,/title/tt1103153/,Killers,"French Riviera, Alpes-Maritimes, France",,"Riviera Française, La Giandola de Breil, Breil-sur-Roya, Nice, Alpes-Maritimes, Provence-Alpes-Côte d'Azur, France métropolitaine, 06540, France",43.952749,7.479413793610824
292,/title/tt1103153/,Killers,"Georgia, USA",,"Georgia, United States of America",32.3293809,-83.1137366
293,/title/tt1103153/,Killers,Bahamas,,The Bahamas,24.7736546,-78.0000547
294,/title/tt1103153/,Killers,"Tributary at New Manchester, Douglasville, Georgia, USA",,,,
295,/title/tt1103153/,Killers,"Antibes, Alpes-Maritimes, France",,"Antibes, Grasse, Alpes-Maritimes, Provence-Alpes-Côte d'Azur, France métropolitaine, France",43.5836,7.10905
296,/title/tt1103153/,Killers,"Nassau, New Providence Island, Bahamas",,"Nassau, Sidney Poitier Bridge, New Providence, 242, Bahamas",25.0769738,-77.3237203
297,/title/tt0120770/,A Night at the Roxbury,"Beverly Hills, California, USA",(Butabi home)                        ,"Beverly Hills, Los Angeles County, California, United States of America",34.0696501,-118.3963062
298,/title/tt0120770/,A Night at the Roxbury,"Crunch Gym - 8000 Sunset Blvd., West Hollywood, California, USA",(gym)                        ,,,
299,/title/tt0120770/,A Night at the Roxbury,"Mayan Theater - 1038 Hill Street, Downtown, Los Angeles, California, USA",(Roxbury interior)                        ,,,
300,/title/tt0120770/,A Night at the Roxbury,"Hollywood Moguls - 1650 N. Schrader Blvd., Hollywood, Los Angeles, California, USA",,,,
301,/title/tt0119223/,Great Expectations,"Cà d'Zan - 5401 Bay Shore Rd, Sarasota, Florida, USA",,,,
302,/title/tt0119223/,Great Expectations,"Captiva Island, Florida, USA",,"Captiva Island, Lee County, Florida, 33924, United States of America",26.5275781,-82.1948171
303,/title/tt0119223/,Great Expectations,"Astor Place, Manhattan, New York City, New York, USA",,"Astor Place, NoHo, Manhattan Community Board 2, Manhattan, New York County, New York, 10003, United States of America",40.729795,-73.9907804
304,/title/tt0119223/,Great Expectations,"Hempstead House, Sands Point Preserve - 95 Middleneck Road, Port Washington, Long Island, New York, USA",(Miss Havisham's mansion)                        ,,,
305,/title/tt0119223/,Great Expectations,"Shonnard Terrace, Yonkers, New York, USA",,"Shonnard Terrace, Glenwood, Yonkers, Westchester County, New York, 10701, United States of America",40.9526979,-73.8957076
306,/title/tt0119223/,Great Expectations,"Guggenheim Estate, Sands Point Preserve - 95 Middleneck Road, Port Washington, Long Island, New York, USA",,,,
307,/title/tt0119223/,Great Expectations,"Sands Point Preserve - 95 Middleneck Road, Port Washington, Long Island, New York, USA",,,,
308,/title/tt0299930/,Gigli,"Long Beach, California, USA",,"Long Beach, Los Angeles County, California, United States of America",33.7690164,-118.1916048
309,/title/tt0299930/,Gigli,"California, USA",,"California, United States of America",36.7014631,-118.7559974
310,/title/tt0299930/,Gigli,"Culver Studios - 9336 W. Washington Blvd., Culver City, California, USA",(studio)                        ,,,
311,/title/tt0299930/,Gigli,"Orange, California, USA",,"Orange County, California, United States of America",33.7500378,-117.8704931
312,/title/tt0058329/,Marnie,"Unionville Village, Kennett Square, Pennsylvania, USA",(mansion)                        ,,,
313,/title/tt0058329/,Marnie,"Mays Landing, New Jersey, USA",(Atlantic City Race Course)                        ,"Mays Landing, Lenape Avenue, Harding Lakes, Hamilton Township, Atlantic County, New Jersey, 08330, United States of America",39.452786,-74.72469501133642
314,/title/tt0058329/,Marnie,"Red Fox Inn - 2 E. Washington Street, Middleburg, Virginia, USA",(Marnie's hotel)                        ,,,
315,/title/tt0058329/,Marnie,"Atlantic City Race Course, Mays Landing, New Jersey, USA",(race track)                        ,,,
316,/title/tt0058329/,Marnie,"Pennsylvania, USA",,"Pennsylvania, United States of America",40.9699889,-77.7278831
317,/title/tt0058329/,Marnie,"Delaware County, Pennsylvania, USA","(Scene driving in car, backdrop of the Route 1 Bypass; and meal at Howard Johnson's, now Moe's, Springfield Shopping Center.)                        ","Delaware County, Pennsylvania, United States of America",39.9194117,-75.4001639
318,/title/tt0058329/,Marnie,"Middleburg, Virginia, USA",(horse-riding)                        ,"Middleburg, Loudoun County, Virginia, 20118, United States of America",38.9690189,-77.7355056
319,/title/tt0058329/,Marnie,"Hamilton Township, New Jersey, USA",(Mays Landing)                        ,"Hamilton Township, Mercer County, New Jersey, United States of America",40.2041625,-74.67932438979872
320,/title/tt1549572/,Another Earth,"West Haven, Connecticut, USA",(waterfront)                        ,"West Haven, New Haven County, Connecticut, 06516, United States of America",41.2706527,-72.9470471
321,/title/tt1758692/,Like Crazy,"London, England, UK",,"London, Greater London, England, United Kingdom",51.5073219,-0.1276474
322,/title/tt1758692/,Like Crazy,"Los Angeles, California, USA",,"Los Angeles, Los Angeles County, California, United States of America",34.0536909,-118.2427666
323,/title/tt1758692/,Like Crazy,"California State University Northridge - 18111 Nordhoff Street, Northridge, Los Angeles, California, USA",(walking after class)                        ,"California State University, Northridge, 18111, Nordhoff Street, Northridge, Los Angeles, Los Angeles County, California, 91330, United States of America",34.2455346,-118.52631936633176
324,/title/tt5320412/,Dalui Yeonin - Bobogyungsim Ryeo,"Yeongwol County, Gangwon Province, South Korea",(Yoseonjeong pavilion and the Yoseon-am rocks)                        ,"영월군, 강원도, 대한민국",37.1834983,128.4619814
325,/title/tt5320412/,Dalui Yeonin - Bobogyungsim Ryeo,"Baekje Cultural Land, Buyeo County, South Chungcheong, South Korea",(Palace scenes)                        ,"백제문화단지, 합정리, 부여군, 충청남도, 대한민국",36.307382,126.90724100201851
326,/title/tt5320412/,Dalui Yeonin - Bobogyungsim Ryeo,"Ondal Tourist Park, Yeongchun-myeon, Danyang, Chungcheongbuk, South Korea",(Palace scenes)                        ,,,
327,/title/tt5320412/,Dalui Yeonin - Bobogyungsim Ryeo,"Manyeonsa Temple, Hwasun County, South Jeolla, South Korea",(6th Prince's house scenes)                        ,,,
328,/title/tt5320412/,Dalui Yeonin - Bobogyungsim Ryeo,"Wolhwawon garden, Hyowon park, Suwon, Gyeonggi, South Korea",(scenes with Wang So and Hae Soo)                        ,,,
329,/title/tt5320412/,Dalui Yeonin - Bobogyungsim Ryeo,"heonjuho lake, Pocheon Art Valley, Giji, Sinbuk-myeon, Pocheon, Gyeonggi, South Korea",(Hae Soo drowing in modern times)                        ,,,
330,/title/tt5320412/,Dalui Yeonin - Bobogyungsim Ryeo,"Bangokji, Namsan-myeon, Gyeongsan, Gyeongsangbuk, South Korea",(Wang So and Hae Soo meeting place near the lake)                        ,,,
331,/title/tt5320412/,Dalui Yeonin - Bobogyungsim Ryeo,"Nampyeong Moon Clan's Residence, Bonri-ri, Hwawon, Dalseong, Daegu, South Korea",(14th Prince Wang Jung's house scenes)                        ,,,
332,/title/tt0088206/,Supergirl,"Pinewood Studios, Iver Heath, Buckinghamshire, England, UK",,"Pinewood Studios, Pinewood Green, Iver, Iver Heath, Buckinghamshire, South East, England, SL0 0QJ, United Kingdom",51.54831515,-0.5346765566753087
333,/title/tt0088206/,Supergirl,"Manhattan, New York City, New York, USA",,"Manhattan, New York County, New York, United States of America",40.7896239,-73.9598939
334,/title/tt0088206/,Supergirl,"Scotland, UK",(Various Scenes)                        ,"Scotland, United Kingdom",56.7861112,-4.1140518
335,/title/tt0086361/,Staying Alive,"Philharmonic Auditorium - 427 West 5th Street and South Olive Street, Downtown, Los Angeles, California, USA",(Broadway theatre)                        ,,,
336,/title/tt0086361/,Staying Alive,"New York City, New York, USA",,"New York, United States of America",40.7127281,-74.0060152
337,/title/tt0086361/,Staying Alive,"Ethel Barrymore Theater, 243 W 47th St, New York City, New York, USA",,,,
338,/title/tt9731360/,I Met a Girl,"Perth, Western Australia, Australia",,"Perth, City of Perth, Western Australia, 6000, Australia",-31.9527121,115.8604796
339,/title/tt0349080/,All About Anna,"Copenhagen, Denmark",,"København, Københavns Kommune, Region Hovedstaden, 1357, Danmark",55.6867243,12.5700724
340,/title/tt0349080/,All About Anna,"Paris, France",,"Paris, Île-de-France, France métropolitaine, 75004, France",48.8566969,2.3514616
341,/title/tt0105415/,Singles,"1820 E. Thomas St, Seattle, Washington, USA","(The apartment building where Cliff, Janet, Steve, and Debbie live.)                        ","Coryell Court, 1820, East Thomas Street, Capitol Hill, Seattle, King County, Washington, 98112, United States of America",47.62064275,-122.30753829512136
342,/title/tt0105415/,Singles,"Seattle, Washington, USA",,"Seattle, King County, Washington, United States of America",47.6038321,-122.3300624
343,/title/tt0105415/,Singles,"Washington, USA",,"Washington, District of Columbia, 20230, United States of America",38.8949924,-77.0365581
344,/title/tt0090103/,The Sure Thing,"Knotty Pine Motel - 2160 North Wilson Way, Stockton, California, USA",(motel)                        ,"Knotty Pine Motel, North Wilson Way, El Pinal, Stockton, San Joaquin County, California, 95205, United States of America",37.9778349,-121.2737517
345,/title/tt0090103/,The Sure Thing,"Wilson Way, Stockton, California, USA",(night drive to motel)                        ,"North Wilson Way, Mormon, Stockton, San Joaquin County, California, 95205, United States of America",37.958785,-121.2723593
346,/title/tt0090103/,The Sure Thing,"Big Bear Lake, Big Bear Valley, San Bernardino National Forest, California, USA",(Highway 18)                        ,,,
347,/title/tt0090103/,The Sure Thing,"University of the Pacific, Stockton, California, USA",,"University of the Pacific, 3601, Pacific Avenue, Lincoln Village, Stockton, San Joaquin County, California, 95211, United States of America",37.98042375,-121.31284719832666
348,/title/tt0090103/,The Sure Thing,"California, USA",(rural foothills)                        ,"California, United States of America",36.7014631,-118.7559974
349,/title/tt0086793/,Santa Barbara,"Moscow, Russia",,"Москва, Центральный административный округ, Москва, Центральный федеральный округ, Россия",55.7504461,37.6174943
350,/title/tt0086793/,Santa Barbara,"Stonepine Eastate - 150 East Carmel Valley Road, Carmel Valley, California, USA",(location of Cruz and Eden's 1988 wedding)                        ,,,
351,/title/tt0086793/,Santa Barbara,"Burbank, California, USA",,"Burbank, Los Angeles County, California, United States of America",34.1816482,-118.3258554
352,/title/tt0089798/,Perfect,"New York City, New York, USA",,"New York, United States of America",40.7127281,-74.0060152
353,/title/tt0089798/,Perfect,"Alabama Hills, Lone Pine, California, USA",,"Alabama Hills, Lone Pine, Inyo County, California, 93545, United States of America",36.5677117,-118.0898097
354,/title/tt0089798/,Perfect,"California, USA",,"California, United States of America",36.7014631,-118.7559974
355,/title/tt0089798/,Perfect,USA,,United States,39.7837304,-100.4458825
356,/title/tt1640571/,Titanic II,"Long Beach, California, USA",,"Long Beach, Los Angeles County, California, United States of America",33.7690164,-118.1916048
357,/title/tt1640571/,Titanic II,"Los Angeles, California, USA",,"Los Angeles, Los Angeles County, California, United States of America",34.0536909,-118.2427666
358,Code,Show Name,Location,Scene,"Location, Tucker County, West Virginia, United States of America",39.2138905,-79.6371124
359,/title/tt0062994/,Funny Girl,"Jersey Central Railway Station, Jersey City, New Jersey, USA",('Don't Rain On My Parade' sequence)                        ,,,
360,/title/tt0062994/,Funny Girl,"Brooklyn Navy Yard, Brooklyn, New York City, New York, USA",(Fanny goes to meet Nick's boat)                        ,"Brooklyn Navy Yard, Brooklyn, Kings County, New York, 11251, United States of America",40.70340065,-73.96996544893537
361,/title/tt0062994/,Funny Girl,"Santa Monica Pier, Santa Monica, California, USA",,"Santa Monica Pier, Santa Monica, Los Angeles County, California, United States of America",34.00889605,-118.49740225045329
362,/title/tt0062994/,Funny Girl,"New York City, New York, USA",(location filming)                        ,"New York, United States of America",40.7127281,-74.0060152
363,/title/tt0062994/,Funny Girl,"Columbia/Sunset Gower Studios - 1438 N. Gower Street, Hollywood, Los Angeles, California, USA",(interiors)                        ,,,
364,/title/tt0384642/,Kicking & Screaming,"Arcadia, California, USA",,"Arcadia, Los Angeles County, California, United States of America",34.1362075,-118.0401497
365,/title/tt0384642/,Kicking & Screaming,"Los Angeles, California, USA",,"Los Angeles, Los Angeles County, California, United States of America",34.0536909,-118.2427666
366,/title/tt0384642/,Kicking & Screaming,"South Pasadena, California, USA",,"South Pasadena, Los Angeles County, California, 91030, United States of America",34.1133062,-118.1478291
367,/title/tt0096018/,Running on Empty,"89 Highwood Avenue, Tenafly, New Jersey, USA",(Lorna Phillips residence)                        ,"89, Highwood Avenue, Tenafly, Bergen County, New Jersey, 07670, United States of America",40.92672227657714,-73.95917733174329
368,/title/tt0096018/,Running on Empty,"Florida City, Florida, USA",(opening sequence)                        ,"Florida City, Miami-Dade County, Florida, 33034, United States of America",25.4480101,-80.479102
369,/title/tt0096018/,Running on Empty,"Tenafly, New Jersey, USA",,"Tenafly, Bergen County, New Jersey, 07670, United States of America",40.9253766,-73.9629154
370,/title/tt0096018/,Running on Empty,"Route 9W at Southbound Exit 4 of the Palisades Interstate Parkway, Alpine New Jersey, USA","(""Picnic area"" at end of film where family meets and Danny is told he's on his own)                        ",,,
371,/title/tt0096018/,Running on Empty,"Englewood, New Jersey, USA",(high school)                        ,"Englewood, Bergen County, New Jersey, 07361, United States of America",40.8928771,-73.9726381
372,/title/tt0096018/,Running on Empty,"New York City, New York, USA",,"New York, United States of America",40.7127281,-74.0060152
373,/title/tt2548214/,Mako Mermaids,"Gold Coast, Queensland, Australia",,"Gold Coast City, Queensland, Australia",-28.0023731,153.4145987
374,/title/tt2548214/,Mako Mermaids,"Sea World, Gold Coast, Queensland, Australia",(Underwater Scenes)                        ,"Sea World, Sea World Drive, Main Beach, Gold Coast City, Queensland, 4217, Australia",-27.95839625,153.42530624247357
375,/title/tt2548214/,Mako Mermaids,"Somerset College - 34 Clover Hill Dr, Mudgeeraba, Queensland, Australia",(Suncoast High)                        ,,,
376,/title/tt0098966/,3 Men and a Little Lady,"Broughton Castle, Banbury, Oxfordshire, England, UK",,,,
377,/title/tt0098966/,3 Men and a Little Lady,"Stonyhurst College, Clitheroe, Lancashire, England, UK",,,,
378,/title/tt0098966/,3 Men and a Little Lady,"All Saints Church, Burton Dassett, Warwickshire, England, UK",(Michael and the Vicar at the wrong church)                        ,,,
379,/title/tt0098966/,3 Men and a Little Lady,"South Street Seaport, East River, New York City, New York, USA",(Peter tells Mary how to cope without him and the other two men when she goes back home to the United Kingdom)                        ,"South Street Seaport, feery, Financial District, Manhattan Community Board 1, Manhattan, New York County, New York, 10038, United States of America",40.7057752,-74.0028376
380,/title/tt0098966/,3 Men and a Little Lady,"Los Angeles, California, USA",,"Los Angeles, Los Angeles County, California, United States of America",34.0536909,-118.2427666
381,/title/tt0098966/,3 Men and a Little Lady,"Shepperton Studios, Shepperton, Surrey, England, UK",(studio)                        ,,,
382,/title/tt0498381/,Rings,"East Mountain Studios, 2030 East Park Drive, Conyers, Georgia, USA",,,,
383,/title/tt0498381/,Rings,"Raleigh Studios - 5300 Melrose Avenue, Hollywood, Los Angeles, California, USA",(studio)                        ,,,
384,/title/tt0498381/,Rings,"Georgia Mental Health Institute, Briarcliff Campus, Emory University, Atlanta, Georgia, USA",,,,
385,/title/tt0108394/,Trois couleurs: Bleu,"Place Monge, Paris 5, Paris, France",(street market)                        ,"Place Monge, Rue Larrey, Paris 5e Arrondissement, Paris, Île-de-France, France métropolitaine, 75005, France",48.8429053,2.3522772
386,/title/tt0108394/,Trois couleurs: Bleu,"Palais de Justice, Paris 1, Paris, France",(hall of justice)                        ,"Palais de Justice - Annexe, Rue de Cambrai, Quartier du Pont-de-Flandre, Paris, Île-de-France, France métropolitaine, 75019, France",48.8960916,2.3807621
387,/title/tt0108394/,Trois couleurs: Bleu,"Cité du Midi, Paris 18, Paris, France",(Julie goes to see Lucille in the sex club)                        ,"Cité du Midi, Quartier des Grandes-Carrières, Paris, Île-de-France, France métropolitaine, 75018, France",48.8830916,2.3354235
388,/title/tt0108394/,Trois couleurs: Bleu,"Rue Mouffetard, Paris 5, Paris, France",(cafe and flute player)                        ,"Rue Mouffetard, Paris 5e Arrondissement, Paris, Île-de-France, France métropolitaine, 75005, France",48.839421,2.3498938
389,/title/tt1175709/,All Good Things,"Shelton, Connecticut, USA",,"Shelton, Fairfield County, Connecticut, United States of America",41.3164856,-73.0931641
390,/title/tt1175709/,All Good Things,"The Chimneys, Black Rock, Bridgeport, Connecticut, USA",(mansion)                        ,,,
391,/title/tt1175709/,All Good Things,"Connecticut, USA",,"Connecticut, United States of America",41.6500201,-72.7342163
392,/title/tt1175709/,All Good Things,"Stratford, Connecticut, USA",,"Stratford, Fairfield County, Connecticut, United States of America",41.1845415,-73.1331651
393,/title/tt1175709/,All Good Things,"Fayerweather Island, Bridgeport, Connecticut, USA",,"Fayerweather Island, Bridgeport, Fairfield County, Connecticut, United States of America",41.1439593,-73.21606102665505
394,/title/tt1175709/,All Good Things,"Greenwich, Connecticut, USA",,"Greenwich, Fairfield County, Connecticut, United States of America",41.0264862,-73.6284598
395,/title/tt1175709/,All Good Things,USA,,United States,39.7837304,-100.4458825
396,/title/tt3622592/,Paper Towns,"North Carolina, USA",,"North Carolina, United States of America",35.6729639,-79.0392919
397,/title/tt3622592/,Paper Towns,"Orlando, Florida, USA",,"Orlando, Orange County, Florida, United States of America",28.5421109,-81.3790304
398,/title/tt3622592/,Paper Towns,"Mooresville, North Carolina, USA",,"Mooresville, Iredell County, North Carolina, United States of America",35.5848596,-80.8100724
399,/title/tt3622592/,Paper Towns,"Denver, North Carolina, USA",,"Denver, Lincoln County, North Carolina, 28037, United States of America",35.5312452,-81.0297994
400,/title/tt3622592/,Paper Towns,"Concord, North Carolina, USA",,"Concord, Cabarrus County, North Carolina, United States of America",35.4093772,-80.5797416
401,/title/tt0045793/,From Here to Eternity,"Halona Cove, O'ahu, Hawaii, USA",(Warden and Karen's kissing in the surf scene)                        ,,,
402,/title/tt0045793/,From Here to Eternity,"Royal Hawaiian Hotel - 2259 Kalakava Avenue, Honolulu, O'ahu, Hawaii, USA",,,,
403,/title/tt0045793/,From Here to Eternity,"Honolulu, O'ahu, Hawaii, USA",,,,
404,/title/tt0045793/,From Here to Eternity,"Waikiki Beach, Honolulu, O'ahu, Hawaii, USA",,,,
405,/title/tt0045793/,From Here to Eternity,"Kuhio Beach, Kalakaua Avenue, Honolulu, O'ahu, Hawaii, USA",(Sgt Warden and Karen Holmes meet on sea shore)                        ,,,
406,/title/tt0094812/,Bull Durham,"Asheville, North Carolina, USA",,"Asheville, Buncombe County, North Carolina, United States of America",35.6009498,-82.5540161
407,/title/tt0094812/,Bull Durham,"Durham Athletic Park - 426 Morris Street, Durham, North Carolina, USA",(Baseball Games)                        ,,,
408,/title/tt0094812/,Bull Durham,"Durham, North Carolina, USA",,"Durham, Durham County, North Carolina, United States of America",35.996653,-78.9018053
409,/title/tt0094812/,Bull Durham,"Raleigh, North Carolina, USA",,"Raleigh, Wake County, North Carolina, United States of America",35.7803977,-78.6390989
410,/title/tt0094812/,Bull Durham,"Mitch's Tavern - 2426 Hillsborough Street, Raleigh, North Carolina, USA",,"Mitch's Tavern, 2426, Hillsborough Street, West Raleigh, Raleigh, Wake County, North Carolina, 27607, United States of America",35.78789975,-78.66772342098807
411,/title/tt0094812/,Bull Durham,"Arlington, Texas, USA",,"Arlington, Tarrant County, Texas, United States of America",32.701938999999996,-97.10562379033699
412,/title/tt0758766/,Music and Lyrics,"Adventureland Amusement Park, Farmingdale, Long Island, New York, USA",,,,
413,/title/tt0758766/,Music and Lyrics,"694 Third Avenue, New York City, New York, USA",(exterior of Weight Not facade)                        ,"Third Avenue, The Bronx, Bronx County, New York, 10454-4606, United States of America",40.8109812,-73.9271484
414,/title/tt0758766/,Music and Lyrics,"Nassau Veterans Memorial Coliseum - 1255 Hempstead Turnpike, Uniondale, Long Island, New York, USA",,,,
415,/title/tt0758766/,Music and Lyrics,"Silvercup Studios - 4222 22nd Street, Long Island City, Queens, New York City, New York, USA",(studio)                        ,"Silvercup Studios Main Lot, 42-22, 22nd Street, Queens, Queens County, New York, 11101, United States of America",40.7513513,-73.94424267969767
416,/title/tt0080365/,American Gigolo,"Sunset Plaza Apartments - 1220 Sunset Plaza Drive, Mt. Olympus, Hollywood Hills, Los Angeles, California, USA","(Westwood Apartment Hotel, demolished 1987 and replaced by a totally different building - see GE at the actual address)                        ",,,
417,/title/tt0080365/,American Gigolo,"100 N Oakhurst Dr, Beverly Hills, California, USA","(Where Rheiman picks up Leon at the ""California Overseas Bank"")                        ","100, North Oakhurst Drive, Beverly Hills, Los Angeles County, California, 90210, United States of America",34.067746,-118.39083
418,/title/tt0080365/,American Gigolo,"Mildred E. Mathias Botanical Garden - 777 Tiverton Avenue, UCLA, Westwood, Los Angeles, California, USA",(Lauren Hutton tells Richard Gere she is leaving)                        ,,,
419,/title/tt0080365/,American Gigolo,"8442 Wilshire Blvd, Beverly Hills, California, USA",(street scenes)                        ,"Wilshire Boulevard, Beverly Hills, Los Angeles County, California, 90211, United States of America",34.0670538,-118.3934982
420,/title/tt0080365/,American Gigolo,"Mouling Restaurant - 6530 Sunset Blvd., Beverly Hills, California, USA",,,,
421,/title/tt0080365/,American Gigolo,"Me & Me Diner - 10975 Weyburn Avenue, Los Angeles, California, USA","(interview) (Around a coffee, Julian is interviewed by Det. Sunday)                        ",,,
422,/title/tt0080365/,American Gigolo,"Probe - 836 North Highland Avenue, Los Angeles, California, USA",(gay disco where Julian is heading for Leon James in order to ask for the alibi he urgently needs)                        ,,,
423,/title/tt0080365/,American Gigolo,"Sotheby Parke Bernet - 7660 Beverly Blvd, Los Angeles, California, USA",,,,
424,/title/tt0080365/,American Gigolo,"Sunset Blvd., Beverly Hills, California, USA",,,,
425,/title/tt0080365/,American Gigolo,"Wilshire Boulevard, Los Angeles, California, USA",,"Wilshire Boulevard, Beverly Hills, Los Angeles County, California, 90211, United States of America",34.0670538,-118.3934982
426,/title/tt0080365/,American Gigolo,"Hollywood Hills, Los Angeles, California, USA",,"Hollywood Hills, Los Angeles, Los Angeles County, California, United States of America",34.1311792,-118.3355474
427,/title/tt0080365/,American Gigolo,"Pacific Coast Highway, Malibu, California, USA",(opening scene of film - Julian driving)                        ,"Pacific Coast Highway, Malibu Beach, Malibu, Los Angeles County, California, 90265-4797, United States of America",34.0396049,-118.6665197
428,/title/tt0080365/,American Gigolo,"Venice Beach, Venice, Los Angeles, California, USA",,"Venice Beach, Crestmoore Place, Venice, Los Angeles, Los Angeles County, California, 90291-3879, United States of America",33.97996005,-118.46877706707772
429,/title/tt0080365/,American Gigolo,"Westwood Plaza, Westwood, Los Angeles, California, USA",,"Westwood Plaza, Westwood, Los Angeles, Los Angeles County, California, 90095, United States of America",34.0661618,-118.4451959
430,/title/tt0080365/,American Gigolo,"26842 Malibu Cove Colony Dr, Malibu, California, USA",(Anne's house)                        ,"26842, Malibu Cove Colony Drive, Malibu, Los Angeles County, California, 90265, United States of America",34.025610075649595,-118.76452522177492
431,/title/tt0080365/,American Gigolo,"I-10 Hwy, Whitewater, California, USA",(road scenes)                        ,"Christopher Columbus Transcontinental Highway, Whitewater, Riverside County, California, United States of America",33.9185924,-116.6242381
432,/title/tt0080365/,American Gigolo,"Beverly Wilshire Hotel, Beverly Hills, California, USA",(Sunday meets with Julian again)                        ,"Beverly Wilshire, 90500, Wilshire Boulevard, Beverly Hills, Los Angeles County, California, 90212, United States of America",34.06637875,-118.40082095691537
433,/title/tt0080365/,American Gigolo,"10951 Wilshire Boulevard, Los Angeles, California, USA",(Julian rents a car)                        ,"Wilshire Boulevard, Westwood Village, Westwood, Los Angeles, Los Angeles County, California, 90024-3990, United States of America",34.0584002,-118.4453576
434,/title/tt0080365/,American Gigolo,"Burbank, California, USA",(street scenes)                        ,"Burbank, Los Angeles County, California, United States of America",34.1816482,-118.3258554
435,/title/tt0080365/,American Gigolo,"Royce Hall - 340 Royce Drive, UCLA, Westwood, Los Angeles, California, USA",,,,
436,/title/tt0080365/,American Gigolo,"Beverly Hills, California, USA",,"Beverly Hills, Los Angeles County, California, United States of America",34.0696501,-118.3963062
437,/title/tt0080365/,American Gigolo,"Los Angeles, California, USA",,"Los Angeles, Los Angeles County, California, United States of America",34.0536909,-118.2427666
438,/title/tt0080365/,American Gigolo,"Venice, Los Angeles, California, USA",,"Venice, Los Angeles, Los Angeles County, California, United States of America",33.995044,-118.4668875
439,/title/tt0080365/,American Gigolo,"El Padrino Restaurant, California, USA",,"Padrino, Milano, Laguna Niguel, Orange County, California, 92677, United States of America",33.5551195,-117.6886637
440,/title/tt0080365/,American Gigolo,USA,,United States,39.7837304,-100.4458825
441,/title/tt4226388/,Victoria,"Charlottenstraße, Kreuzberg, Berlin, Germany",(night club)                        ,"Charlottenstraße, Kreuzberg, Friedrichshain-Kreuzberg, Berlin, 10969, Deutschland",52.5056215,13.3926533
442,/title/tt4226388/,Victoria,"Behrenstraße, Mitte, Berlin, Germany","(grand hotel, final scene)                        ","Behrenstraße, Mitte, Berlin, 10117, Deutschland",52.5145971,13.3778954
443,/title/tt4226388/,Victoria,"Mitte, Berlin, Germany",(Bank Robbery)                        ,"Mitte, Berlin, Deutschland",52.5176896,13.4023757
444,/title/tt4226388/,Victoria,Germany,,Deutschland,51.0834196,10.4234469
445,/title/tt4986098/,The Titan,"Arinaga, Gran Canaria, Canary Islands, Spain",(NATO Base)                        ,"Calle Arinaga, Urbanización Industrial Las Torres, Siete Palmas, Las Palmas de Gran Canaria, Las Palmas, Canarias, 35019, España",28.106272,-15.459735
446,/title/tt4986098/,The Titan,"Vecindario, Gran Canaria, Spain",(Swimming pool)                        ,,,
447,/title/tt4986098/,The Titan,"Las Palmas de Gran Canaria, Gran Canaria, Canary Islands, Spain",(Interiors)                        ,"Las Palmas de Gran Canaria, Calle Lucas Fernández Navarro, Puerto, Las Palmas de Gran Canaria, Las Palmas, Canarias, 35007, España",28.1373026,-15.4305696
448,/title/tt0892791/,Shrek Forever After,"Los Angeles, California, USA",,"Los Angeles, Los Angeles County, California, United States of America",34.0536909,-118.2427666
449,/title/tt0387131/,The Constant Gardener,"Lake Turkana, Kenya",,"Lake Turkana, C77, Serima, Marsabit, East Kenya, Kenya",3.52559005,36.074506156741236
450,/title/tt0387131/,The Constant Gardener,"Lokichogio Airport, Kenya",,"Lokichoggio Airport, Loki Airport Road, Lokichogio, Turkana, Kenya",4.203761350000001,34.34841238716451
451,/title/tt0387131/,The Constant Gardener,"Nairobi, Kenya",,"Nairobi, Kenya",-1.2832533,36.8172449
452,/title/tt0387131/,The Constant Gardener,"Berlin Hauptbahnhof, Berlin, Germany",(Justin Quayle's arrival by train in Germany)                        ,"Berlin Hauptbahnhof, Eingangsebene, Moabit, Mitte, Berlin, 10557, Deutschland",52.5249451,13.3696614
453,/title/tt0387131/,The Constant Gardener,Sudan,,السودان,14.5844444,29.4917691
454,/title/tt0387131/,The Constant Gardener,"Loiyangalani, Kenya",(Camp Seven) (Southern Sudan)                        ,"Loiyangalani, Marsabit, East Kenya, Kenya",2.7576797,36.718658
455,/title/tt0387131/,The Constant Gardener,"Hotel Residenz, Motzen, Mittenwalde, Brandenburg, Germany",(Justin Quayle experiences brutality by drug manufacturers)                        ,,,
456,/title/tt0387131/,The Constant Gardener,"Berlin, Germany",,"Berlin, 10117, Deutschland",52.5170365,13.3888599
457,/title/tt0387131/,The Constant Gardener,"Turkana District, Kenya",,"Lodwar District Hospital, Lodwar-Lokichogio Road, Lodwar, Turkana, Kenya",3.12245635,35.60133847944155
458,/title/tt0387131/,The Constant Gardener,"Loiyangalani, Lake Turkana, Kenya",,"Lake Turkana, C77, Serima, Marsabit, East Kenya, Kenya",3.52559005,36.074506156741236
459,/title/tt0387131/,The Constant Gardener,"Southwark, London, England, UK",,"Southwark, London Borough of Southwark, London, Greater London, England, SE1 0QB, United Kingdom",51.5029222,-0.103458
460,/title/tt0387131/,The Constant Gardener,"St. Mary Magdalene Church, Paddington, London, England, UK",(memorial service)                        ,,,
461,/title/tt0387131/,The Constant Gardener,"Paddington, London, England, UK",,"London Paddington, Praed Street, Paddington, City of Westminster, London, Greater London, England, W2 1HQ, United Kingdom",51.5170856,-0.1775422
462,/title/tt0387131/,The Constant Gardener,"Langata Cemetery, Nairobi, Kenya",,"Langata, Nairobi, 00509, Kenya",-1.3328938,36.7816659
463,/title/tt0387131/,The Constant Gardener,"Kenyatta Hospital, Nairobi, Kenya",,"Nairobi Gallery, Kenyatta Avenue, Central Business District, Ngara, Nairobi, 00200, Kenya",-1.2867135,36.8179232
464,/title/tt0387131/,The Constant Gardener,"Royal Nairobi Club, Nairobi, Kenya",,"The Nairobi Club, Hospital Road, Siwaka Estate, Nairobi, P. O. BOX 41362, Kenya",-1.2977235,36.80996590277401
465,/title/tt0387131/,The Constant Gardener,"Combat Zone, Nairobi, Kenya",,,,
466,/title/tt0387131/,The Constant Gardener,"Golf Course, Racecourse Karen, Nairobi, Kenya",,,,
467,/title/tt0387131/,The Constant Gardener,"Vegetable Market, Kiambu, Kenya",(Three Bees Mobile Clinic)                        ,"Kiambu, Central Kenya, 00900, Kenya",-1.1663925,36.8252791
468,/title/tt0387131/,The Constant Gardener,"Boskie's Aircraft Hangar, Wilson Airport, Nairobi, Kenya",,,,
469,/title/tt0387131/,The Constant Gardener,"Kiambu Police Chief's Office, Kiambu Police Station, Kiambu, Kenya",(police station sequence)                        ,,,
470,/title/tt0387131/,The Constant Gardener,"Ol Tapese, Kenya",,,,
471,/title/tt0387131/,The Constant Gardener,"Cliffs, Rift Valley, Kenya",(car chase)                        ,,,
472,/title/tt0387131/,The Constant Gardener,"East African Rift, Kenya",,,,
473,/title/tt0387131/,The Constant Gardener,"Lokichokio, Kenya",,"Lokichokio-Kapoeta, Turkana, Kenya",4.4437458,34.2208897
474,/title/tt0387131/,The Constant Gardener,"Manitoba, Canada",(sequence deleted)                        ,"Manitoba, Canada",55.001251,-97.001038
475,/title/tt0387131/,The Constant Gardener,Kenya,,Kenya,1.4419683,38.4313975
476,/title/tt0109456/,Color of Night,"Circles on the Point Mansion, 29377 Cliffside Drive, Malibu, California, USA",(Bob Moore's House)                        ,,,
477,/title/tt0109456/,Color of Night,"City Hall - 455 N. Rexford Drive, Beverly Hills, California, USA",,,,
478,/title/tt0109456/,Color of Night,"Ren-Mar Studios - 846 N. Cahuenga Blvd., Hollywood, Los Angeles, California, USA",,,,
479,/title/tt0218967/,Family Man,"Teaneck, New Jersey, USA",,"Teaneck Township, Bergen County, New Jersey, 07666, United States of America",40.8860164,-74.0072568
480,/title/tt0218967/,Family Man,"Closter, New Jersey, USA",,"Closter, Bergen County, New Jersey, 07624, United States of America",40.9731536,-73.9615262
481,/title/tt0218967/,Family Man,"New York City, New York, USA",,"New York, United States of America",40.7127281,-74.0060152
482,/title/tt1571249/,The Skeleton Twins,"Nyack, New York, USA",,"Nyack, Town of Orangetown, Rockland County, New York, 10960, United States of America",41.091121,-73.9196794
483,/title/tt1571249/,The Skeleton Twins,"New York, USA",,"New York, United States of America",40.7127281,-74.0060152
484,/title/tt1033643/,What Happens in Vegas,"Bay Ridge, Brooklyn, New York City, New York, USA",,"Bay Ridge, Brooklyn, Kings County, New York, 11220, United States of America",40.6339929,-74.0145841
485,/title/tt1033643/,What Happens in Vegas,"Fire Island, Long Island, New York, USA",(light house and bridge at the end)                        ,,,
486,/title/tt1033643/,What Happens in Vegas,"Water St & Old Fulton Street, Dumbo, Brooklyn, New York City, New York, USA",,,,
487,/title/tt1033643/,What Happens in Vegas,"New York City, New York, USA",,"New York, United States of America",40.7127281,-74.0060152
488,/title/tt0093936/,The Secret of My Success,"919 Third Avenue, New York City, New York, USA",(Pemrose Roof and Jog Track)                        ,"919 Third Avenue, 919, 3rd Avenue, Midtown East, Manhattan Community Board 6, Manhattan, New York County, New York, 10022, United States of America",40.75889165,-73.96746821714933
489,/title/tt0093936/,The Secret of My Success,"599 Lexington Avenue, New York City, New York, USA",(Pemrose Lobby and Ground Exterior)                        ,"599 Lexington Avenue, 599, Lexington Avenue, Midtown East, Manhattan Community Board 5, Manhattan, New York County, New York, 10022, United States of America",40.7578529,-73.97072421562865
490,/title/tt0093936/,The Secret of My Success,"676 Avenue of the Americas, New York City, New York, USA",(Lox Around the Clock)                        ,"Wine & Spirits Market, 676, 6th Avenue, Flatiron District, Manhattan Community Board 5, Manhattan, New York County, New York, 10010, United States of America",40.7416415,-73.9934852
491,/title/tt0093936/,The Secret of My Success,"Manhattan, New York City, New York, USA",,"Manhattan, New York County, New York, United States of America",40.7896239,-73.9598939
492,/title/tt0093936/,The Secret of My Success,"Park Avenue, Manhattan, New York City, New York, USA",,"Park Avenue, Murray Hill, Manhattan Community Board 5, Manhattan, New York County, New York, 10037, United States of America",40.7509833,-73.9786564
493,/title/tt6920356/,The Souvenir,"Holkham Hall, Norfolk, England, UK",(Fragonard Painting)                        ,"Holkham Hall, Holkham Park, Holkham, North Norfolk, Norfolk, East of England, England, NR23 1AB, United Kingdom",52.9501326,0.8030171726451385
494,/title/tt6920356/,The Souvenir,"Royal Air Force Base, West Raynham, England, UK",,,,
495,/title/tt0102744/,Quigley Down Under,Australia,,Australia,-24.7761086,134.755
496,/title/tt0102744/,Quigley Down Under,"Northern Territory, Australia",,"Northern Territory, Australia",-19.8516101,133.2303375
497,/title/tt0102744/,Quigley Down Under,"Central Australia, Australia",,Australia,-24.7761086,134.755
498,/title/tt0102744/,Quigley Down Under,"Melbourne, Victoria, Australia",,"Melbourne, City of Melbourne, Victoria, 3000, Australia",-37.8142176,144.9631608
499,/title/tt0102744/,Quigley Down Under,"Apollo Bay, Victoria, Australia",,"Apollo Bay, Shire of Colac Otway, Victoria, 3233, Australia",-38.7547442,143.6691463
500,/title/tt0067185/,Harold and Maude,"10 Stacey Court, Hillsborough, California, USA",(Chasen Family mansion)                        ,"10, Stacey Court, Hillsborough Park, Hillsborough, San Mateo County, California, 94010, United States of America",37.573134908765475,-122.36703892845449
501,/title/tt0067185/,Harold and Maude,"313 Oyster Point Blvd, South San Francisco, California, USA",(Maude's railcar)                        ,"313, Oyster Point Boulevard, South San Francisco, San Mateo County, California, 94080, United States of America",37.66249273080825,-122.3979647320236
502,/title/tt0067185/,Harold and Maude,"San Mateo County Superior Court, 400 County Center, Redwood City, California, USA",(Tree rescue scene)                        ,,,
503,/title/tt0067185/,Harold and Maude,"Brisbane, California, USA",(fast driving)                        ,"Brisbane, San Mateo County, California, 94005, United States of America",37.687165,-122.4027942
504,/title/tt0067185/,Harold and Maude,"San Francisco, California, USA",(Veterans petitioning)                        ,"San Francisco, San Francisco City and County, California, United States of America",37.7790262,-122.4199061
505,/title/tt0067185/,Harold and Maude,"Dumbarton Bridge, San Francisco Bay, California, USA",(motorcycle scene)                        ,"Dumbarton Bridge, Menlo Park, Alameda County, California, United States of America",37.510027,-122.1124536
506,/title/tt0067185/,Harold and Maude,"Sneath Lane, San Bruno, California, USA",(National Cemetery and greenhouse scenes)                        ,"Sneath Lane, Tanforan, San Bruno, San Mateo County, California, 94066, United States of America",37.6393356,-122.4186161
507,/title/tt0067185/,Harold and Maude,"San Francisco Trains State Belt #4 Restoration Site, Bayshore Blvd, Brisbane, California, USA",(studio) (Glaucas' Studio)                        ,,,
508,/title/tt0067185/,Harold and Maude,"Half Moon Bay, California, USA",,"Half Moon Bay, San Mateo County, California, 94019, United States of America",37.4635519,-122.4285862
509,/title/tt0067185/,Harold and Maude,"Cabot, California, USA",,"Cabot, Northwood, Irvine, Orange County, California, 92620, United States of America",33.7143435,-117.7657291
510,/title/tt0067185/,Harold and Maude,"Peninsula Hospital, 1783 El Camino Real, Burlingame, California, USA",(hospital)                        ,,,
511,/title/tt0067185/,Harold and Maude,"Golden Gate National Cemetery, San Bruno, California, USA",(The very large military cemetery that Harold and Maude visited)                        ,"Golden Gate National Cemetery, 1300, San Bruno, San Mateo County, California, 94066, United States of America",37.6355339,-122.42791900307606
512,/title/tt0067185/,Harold and Maude,"California, USA",,"California, United States of America",36.7014631,-118.7559974
513,/title/tt0067185/,Harold and Maude,"Burlingame, California, USA",,"Burlingame, San Mateo County, California, United States of America",37.5841026,-122.3660825
514,/title/tt0067185/,Harold and Maude,"Hillsborough, California, USA",,"Hillsborough, San Mateo County, California, United States of America",37.557252,-122.3625291
515,/title/tt0067185/,Harold and Maude,"Pacifica, California, USA",,"Pacifica, San Mateo County, California, 94044, United States of America",37.6138253,-122.4869194
516,/title/tt0067185/,Harold and Maude,USA,,United States,39.7837304,-100.4458825
517,/title/tt0085154/,All the Right Moves,"Johnstown, Pennsylvania, USA",,"Johnstown, Cambria County, Pennsylvania, United States of America",40.3267407,-78.9219698
518,/title/tt0085154/,All the Right Moves,"Pittsburgh, Pennsylvania, USA",,"Pittsburgh, Allegheny County, Pennsylvania, United States of America",40.4416941,-79.9900861
519,/title/tt0455612/,Madea's Family Reunion,"Covington, Georgia, USA",,"Covington, Newton County, Georgia, 30014, United States of America",33.5967815,-83.8601827
520,/title/tt0455612/,Madea's Family Reunion,"Atlanta, Georgia, USA",,"Atlanta, Georgia, United States of America",33.7490987,-84.3901849
521,/title/tt4486986/,All I See Is You,"Bangkok, Thailand",,"กรุงเทพมหานคร, เขตพระนคร, กรุงเทพมหานคร, 10200, ประเทศไทย",13.7542529,100.493087
522,/title/tt4486986/,All I See Is You,Thailand,,ประเทศไทย,14.8971921,100.83273
523,/title/tt4486986/,All I See Is You,Spain,,España,39.3262345,-4.8380649
524,/title/tt1655460/,Wanderlust,"Gwinnett Diner, 257 Scenic Hwy S, Lawrenceville, Georgia, USA",(Where Linda and Carvin are having meat)                        ,,,
525,/title/tt1655460/,Wanderlust,"340 Woodlands Lane, Clarkesville, Georgia, USA",(Elysium)                        ,,,
526,/title/tt1655460/,Wanderlust,"Clarkesville, Georgia, USA",,"Clarkesville, Habersham County, Georgia, United States of America",34.6125971,-83.5248933
527,/title/tt1655460/,Wanderlust,"Monroe, Georgia, USA",,"Monroe County, Georgia, United States of America",33.0142344,-83.9044159
528,/title/tt1655460/,Wanderlust,"Bryant Park, Manhattan, New York City, New York, USA",,"Bryant Park, 6th Avenue, Theater District, Manhattan Community Board 5, Manhattan, New York County, New York, 10018, United States of America",40.75375085,-73.98353680295259
529,/title/tt0062430/,De val naar de Top,"Redding Center, Connecticut, USA",(Welles' Home in Lawrenceville)                        ,"Redding, Fairfield County, Connecticut, United States of America",41.3025956,-73.3834532
530,/title/tt0062430/,De val naar de Top,"Yale University, New Haven, Connecticut, USA",,"Yale University Art Gallery, 1111, Chapel Street, Downtown, New Haven, New Haven County, Connecticut, 06515, United States of America",41.3084354,-72.93087953034963
531,/title/tt0062430/,De val naar de Top,"Katonah, New York, USA",,"Katonah, Town of Bedford, Westchester County, New York, 10536, United States of America",41.25877,-73.6853852
532,/title/tt0062430/,De val naar de Top,"Santa Monica Courthouse, Santa Monica, California, USA",,"Los Angeles Superior Court, Santa Monica Courthouse, Olympic Drive, Santa Monica, Los Angeles County, California, 90401-2405, United States of America",34.0109216,-118.49042671521224
533,/title/tt0062430/,De val naar de Top,"Stage 15, 20th Century Fox Studios - 10201 Pico Blvd., Century City, Los Angeles, California, USA",(studio)                        ,,,
534,/title/tt0062430/,De val naar de Top,"Stage 19, 20th Century Fox Studios - 10201 Pico Blvd., Century City, Los Angeles, California, USA",,,,
535,/title/tt0130414/,Merlin,"Anglesey, Wales, UK",,"Ynys Môn / Anglesey, Ynys Môn / Isle of Anglesey, Cymru / Wales, United Kingdom",53.2782273,-4.33133929345189
536,/title/tt0130414/,Merlin,"Pinewood Studios, Iver Heath, Buckinghamshire, England, UK",(studio)                        ,"Pinewood Studios, Pinewood Green, Iver, Iver Heath, Buckinghamshire, South East, England, SL0 0QJ, United Kingdom",51.54831515,-0.5346765566753087
537,/title/tt0130414/,Merlin,"Wales, UK",,"Cymru / Wales, United Kingdom",52.2928116,-3.73893
538,/title/tt0283084/,Tuck Everlasting,"Baltimore, Maryland, USA",,"Baltimore, Maryland, United States of America",39.2908816,-76.610759
539,/title/tt0283084/,Tuck Everlasting,"Loch Raven Resevoir, Towson, Maryland, USA",,,,
540,/title/tt0283084/,Tuck Everlasting,"Whitaker Point, Arkansas, USA",,"Whitaker Point, Whitaker Point Trail, Ryker, Newton County, Arkansas, United States of America",35.891217,-93.4404153
541,/title/tt0283084/,Tuck Everlasting,"Falling Branch, White Hall, Maryland, USA",,,,
542,/title/tt0480242/,Dan in Real Life,"Point Judith Lighthouse, Narragansett, Rhode Island, USA",,"Point Judith Lighthouse, Ocean Road, Narragansett, Washington County, Rhode Island, United States of America",41.36103185,-71.48139771315914
543,/title/tt0480242/,Dan in Real Life,"Rhode Island, USA",,"Rhode Island, United States of America",41.7962409,-71.5992372
544,/title/tt0480242/,Dan in Real Life,"New York City, New York, USA",,"New York, United States of America",40.7127281,-74.0060152
545,/title/tt0480242/,Dan in Real Life,"East Ferry Wharf, Jamestown, Rhode Island, USA",(Bookstore)                        ,"East Ferry Wharf, Jamestown, Newport County, Rhode Island, 02835, United States of America",41.496069,-71.3669142
546,/title/tt0480242/,Dan in Real Life,"Ocean Road, Newport, Rhode Island, USA",(Driving)                        ,"Ocean Road, Scarborough Hills, Narragansett, Washington County, Rhode Island, 02880, United States of America",41.3916086,-71.4713689
547,/title/tt0962726/,High School Musical 3: Senior Year,"East High School - 840 S 1300 E, Salt Lake City, Utah, USA",,,,
548,/title/tt0962726/,High School Musical 3: Senior Year,"Salt Lake City, Utah, USA",,"Salt Lake City, Salt Lake County, Utah, United States of America",40.7596198,-111.8867975
549,/title/tt0070903/,The Way We Were,"Union College, Schenectady, New York, USA",,"Union College, Van Vranken Avenue, The Stockade, Schenectady, Schenectady County, New York, 12308, United States of America",42.81720665,-73.9287027876386
550,/title/tt0070903/,The Way We Were,"Beverly Hills Hotel & Bungalows - 9641 Sunset Blvd., Beverly Hills, California, USA",,,,
551,/title/tt0070903/,The Way We Were,"Central Park Lake, Central Park, Manhattan, New York City, New York, USA",,,,
552,/title/tt0070903/,The Way We Were,"Plaza Hotel - 750 Fifth Avenue, Manhattan, New York City, New York, USA",(exterior: closing)                        ,,,
553,/title/tt0093640/,No Way Out,"Auckland, New Zealand",,"Auckland, 1010, New Zealand",-36.852095,174.7631803
