,Code,Show Name,Location,Scene,geocodedLocation,latitude,longitude
0,/title/tt0082933/,Possession,"87 Sebastianstraße, Kreuzberg, Berlin, Germany",(monster's apartment)                        ,"87, Sebastianstraße, Kreuzberg, Friedrichshain-Kreuzberg, Berlin, 10969, Deutschland",52.5040911,13.4139111
1,/title/tt0082933/,Possession,"Bernauer Straße, Berlin, Germany","(opening with final pieces of the ""Wall houses"")                        ","Bernauer Straße, Gesundbrunnen, Mitte, Berlin, 13355, Deutschland",52.5336577,13.3878631
2,/title/tt0082933/,Possession,"U-Platz der Luftbrücke Subway Station, Berlin, Germany",(Anna screams and smashes bottles)                        ,,,
3,/title/tt0082933/,Possession,"Adalbertstraße, Kreuzberg, Berlin, Germany",(tailing Anna)                        ,"Adalbertstraße, Kreuzberg, Friedrichshain-Kreuzberg, Berlin, 10999, Deutschland",52.5006605,13.4188475
4,/title/tt0082933/,Possession,"Fehrbelliner Platz, Berlin, Germany",(Mark checking out the money)                        ,"Fehrbelliner Platz, Württembergische Straße, Wilmersdorf, Charlottenburg-Wilmersdorf, 10707, Deutschland",52.49057865,13.3142848866921
5,/title/tt0082933/,Possession,"Restaurant Stiege - 47a Oranienstraße, Kreuzberg, Berlin, Germany",(Mark kills Heinrich) (only exterior)                        ,"prinzessinnengarten, 35-38, Prinzenstraße, Kreuzberg, Friedrichshain-Kreuzberg, Berlin, 10969, Deutschland",52.5028712,13.4110632
6,/title/tt0082933/,Possession,Germany,,Deutschland,51.0834196,10.4234469
7,/title/tt2963254/,Salem,"Shreveport, Louisiana, USA",,"Shreveport, Caddo Parish, Louisiana, United States of America",32.5221828,-93.7651944
8,/title/tt0455760/,Dead Silence,"Toronto, Ontario, Canada",,"Toronto, Peel, Golden Horseshoe, Ontario, Canada",43.6534817,-79.3839347
9,/title/tt1714915/,Only Lovers Left Alive,"Hamburg, Germany",(rock club)                        ,"Hamburg, Deutschland",53.5437641,10.0099133
10,/title/tt1714915/,Only Lovers Left Alive,"Detroit, Michigan, USA",,"Detroit, Wayne County, Michigan, United States of America",42.3315509,-83.0466403
11,/title/tt1714915/,Only Lovers Left Alive,"Cologne, North Rhine-Westphalia, Germany",(studio)                        ,"Köln, Regierungsbezirk Köln, Nordrhein-Westfalen, Deutschland",50.938361,6.959974
12,/title/tt1714915/,Only Lovers Left Alive,"MMC Studios, Cologne, North Rhine-Westphalia, Germany",(studio) (apartment interiors) (as MMC Independent Studios Cologne)                        ,"MMC Cologne, 1, Am Coloneum, Am Butzweilerhof, Ossendorf, Ehrenfeld, Köln, Nordrhein-Westfalen, 50829, Deutschland",50.9875138,6.8963165
13,/title/tt1714915/,Only Lovers Left Alive,Germany,"(Leichlingen, Germany)                        ",Deutschland,51.0834196,10.4234469
14,/title/tt0795351/,Case 39,"Portland, Oregon, USA",(flyover shots)                        ,"Portland, Multnomah County, Oregon, United States of America",45.5202471,-122.6741949
15,/title/tt0795351/,Case 39,"Riverview Hospital, Coquitlam, British Columbia, Canada",,,,
16,/title/tt0795351/,Case 39,"The Bridge Studios, Burnaby, British Columbia, Canada",(studio)                        ,"Bridge Studios, Burnaby, Metro Vancouver Regional District, British Columbia, Canada",49.2629905,-123.0205448788792
17,/title/tt0464154/,Piranha 3D,"Lake Havasu, Arizona, USA",,"Lake Havasu, Mohave County, Arizona, United States of America",34.414006099999995,-114.29112575627876
18,/title/tt5968394/,Captive State,"Chicago, Illinois, USA",,"Chicago, Cook County, Illinois, United States of America",41.8755616,-87.6244212
19,/title/tt0013442/,Nosferatu,"Orava Castle, Oravsky Podzámok, Slovakia",,"Oravský hrad, Nádvorie predhradia I., Oravský Podzámok, okres Dolný Kubín, Žilinský kraj, Stredné Slovensko, 02741, Slovensko",49.2618771,19.358753
20,/title/tt0013442/,Nosferatu,"Salzspeicher, Lübeck, Schleswig-Holstein, Germany",(Graf Orlok's house in Wisborg)                        ,,,
21,/title/tt0013442/,Nosferatu,Slovakia,,Slovensko,48.7411522,19.4528646
22,/title/tt0013442/,Nosferatu,Germany,,Deutschland,51.0834196,10.4234469
23,/title/tt0013442/,Nosferatu,"Oravsky Podzámok, Slovakia",,"Oravský Podzámok, okres Dolný Kubín, Žilinský kraj, Stredné Slovensko, 027 41, Slovensko",49.2610972,19.3570525
24,/title/tt0013442/,Nosferatu,"Lauenburg, Schleswig-Holstein, Germany",,"Lauenburg/Elbe, Herzogtum Lauenburg, Schleswig-Holstein, 21481, Deutschland",53.3789803,10.5513889
25,/title/tt0013442/,Nosferatu,"Schleswig-Holstein, Germany",,"Schleswig-Holstein, Deutschland",54.1853998,9.8220089
26,/title/tt0013442/,Nosferatu,"Uppsala University, Uppsala, Uppsala län, Sweden",(stock footage)                        ,,,
27,/title/tt0013442/,Nosferatu,"Orava Castle, Oravsky Podzámok, Slovakia",(Castle)                        ,"Oravský hrad, Nádvorie predhradia I., Oravský Podzámok, okres Dolný Kubín, Žilinský kraj, Stredné Slovensko, 02741, Slovensko",49.2618771,19.358753
28,/title/tt2377322/,Deliver Us from Evil,"Abu Dhabi, United Arab Emirates",(location)                        ,"أبوظبي, أبو ظبي, United Arab Emirates",24.4747961,54.3705762
29,/title/tt3086442/,"Ich seh, Ich seh","Schloßgasse 2 3824, Raabs an der Thaya, Austria",(location)                        ,"Schloßgasse, Wilhelmshof, Gemeinde Raabs an der Thaya, Bezirk Waidhofen an der Thaya, Niederösterreich, 3824, Österreich",48.8816934,15.5207916
30,/title/tt0095444/,Killer Klowns from Outer Space,"Santa Cruz Beach Boardwalk, Santa Cruz, California, USA",,"Santa Cruz Beach Boardwalk, Beach Street, Beach & Boardwalk Commercial District, Seabright, Santa Cruz, Santa Cruz County, California, 95060-4619, United States of America",36.96458035,-122.01512714906835
31,/title/tt0095444/,Killer Klowns from Outer Space,"Santa Cruz County, California, USA",,"Santa Cruz County, California, United States of America",37.050096,-121.9905908
32,/title/tt0095444/,Killer Klowns from Outer Space,"Santa Cruz Beach, Santa Cruz, California, USA",,"Santa Cruz, Santa Cruz County, California, United States of America",36.9749416,-122.0285259
33,/title/tt0095444/,Killer Klowns from Outer Space,"231 Union Street,Watsonville, California, USA","(Police station in film, which was at the time of filming the Watsonville Police Department)                        ","231, Union Street, Colache Town, Watsonville, Santa Cruz County, California, 95076, United States of America",36.9093136,-121.75440425000001
34,/title/tt0095444/,Killer Klowns from Outer Space,"Santa Cruz, California, USA",,"Santa Cruz County, California, United States of America",37.050096,-121.9905908
35,/title/tt0387575/,Seed of Chucky,"Los Angeles Center Studios - 450 S. Bixel Street, Downtown, Los Angeles, California, USA",(shot where ambulance pulls up to hospital at 71 mins.)                        ,,,
36,/title/tt0387575/,Seed of Chucky,Romania,,România,45.9852129,24.6859225
37,/title/tt0387575/,Seed of Chucky,USA,,United States,39.7837304,-100.4458825
38,/title/tt0387575/,Seed of Chucky,"Bucharest, Romania",,"Municipiul București, România",44.4361414,26.1027202
39,/title/tt1311067/,Halloween II,"New Milford, Connecticut, USA",(additional filming)                        ,"New Milford, Litchfield County, Connecticut, United States of America",41.5770993,-73.4105803
40,/title/tt1311067/,Halloween II,"Atlanta, Georgia, USA",,"Atlanta, Georgia, United States of America",33.7490987,-84.3901849
41,/title/tt1311067/,Halloween II,"Madison, Georgia, USA",,"Madison County, Georgia, United States of America",34.1307533,-83.1817407
42,/title/tt1311067/,Halloween II,"Newborn, Georgia, USA",(Sheriff Brackett's residence)                        ,"Newborn, Newton County, Georgia, United States of America",33.516099,-83.694614
43,/title/tt1311067/,Halloween II,"Georgia, USA",,"Georgia, United States of America",32.3293809,-83.1137366
44,/title/tt1727776/,Scouts Guide to the Zombie Apocalypse,"Cypress, California, USA",(Lincoln Ave. Shopping Center)                        ,"Cypress, Orange County, California, 90630, United States of America",33.8248235,-118.0399368
45,/title/tt0083767/,Creepshow,"361 Willow Hedge Dr, Monroeville, Pennsylvania, USA","(house in ""Prologue"" / ""Epilogue"" - exterior shots)                        ","361, Willow Hedge Drive, Garden City, Monroeville, Allegheny County, Pennsylvania, 15146, United States of America",40.45358328481402,-79.77182236267042
46,/title/tt0083767/,Creepshow,"600 Squaw Run Rd E, Fox Chapel, Pittsburgh, Pennsylvania, USA","(Grantham Estate - interiors, exteriors, cemetery in ""Father's Day"")                        ",,,
47,/title/tt0083767/,Creepshow,"Margaret Morrison Carnegie Hall, Carnegie Mellon University - 5000 Forbes Avenue, Pittsburgh, Pennsylvania, USA","(Amberson Hall in ""The Crate"")                        ",,,
48,/title/tt0083767/,Creepshow,"Gymnasium, Penn Hall Academy, Monroeville, Pennsylvania, USA",(interiors)                        ,,,
49,/title/tt0083767/,Creepshow,"Ocean County, New Jersey, USA",,"Ocean County, New Jersey, United States of America",39.977818,-74.3319287
50,/title/tt0083767/,Creepshow,"Penn Hall, Penn Hall Academy, Monroeville, Pennsylvania, USA","(laboratory in ""The Crate"", interiors - ""They're Creeping Up On You!"")                        ",,,
51,/title/tt0083767/,Creepshow,"Philadelphia, Pennsylvania, USA",,"Philadelphia, Philadelphia County, Pennsylvania, United States of America",39.9527237,-75.1635262
52,/title/tt10313176/,Nancy Drew,"Vancouver, British Columbia, Canada",,"Vancouver, Metro Vancouver Regional District, British Columbia, Canada",49.2608724,-123.1139529
53,/title/tt10313176/,Nancy Drew,"Horseshoe Bay, West Vancouver, British Columbia, Canada",,"Horseshoe Bay, West Vancouver, Metro Vancouver Regional District, British Columbia, V7W 3H5, Canada",49.3744409,-123.2739191
54,/title/tt10313176/,Nancy Drew,"Cecil Green Park House - 6251 Cecil Green Park Road, Vancouver, British Columbia, Canada",(Episode 5)                        ,"Cecil Green Park House, Cecil Green Park Road, University of British Columbia, Electoral Area A, Metro Vancouver Regional District, British Columbia, V6T 1Z2, Canada",49.27137675,-123.25770394938536
55,/title/tt0119675/,Mimic,"Disused lower platform, Bay subway station, Toronto, Ontario, Canada",,,,
56,/title/tt0119675/,Mimic,"Harris Filtration Plant, Toronto, Ontario, Canada",(opening scene)                        ,,,
57,/title/tt0119675/,Mimic,Canada,,Canada,61.0666922,-107.9917071
58,/title/tt0119675/,Mimic,"Knox College, University of Toronto, Toronto, Ontario, Canada",(as Museum of Natural History)                        ,,,
59,/title/tt0119675/,Mimic,USA,,United States,39.7837304,-100.4458825
60,/title/tt2548396/,The Cloverfield Paradox,"Paramount Studios - 5555 Melrose Avenue, Hollywood, Los Angeles, California, USA",,,,
61,/title/tt7403736/,V-Wars,"Galt, Ontario, Canada",(street scenes)                        ,"Galt, City of Cambridge, Region of Waterloo, Southwestern Ontario, Ontario, N1R 3B2, Canada",43.3589869,-80.3152471
62,/title/tt0822847/,Priest,"El Mirage Dry Lake, California, USA",,"El Mirage Dry Lake, Alegre Lane, San Bernardino County, California, United States of America",34.642436599999996,-117.59821798766575
63,/title/tt0822847/,Priest,"Lucerne Valley, California, USA",,"Lucerne Valley, San Bernardino County, California, 92356, United States of America",34.4436167,-116.9455239
64,/title/tt0822847/,Priest,"Trona Pinnacles - 300 S. Richmond Road, Ridgecrest, California, USA",,,,
65,/title/tt0822847/,Priest,"433 S Spring St, Los Angeles, California, USA",,"433, South Spring Street, Historic Core District, Downtown, Los Angeles, Los Angeles County, California, 90013, United States of America",34.04836973469388,-118.2488378367347
66,/title/tt0822847/,Priest,"Los Angeles, California, USA",,"Los Angeles, Los Angeles County, California, United States of America",34.0536909,-118.2427666
67,/title/tt0822847/,Priest,"Santa Clarita, California, USA",,"Santa Clarita, Los Angeles County, California, United States of America",34.3916641,-118.542586
68,/title/tt0795461/,Scary Movie 5,"Atlanta, Georgia, USA",,"Atlanta, Georgia, United States of America",33.7490987,-84.3901849
69,/title/tt0462322/,Grindhouse,"Luling, Texas, USA",,"Luling, Caldwell County, Texas, 78468, United States of America",29.680314,-97.6473265
70,/title/tt0462322/,Grindhouse,"Austin Studios - 1901 E. 51st Street, Austin, Texas, USA",(studio)                        ,,,
71,/title/tt0462322/,Grindhouse,"Prague, Czech Republic","(""Thanksgiving"" trailer)                        ","Praha, okres Hlavní město Praha, Hlavní město Praha, Praha, Česká republika",50.0874654,14.4212535
72,/title/tt0462322/,Grindhouse,"Buellton, California, USA",,"Buellton, Santa Barbara County, California, 93427, United States of America",34.6134727,-120.1936692
73,/title/tt0462322/,Grindhouse,"Glendale, California, USA",,"Glendale, Los Angeles County, California, United States of America",34.1469416,-118.2478471
74,/title/tt0462322/,Grindhouse,"Santa Clarita, California, USA",,"Santa Clarita, Los Angeles County, California, United States of America",34.3916641,-118.542586
75,/title/tt1855325/,Resident Evil: Retribution,"Cinespace Film Studios, Toronto, Ontario, Canada",,"Cinespace Film Studios, 777, Kipling Avenue, Etobicoke—Lakeshore, Etobicoke, Toronto, Peel, Golden Horseshoe, Ontario, M8Z 5G5, Canada",43.630009799999996,-79.52817339890174
76,/title/tt1855325/,Resident Evil: Retribution,"TTC: Toronto Transit Commission, Subway, Bloor-Danforth Line, Toronto, Ontario, Canada",,,,
77,/title/tt1855325/,Resident Evil: Retribution,"Toronto, Ontario, Canada",,"Toronto, Peel, Golden Horseshoe, Ontario, Canada",43.6534817,-79.3839347
78,/title/tt0116654/,The Island of Dr. Moreau,"Queensland, Australia",,"Queensland, Australia",-22.1646782,144.5844903
79,/title/tt4820370/,Channel Zero,"Selkirk, Manitoba, Canada",(Season 1)                        ,"Selkirk, Winnipeg (city), Manitoba, Canada",50.146986,-96.880188
80,/title/tt4820370/,Channel Zero,"Winnipeg, Manitoba, Canada",(Season 3)                        ,"Winnipeg, Winnipeg (city), Manitoba, Canada",49.8955367,-97.1384584
81,/title/tt1072748/,Winchester,"Winchester Mystery House - 525 S. Winchester Boulevard, San Jose, California, USA",,"Winchester Mystery House, 525, South Winchester Boulevard, Buena Vista, San Jose, Santa Clara County, California, 95128, United States of America",37.3183011,-121.95106318225339
82,/title/tt1072748/,Winchester,"Melbourne, Victoria, Australia",,"Melbourne, City of Melbourne, Victoria, 3000, Australia",-37.8142176,144.9631608
83,/title/tt1072748/,Winchester,"Docklands Studios Melbourne - 476 Docklands Drive, Waterfront City, Docklands, Melbourne, Victoria, Australia",,,,
84,/title/tt1072748/,Winchester,"Labassa, 2 Manor Grove, Caulfield North, Melbourne, Victoria, Australia",,,,
85,/title/tt0080711/,Fade to Black,"302 Market Street, Venice, California, USA",(Eric and Stella Binford's House)                        ,"302, Market Street, Venice, Los Angeles, Los Angeles County, California, 90291, United States of America",33.989891300000004,-118.4696254
86,/title/tt0080711/,Fade to Black,"Hollywood, Los Angeles, California, USA",(some exteriors)                        ,"Hollywood, Los Angeles, Los Angeles County, California, 90028-8127, United States of America",34.0980031,-118.329523
87,/title/tt0080711/,Fade to Black,"Ocean Front Walk, Venice Beach, Venice, Los Angeles, California, USA",,,,
88,/title/tt0432348/,Saw II,"Toronto, Ontario, Canada",,"Toronto, Peel, Golden Horseshoe, Ontario, Canada",43.6534817,-79.3839347
89,/title/tt0120681/,From Hell,"Boscastle, Cornwall, England, UK",,"Boscastle, Cornwall, South West England, England, PL35 0HE, United Kingdom",50.6895365,-4.692369
90,/title/tt0120681/,From Hell,"Crackington Haven, Cornwall, England, UK",,"Crackington Haven, Cornwall, South West England, England, EX23 0JG, United Kingdom",50.7403071,-4.6319668
91,/title/tt0120681/,From Hell,"Prague, Czech Republic",,"Praha, okres Hlavní město Praha, Hlavní město Praha, Praha, Česká republika",50.0874654,14.4212535
92,/title/tt0120681/,From Hell,"St. Barbara's Cathedral, Kutná Hora, Stredoceský, Czech Republic",,,,
93,/title/tt0120681/,From Hell,UK,,United Kingdom,54.7023545,-3.2765753
94,/title/tt1020530/,Eden Lake,"Black Park Lake, Black Park, Iver Heath, Buckinghamshire, England, UK",(Eden Lake)                        ,,,
95,/title/tt1020530/,Eden Lake,"Black Park, Iver Heath, Buckinghamshire, England, UK",(woodland)                        ,"Black Park, Wexham, Iver Heath, Buckinghamshire, South East, England, United Kingdom",51.542492100000004,-0.5441123704462851
96,/title/tt1020530/,Eden Lake,"Pinewood Studios, Iver Heath, Buckinghamshire, England, UK",(studio)                        ,"Pinewood Studios, Pinewood Green, Iver, Iver Heath, Buckinghamshire, South East, England, SL0 0QJ, United Kingdom",51.54831515,-0.5346765566753087
97,/title/tt1020530/,Eden Lake,A40 Westway London UK,(Steve and Jenny driving to Eden Lake after leaving the school)                        ,"Westway, White City Estate, London Borough of Hammersmith and Fulham, London, Greater London, England, W12 7DF, United Kingdom",51.5142574,-0.2419829
98,/title/tt0113409/,In the Mouth of Madness,"Cathedral of the Transfiguration, Markham, Ontario, Canada",(the black church - exterior)                        ,"Cathedral of the Transfiguration, Pope John Paul II Square, Cathedraltown, Markham, York Region, Golden Horseshoe, Ontario, L6C 0J4, Canada",43.89370145,-79.37273395334041
99,/title/tt0113409/,In the Mouth of Madness,"Unionville, Ontario, Canada",(Hobbs End village in New England)                        ,"Unionville, Unionville GO bus loop, Markham, York Region, Golden Horseshoe, Ontario, L3R 4Z8, Canada",43.8520439,-79.3146995
100,/title/tt0113409/,In the Mouth of Madness,"The Unioville Arms, Unionville, Ontario, Canada",(bar - exterior)                        ,,,
101,/title/tt0113409/,In the Mouth of Madness,"King City, Ontario, Canada",,"King City, 7, Station Road, Clearview Heights, King, York Region, Golden Horseshoe, Ontario, L7B 1H5, Canada",43.9201118,-79.5270426
102,/title/tt0113409/,In the Mouth of Madness,"Saulter Street Library, Saulter Street, Toronto, Ontario, Canada",(library)                        ,,,
103,/title/tt0113409/,In the Mouth of Madness,"Markham, Ontario, Canada",,"Markham, York Region, Golden Horseshoe, Ontario, Canada",43.8563707,-79.3376825
104,/title/tt0113409/,In the Mouth of Madness,"Scarborough, Toronto, Ontario, Canada",,"Scarborough, Toronto, Peel, Golden Horseshoe, Ontario, M1P 4N7, Canada",43.773077,-79.257774
105,/title/tt0113409/,In the Mouth of Madness,"University of Toronto, Toronto, Ontario, Canada",,"University of Toronto, King's College Circle, University—Rosedale, Old Toronto, Toronto, Peel, Golden Horseshoe, Ontario, M5S 1A1, Canada",43.663461999999996,-79.39775965337452
106,/title/tt0113409/,In the Mouth of Madness,"Woodbridge, Ontario, Canada",(Woodbridge Motel for motel scene)                        ,"Woodbridge, Vaughan, York Region, Golden Horseshoe, Ontario, L4L 1L2, Canada",43.7848982,-79.5923855
107,/title/tt2023587/,Mama,"Barcelona, Catalonia, Spain",(additional photography)                        ,"Barcelona, Barcelonès, Catalunya, 08001, España",41.3828939,2.1774322
108,/title/tt2023587/,Mama,"Cambridge, Ontario, Canada",,"Cambridge, Region of Waterloo, Southwestern Ontario, Ontario, N1R 1T7, Canada",43.3600536,-80.3123023
109,/title/tt2023587/,Mama,"Parc audiovisual de Catalunya, Terrassa, Catalonia, Spain",(studio)                        ,"Parc Audiovisual de Catalunya, Terrassa, Vallès Occidental, Catalunya, 08221, España",41.59388955,2.0068990736030914
110,/title/tt2023587/,Mama,"Montréal, Québec, Canada",(additional photography)                        ,"Montréal, Agglomération de Montréal, Montréal (06), Québec, Canada",45.4972159,-73.6103642
111,/title/tt0138510/,Idle Hands,"Los Angeles, California, USA",,"Los Angeles, Los Angeles County, California, United States of America",34.0536909,-118.2427666
112,/title/tt0138510/,Idle Hands,"Sony Pictures Studios - 10202 W. Washington Blvd., Culver City, California, USA",(studio)                        ,,,
113,/title/tt0138510/,Idle Hands,"589 East Jackson Street, Pasadena, California, USA",(Molly's house)                        ,"589, East Jackson Street, Orange Heights, Pasadena, Los Angeles County, California, 91104, United States of America",34.163881245614036,-118.13836068421053
114,/title/tt0138510/,Idle Hands,"1025 North Madison Avenue, Pasadena, California, USA",(Pnub's house)                        ,"1025, North Madison Avenue, Orange Heights, Pasadena, Los Angeles County, California, 91104, United States of America",34.16349126530612,-118.13864673469388
115,/title/tt0138510/,Idle Hands,"Santa Clarita, California, USA",,"Santa Clarita, Los Angeles County, California, United States of America",34.3916641,-118.542586
116,/title/tt0089686/,A Nightmare on Elm Street Part 2: Freddy's Revenge,"1428 N. Genesee Avenue, Hollywood, Los Angeles, California, USA",(Jesse's House)                        ,"North Genesee Avenue, West Hollywood, Los Angeles County, California, 90046, United States of America",34.0887479,-118.3584702
117,/title/tt0089686/,A Nightmare on Elm Street Part 2: Freddy's Revenge,"Charles Evans Hughes Jr. High School - 5607 Capistrano, Woodland Hills, Los Angeles, California, USA",(Springwood High School)                        ,,,
118,/title/tt0089686/,A Nightmare on Elm Street Part 2: Freddy's Revenge,"Los Angeles, California, USA",,"Los Angeles, Los Angeles County, California, United States of America",34.0536909,-118.2427666
119,/title/tt0089686/,A Nightmare on Elm Street Part 2: Freddy's Revenge,"E Avenue R12 & Mahonia Avenue, Palmdale, California, USA",(Missed Bus Stop at this corner)                        ,,,
120,/title/tt3908142/,The Love Witch,"Eureka, California, USA",,"Eureka, Humboldt County, California, United States of America",40.8020712,-124.1636729
121,/title/tt3908142/,The Love Witch,"Arcata Plaza, Arcata, California, USA",,"Arcata Plaza, Alliance, Arcata, Humboldt County, California, United States of America",40.8684948,-124.08646871394117
122,/title/tt3908142/,The Love Witch,"Cafe Club Fais Do-Do, 5257 W Adams Blvd, Los Angeles, California, USA",(burlesque scenes)                        ,"Cafe Club Fais Do Do, 5257, West Adams Boulevard, West Adams, Los Angeles, Los Angeles County, California, 90016, United States of America",34.0327381,-118.35710470408392
123,/title/tt3908142/,The Love Witch,USA,,United States,39.7837304,-100.4458825
124,/title/tt0080516/,The Changeling,"Stimson-Green Mansion - 1204 Minor Avenue, Seattle, Washington, USA",,,,
125,/title/tt0080516/,The Changeling,"Hotel Europe, Vancouver, British Columbia, Canada",,"Hotel Europe, 43, Powell Street, Maple Tree Square, Gastown, Downtown, Vancouver, Metro Vancouver Regional District, British Columbia, V6B 1G7, Canada",49.28344765,-123.10334656490215
126,/title/tt0080516/,The Changeling,"New York City, New York, USA",(Opening scenes)                        ,"New York, United States of America",40.7127281,-74.0060152
127,/title/tt0080516/,The Changeling,"29th Street, West Vancouver, British Columbia, Canada",(Mrs. Grey's House)                        ,"29th Street, Altamont, West Vancouver, Metro Vancouver Regional District, British Columbia, V7V 1L3, Canada",49.3401582,-123.1923527
128,/title/tt0080516/,The Changeling,"Boeing Field - 7149 Perimeter Road, Seattle, Washington, USA",(The airport scene)                        ,"Boeing Field, 7277, Perimeter Road South, Holly Park, Seattle, King County, Washington, 98108, United States of America",47.5298443,-122.30089181028575
129,/title/tt0080516/,The Changeling,"Rainier Building - 1301 Fifth Avenue, Seattle, Washington, USA",,,,
130,/title/tt0080516/,The Changeling,"University of Washington, Seattle, Washington, USA",,"University of Washington, Northeast Campus Parkway, Portage Bay, University District, Seattle, King County, Washington, 98015, United States of America",47.6543238,-122.30800894320257
131,/title/tt0080516/,The Changeling,"Lake Washington, Washington, USA",,"Lake Washington, King County, Washington, United States of America",47.6291168,-122.26046753942362
132,/title/tt0080516/,The Changeling,"Vancouver, British Columbia, Canada",,"Vancouver, Metro Vancouver Regional District, British Columbia, Canada",49.2608724,-123.1139529
133,/title/tt1959332/,American Mary,"Vancouver, British Columbia, Canada",,"Vancouver, Metro Vancouver Regional District, British Columbia, Canada",49.2608724,-123.1139529
134,/title/tt0107254/,Jason Goes to Hell: The Final Friday,"24035 Eagle Mountain Street West Hills, California, USA",(Jason Voorhees 's House)                        ,,,
135,/title/tt0107254/,Jason Goes to Hell: The Final Friday,USA,,United States,39.7837304,-100.4458825
136,/title/tt0107254/,Jason Goes to Hell: The Final Friday,"Thousand Oaks, California, USA",(Diner)                        ,"Thousand Oaks, Ventura County, California, United States of America",34.17142715,-118.91058772974445
137,/title/tt1270761/,Don't Be Afraid of the Dark,"Mount Macedon, Victoria, Australia",,"Mount Macedon, Shire of Macedon Ranges, Victoria, 3440, Australia",-37.3875384,144.5757825
138,/title/tt1270761/,Don't Be Afraid of the Dark,"Central City Studios, Melbourne, Victoria, Australia",(studio)                        ,,,
139,/title/tt0303816/,Cabin Fever,"Mt. Airy, North Carolina, USA",(cabin exteriors)                        ,"Mount Airy, Surry County, North Carolina, 27030, United States of America",36.4993297,-80.6071609
140,/title/tt0303816/,Cabin Fever,"Winston-Salem, North Carolina, USA",,"Winston-Salem, Forsyth County, North Carolina, United States of America",36.0998131,-80.2440518
141,/title/tt0303816/,Cabin Fever,"59 Court Square, Mocksville, North Carolina, USA",(Town)                        ,"59, Court Square, Booetown, Mocksville, Davie County, North Carolina, 27028, United States of America",35.89443645016483,-80.56148378620327
142,/title/tt0303816/,Cabin Fever,"Bronson Canyon, Griffith Park - 4730 Crystal Springs Drive, Los Angeles, California, USA",(Underage Drinking Party Scene)                        ,,,
143,/title/tt0303816/,Cabin Fever,"Bronson Caves, Bronson Canyon, Griffith Park - 4730 Crystal Springs Drive, Los Angeles, California, USA",,,,
144,/title/tt0303816/,Cabin Fever,"Coleridge, North Carolina, USA",(Dam)                        ,"Coleridge, Randolph County, North Carolina, United States of America",35.6401395,-79.6153046
145,/title/tt0303816/,Cabin Fever,USA,,United States,39.7837304,-100.4458825
146,/title/tt0780622/,Teeth,"Austin, Texas, USA",,"Austin, Travis County, Texas, United States of America",30.2711286,-97.7436995
147,/title/tt0780622/,Teeth,USA,,United States,39.7837304,-100.4458825
148,/title/tt1686821/,Vampire Academy,"Pinewood Studios, Iver Heath, Buckinghamshire, England, UK",,"Pinewood Studios, Pinewood Green, Iver, Iver Heath, Buckinghamshire, South East, England, SL0 0QJ, United Kingdom",51.54831515,-0.5346765566753087
149,/title/tt1686821/,Vampire Academy,"University College London, Gower Street, Bloomsbury, London, England, UK",(Witness)                        ,"University College London, University Street, Somers Town, London Borough of Camden, London, Greater London, England, WC1E 6DE, United Kingdom",51.52412645,-0.13293023735954784
150,/title/tt1686821/,Vampire Academy,"Brent Cross Shopping Centre, Hendon, London, England, UK",(shopping scene)                        ,"Brent Cross Shopping Centre, Hendon Way, Brent Cross, London Borough of Barnet, London, Greater London, England, NW4 3RB, United Kingdom",51.5764561,-0.22343784482304344
151,/title/tt1686821/,Vampire Academy,"The Charterhouse, Charterhouse Square, London, England, UK",(The Charterhouse)                        ,"The Charterhouse, Charterhouse Square, Farringdon, Clerkenwell, London Borough of Islington, London, Greater London, England, EC1M 6AX, United Kingdom",51.5214637,-0.0997845
152,/title/tt1686821/,Vampire Academy,USA,,United States,39.7837304,-100.4458825
153,/title/tt1082807/,The Belko Experiment,"Bogotá, Colombia",,"Bogotá, Bogotá Distrito Capital, 11001, Colombia",4.59808,-74.0760439
154,/title/tt0120524/,Wishmaster,"Wilmington, Los Angeles, California, USA",,"Wilmington, Los Angeles, Los Angeles County, California, 90744-4522, United States of America",33.7800164,-118.2625095
155,Code,Show Name,Location,Scene,"Location, Tucker County, West Virginia, United States of America",39.2138905,-79.6371124
156,/title/tt9691136/,Shadow in the Cloud,"Auckland, New Zealand",,"Auckland, 1010, New Zealand",-36.852095,174.7631803
157,/title/tt5690360/,Slender Man,"New England Studios, Devens, Massachusetts, USA",,,,
158,/title/tt0111880/,American Gothic,"Wilmington, North Carolina, USA",,"Wilmington, New Hanover County, North Carolina, United States of America",34.2257282,-77.9447107
159,/title/tt0093605/,Near Dark,"Casa Grande, Arizona, USA",,"Casa Grande, Pinal County, Arizona, United States of America",32.8795022,-111.7573521
160,/title/tt0093605/,Near Dark,"Eloy, Arizona, USA",,"Eloy, Pinal County, Arizona, United States of America",32.7551703,-111.5534932
161,/title/tt0093605/,Near Dark,"Oklahoma, USA",,"Oklahoma, United States of America",34.9550817,-97.2684063
162,/title/tt0093605/,Near Dark,"Florence, Arizona, USA",,"Florence, Pinal County, Arizona, 85132, United States of America",33.0314508,-111.3873431
163,/title/tt2099556/,Antiviral,"Toronto, Ontario, Canada",,"Toronto, Peel, Golden Horseshoe, Ontario, Canada",43.6534817,-79.3839347
164,/title/tt2099556/,Antiviral,"Bel-Air Grill, 673 Barton Street East, Hamilton, Ontario, Canada",(cafe where Syd is picked up by Portland & West)                        ,,,
165,/title/tt0077681/,The Hills Have Eyes,"Victorville, California, USA",,"Victorville, San Bernardino County, California, United States of America",34.5361067,-117.2911565
166,/title/tt7394674/,Blood Quantum,"Listuguj, Quebec, Canada",,"Listuguj, Communautés autochtones, Gaspésie–Îles-de-la-Madeleine, Québec, G0C 2R0, Canada",48.0135617,-66.7012149
167,/title/tt7394674/,Blood Quantum,"Ste. Anne's Church, Listuguj, Quebec, Canada",(Combat venue late in movie)                        ,,,
168,/title/tt6859762/,The Little Stranger,"Langleybury House, Langleybury, King's Langley, Hertfordshire, England, UK",(Hundreds Hall interiors and present day exteriors)                        ,,,
169,/title/tt6859762/,The Little Stranger,"Market Square, Winslow, Buckinghamshire, England, UK",(Granger and Faraday's Surgery)                        ,"Market Square, Horn Street, Winslow, Buckinghamshire, South East, England, MK18 3AB, United Kingdom",51.9414115,-0.8818202238315973
170,/title/tt0089885/,Re-Animator,"S&A Studios, Los Angeles, California, USA",(studio) (as S and A Studios)                        ,,,
171,/title/tt0091223/,House,"329 Melrose Ave, Monrovia, California, USA",,"329, Melrose Avenue, Monrovia, Los Angeles County, California, 91016, United States of America",34.15798850168476,-118.00685611830528
172,/title/tt0091223/,House,"Los Angeles, California, USA",,"Los Angeles, Los Angeles County, California, United States of America",34.0536909,-118.2427666
173,/title/tt0073705/,Shivers,"200 Rue de Gaspé, Île-des-Soeurs, Montréal, Québec, Canada",(the Starliner apartment building)                        ,"200, Rue De Gaspé, Île-des-Sœurs, Verdun, Montréal, Agglomération de Montréal, Montréal (06), Québec, H3E 1H2, Canada",45.453465,-73.546563
174,/title/tt0306047/,Scary Movie 3,"Washington, District of Columbia, USA",,"Washington, District of Columbia, 20230, United States of America",38.8949924,-77.0365581
175,/title/tt0306047/,Scary Movie 3,"Porteau Cove Provincial Park, British Columbia, Canada",,"Porteau Cove Provincial Park, Sea to Sky Highway, Area D (Elaho/Garibaldi), Squamish-Lillooet Regional District, British Columbia, Canada",49.5561601,-123.23890481383675
176,/title/tt0306047/,Scary Movie 3,"Vancouver, British Columbia, Canada",,"Vancouver, Metro Vancouver Regional District, British Columbia, Canada",49.2608724,-123.1139529
177,/title/tt0306047/,Scary Movie 3,"West Broadway, Vancouver, British Columbia, Canada",,"West Broadway, South Granville, Fairview, Vancouver, Metro Vancouver Regional District, British Columbia, V6H 3G7, Canada",49.26364,-123.1384107
178,/title/tt2230358/,Curse of Chucky,"Manitoba, Canada",,"Manitoba, Canada",55.001251,-97.001038
179,/title/tt2230358/,Curse of Chucky,Canada,,Canada,61.0666922,-107.9917071
180,/title/tt1622979/,Final Destination 5,"Vancouver, British Columbia, Canada",(September 2010 - December 2010)                        ,"Vancouver, Metro Vancouver Regional District, British Columbia, Canada",49.2608724,-123.1139529
181,/title/tt1622979/,Final Destination 5,"Lions Gate Bridge, Lions Gate Bridge Road, Vancouver, British Columbia, Canada",(North Bay Bridge)                        ,,,
182,/title/tt0085407/,The Dead Zone,"Niagara-on-the-Lake, Ontario, Canada",(Downtown and gazebo scenes)                        ,"Niagara-on-the-Lake, Niagara Region, Golden Horseshoe, Ontario, Canada",43.2556116,-79.0723264
183,/title/tt0085407/,The Dead Zone,"Orono, Ontario, Canada",(Inside town hall scene at the end of the film)                        ,"Orono, Durham Region, Golden Horseshoe, Ontario, L0B 1M0, Canada",43.975028,-78.616447
184,/title/tt0085407/,The Dead Zone,"Stouffville, Ontario, Canada",(Summitview public school at 6551 Main St.)                        ,"Stouffville, Main Street Stouffville, Downtown Stouffville, Whitchurch-Stouffville, York Region, Golden Horseshoe, Ontario, L4A 2S5, Canada",43.9708746,-79.2500689
185,/title/tt0085407/,The Dead Zone,"176 John Street East, Niagara-on-the-Lake, Ontario, Canada",(Weizak clinic)                        ,"John Street East, Niagara-on-the-Lake, Niagara Region, Golden Horseshoe, Ontario, L0S 1J0, Canada",43.2463113,-79.0735926
186,/title/tt0085407/,The Dead Zone,"Byron Street, Niagara-on-the-Lake, Ontario, Canada",(Johnny's house in front of campaign podium in city park)                        ,"Byron Street, Niagara-on-the-Lake, Niagara Region, Golden Horseshoe, Ontario, L0S 1J0, Canada",43.2540568,-79.0661051
187,/title/tt0085407/,The Dead Zone,"284 Queen Street, Niagara-on-the-Lake, Ontario, Canada",(Roger Stuart's manor)                        ,"284, Queen Street, Niagara-on-the-Lake, Niagara Region, Golden Horseshoe, Ontario, L0S 1J0, Canada",43.259095824999996,-79.07976277916667
188,/title/tt0155975/,Psycho,"Phoenix, Arizona, USA",,"Phoenix, Maricopa County, Arizona, United States of America",33.4484367,-112.0741417
189,/title/tt0155975/,Psycho,"Hotel Westward Ho, Phoenix, Arizona, USA",(hotel at the beginning)                        ,,,
190,/title/tt0155975/,Psycho,"Stage 12, Universal Studios - 100 Universal City Plaza, Universal City, California, USA",(studio)                        ,,,
191,/title/tt0155975/,Psycho,USA,,United States,39.7837304,-100.4458825
192,/title/tt0092240/,The Wraith,"2755 East Benson Highway, Tucson, Arizona, USA",(Big Kay's Burgers)                        ,"East Benson Highway, Emery Park, Tucson, Pima County, Arizona, 85714, United States of America",32.1664042,-110.9404361
193,/title/tt0092240/,The Wraith,"Sabino Canyon, Tucson, Arizona, USA",,"North Sabino Canyon Road, El Gheko, Tucson, Pima County, Arizona, 85750, United States of America",32.2432064,-110.8406722
194,/title/tt0092240/,The Wraith,"W Ajo Way, Tucson, Arizona, USA",(Packard Walsh's garage - it was located by the service entrance to the Kennedy Park Fiesta Area)                        ,"West Ajo Way, Tucson, Pima County, Arizona, 85726, United States of America",32.1778001,-111.003941
195,/title/tt0092240/,The Wraith,"Catalina Highway, Tucson, Arizona, USA",,"Catalina, Pima County, Arizona, 85739, United States of America",32.5000731,-110.9212146
196,/title/tt0092240/,The Wraith,"Tucson, Arizona, USA",,"Tucson, Pima County, Arizona, United States of America",32.2228765,-110.9748477
197,/title/tt0092240/,The Wraith,USA,,United States,39.7837304,-100.4458825
198,/title/tt0120877/,Vampires,"Historic Plaza Hotel, 230 Plaza Park, Las Vegas, New Mexico, USA",(Hotel where Montoya and Katrina are staying until Jack Crow's arrival)                        ,,,
199,/title/tt0120877/,Vampires,"Las Vegas, New Mexico, USA",,"Las Vegas, San Miguel County, New Mexico, 87701, United States of America",35.5939325,-105.2238969
200,/title/tt0120877/,Vampires,"Cerrillos, New Mexico, USA",,"Los Cerrillos, Santa Fe County, New Mexico, United States of America",35.4369196,-106.1259178
201,/title/tt0120877/,Vampires,"San Juan Pueblo, New Mexico, USA",,"Ohkay Owingeh, Rio Arriba County, New Mexico, United States of America",36.0536225,-106.0704071
202,/title/tt0120877/,Vampires,"New Mexico, USA",,"New Mexico, United States of America",34.5708167,-105.993007
203,/title/tt9173418/,The Boy: Bramhs' Curse,"Victoria, British Columbia, Canada",(location)                        ,"Victoria, Capital Regional District, British Columbia, Canada",48.4283182,-123.3649533
204,/title/tt9173418/,The Boy: Bramhs' Curse,"British Columbia, Canada",,"British Columbia, Canada",55.001251,-125.002441
205,/title/tt0086541/,Videodrome,"6 Wellington Street West, Toronto, Ontario, Canada",(CIVIC TV)                        ,"Wellington Street West, Spadina—Fort York, Old Toronto, Toronto, Peel, Golden Horseshoe, Ontario, M5V 3P6, Canada",43.6450081,-79.390471
206,/title/tt0086541/,Videodrome,"Fleetwood Apartments, 64 St. Clair Ave. W., Toronto, Ontario, Canada",(Max Renn's apartment exteriors)                        ,,,
207,/title/tt0086541/,Videodrome,"950 King Street West, Toronto, Ontario, Canada",(hotel meeting)                        ,"950, King Street West, Spadina—Fort York, Old Toronto, Toronto, Peel, Golden Horseshoe, Ontario, M5V 3H5, Canada",43.6422106,-79.4117685
208,/title/tt0086541/,Videodrome,"Ontario, Canada",,"Ontario, Canada",50.000678,-86.000977
209,/title/tt0318627/,Resident Evil: Apocalypse,"Toronto, Ontario, Canada",,"Toronto, Peel, Golden Horseshoe, Ontario, Canada",43.6534817,-79.3839347
210,/title/tt0318627/,Resident Evil: Apocalypse,"Toronto City Hall - 100 Queen Street West, Toronto, Ontario, Canada",,"Toronto City Hall, 100, Queen Street West, Spadina—Fort York, Old Toronto, Toronto, Peel, Golden Horseshoe, Ontario, M5H 2N2, Canada",43.6536032,-79.38400547469666
211,/title/tt0318627/,Resident Evil: Apocalypse,"Hamilton, Ontario, Canada","(Hamilton Cemetery, Hamilton, Ontario, Canada)                        ","Hamilton, Golden Horseshoe, Ontario, L8P 0B3, Canada",43.2560802,-79.8728583
212,/title/tt0318627/,Resident Evil: Apocalypse,"Winnipeg, Manitoba, Canada",,"Winnipeg, Winnipeg (city), Manitoba, Canada",49.8955367,-97.1384584
213,/title/tt0318627/,Resident Evil: Apocalypse,"Berlin, Germany",,"Berlin, 10117, Deutschland",52.5170365,13.3888599
214,/title/tt0318627/,Resident Evil: Apocalypse,"Cinespace Film Studios, Toronto, Ontario, Canada",(soundstage)                        ,"Cinespace Film Studios, 777, Kipling Avenue, Etobicoke—Lakeshore, Etobicoke, Toronto, Peel, Golden Horseshoe, Ontario, M8Z 5G5, Canada",43.630009799999996,-79.52817339890174
215,/title/tt0318627/,Resident Evil: Apocalypse,Germany,,Deutschland,51.0834196,10.4234469
216,/title/tt0091778/,Poltergeist II: The Other Side,"1589 Homewood Dr., Altadena, California, USA",(Gramma-Jess's house)                        ,"1589, Homewood Drive, Altadena, Los Angeles County, California, 91001, United States of America",34.18913972881356,-118.11773345762711
217,/title/tt0091778/,Poltergeist II: The Other Side,"Chinle, Arizona, USA",,"Chinle, Apache County, Arizona, 86503, United States of America",36.150143400000005,-109.56706853699023
218,/title/tt0091778/,Poltergeist II: The Other Side,"21101 Celtic Street, Chatsworth, Los Angeles, California, USA",(as Cuesta Verde Estates)                        ,"Celtic Street, Chatsworth, Los Angeles, Los Angeles County, California, 91311-3410, United States of America",34.2705314,-118.5800404
219,/title/tt0055657/,The Alfred Hitchcock Hour,"Revue Studios, Hollywood, Los Angeles, California, USA",,,,
220,/title/tt0079844/,Salem's Lot,"850 Bluff Street, Ferndale, California, USA",(Marsten House)                        ,"850, Bluff Street, Ferndale, Humboldt County, California, 95536, United States of America",40.57296785795271,-124.2605027215873
221,/title/tt0079844/,Salem's Lot,"248 Francis Street, Ferndale, California, USA",(Crockett Realty)                        ,"248, Francis Street, Ferndale, Humboldt County, California, 95536, United States of America",40.5753584753554,-124.2650886956077
222,/title/tt0079844/,Salem's Lot,"Ferndale High School - 1231 Main Street, Ferndale, California, USA",(Jason Burke's School)                        ,"Ferndale High School, Arlington Avenue, Ferndale, Humboldt County, California, United States of America",40.58600165,-124.26040639971852
223,/title/tt0079844/,Salem's Lot,"Ferndale, California, USA",,"Ferndale, Humboldt County, California, United States of America",40.576241,-124.263944
224,/title/tt0079844/,Salem's Lot,"Stage 9, Warner Brothers Burbank Studios - 4000 Warner Boulevard, Burbank, California, USA",,,,
225,/title/tt4520364/,Morgan,"Cairndhu House, Larne, County Antrim, Northern Ireland, UK",(Exterior House)                        ,,,
226,/title/tt4520364/,Morgan,"Coquitlam, British Columbia, Canada",(opening scene)                        ,"Coquitlam, Metro Vancouver Regional District, British Columbia, Canada",49.2842958,-122.793281
227,/title/tt4520364/,Morgan,"Northern Ireland, UK",,"Northern Ireland, United Kingdom",54.6294982,-6.7654416
228,/title/tt4520364/,Morgan,UK,,United Kingdom,54.7023545,-3.2765753
229,/title/tt4954522/,Grave,"Université de Liège, Sart-Tilman, Liège, Wallonia, Belgium",(veterinary college)                        ,,,
230,/title/tt4954522/,Grave,Belgium,,België / Belgique / Belgien,50.6402809,4.6667145
231,/title/tt0301470/,Jeepers Creepers 2,"Tejon Ranch, California, USA",,"Tejon Court, Indian Meadows, Simi Valley, Ventura County, California, 93062, United States of America",34.2868,-118.684392
232,/title/tt8816194/,Come to Daddy,"Tofino, British Columbia, Canada",,"Tofino, Alberni-Clayoquot Regional District, British Columbia, V0R 2Z0, Canada",49.1529643,-125.9047083
233,/title/tt8816194/,Come to Daddy,"Vancouver, British Columbia, Canada",,"Vancouver, Metro Vancouver Regional District, British Columbia, Canada",49.2608724,-123.1139529
234,/title/tt0111686/,Wes Craven's New Nightmare,"Gothic Avenue / San Fernando Mission Boulevard, USA",(Heather drives to Wes' house)                        ,,,
235,/title/tt0111686/,Wes Craven's New Nightmare,"Los Angeles, California, USA",,"Los Angeles, Los Angeles County, California, United States of America",34.0536909,-118.2427666
236,/title/tt0083722/,Cat People,"617 Ursulines Avenue, New Orleans, Louisiana, USA",(seafood/oyster Bar)                        ,"617, Ursulines Avenue, French Market, Treme, New Orleans, Orleans Parish, Louisiana, 70116, United States of America",29.9609699,-90.0613279
237,/title/tt0083722/,Cat People,"591 Esplanade Ave, New Orleans, Louisiana, USA",(Gallier House Exteriors)                        ,"591, Esplanade Avenue, French Market, Treme, New Orleans, Orleans Parish, Louisiana, 70116, United States of America",29.962757857142858,-90.05873026530612
238,/title/tt0083722/,Cat People,"1031 N Claiborne Avenue, New Orleans, Louisiana, USA",(church)                        ,"1031, North Claiborne Avenue, Vieux Carre Historic District, Treme, New Orleans, Orleans Parish, Louisiana, 70117, United States of America",29.96728195,-90.0710364
239,/title/tt0083722/,Cat People,"1148 Annunciation St, New Orleans, Louisiana, USA",(panther in motel)                        ,"1148, Annunciation Street, Vieux Carre Historic District, Lower Garden District, New Orleans, Orleans Parish, Louisiana, 70130, United States of America",29.938569881964437,-90.06848666167197
240,/title/tt0083722/,Cat People,"Los Angeles County Arboretum & Botanic Garden - 301 N. Baldwin Avenue, Arcadia, California, USA",,,,
241,/title/tt0083722/,Cat People,"Piru, California, USA",,"Piru, Ventura County, California, 93040, United States of America",34.4156137,-118.7927456
242,/title/tt0083722/,Cat People,"Universal Studios - 100 Universal City Plaza, Universal City, California, USA",,,,
243,/title/tt0093624/,Night of the Demons,"South Central Los Angeles, Los Angeles, California, USA",,,,
244,/title/tt0021884/,Frankenstein,"Little Europe, Backlot, Universal Studios - 100 Universal City Plaza, Universal City, California, USA",,,,
245,/title/tt0021884/,Frankenstein,"Busch Gardens - S. Orange Grove Blvd, Pasadena, California, USA",(convalescent scene)                        ,,,
246,/title/tt0021884/,Frankenstein,"Vasquez Rocks Natural Area Park - 10700 W. Escondido Canyon Rd., Agua Dulce, California, USA",(Henry separates from the group and is found by the monster with torch in his hand)                        ,,,
247,/title/tt0021884/,Frankenstein,"Stage 12, Universal Studios - 100 Universal City Plaza, Universal City, California, USA",,,,
248,/title/tt0414982/,Final Destination 3,"Playland Amusement Park, Pacific National Exhibition Grounds, Vancouver, British Columbia, Canada",('The Corkscrew' rollercoater)                        ,,,
249,/title/tt0414982/,Final Destination 3,"University of British Columbia, Robson Square Campus - 800 Robson Street, Vancouver, British Columbia, Canada",(training room)                        ,,,
250,/title/tt0414982/,Final Destination 3,"Queens Ave, New Westminster, British Columbia, Canada",(Frankie's Death)                        ,"Queens Avenue, Queens Park, New Westminster, Metro Vancouver Regional District, British Columbia, V3L 2G1, Canada",49.2108344,-122.905865
251,/title/tt0805570/,The Midnight Meat Train,"Metro Station - 7th & Flower Streets, Downtown, Los Angeles, California, USA",,,,
252,/title/tt0805570/,The Midnight Meat Train,"Burbank, California, USA",,"Burbank, Los Angeles County, California, United States of America",34.1816482,-118.3258554
253,/title/tt0805570/,The Midnight Meat Train,"Los Angeles, California, USA",,"Los Angeles, Los Angeles County, California, United States of America",34.0536909,-118.2427666
254,/title/tt0805570/,The Midnight Meat Train,"Quality Coffee Shop - 1238 West 7th Street, Los Angeles, California, USA",,,,
255,/title/tt3612032/,Wrong Turn 6: Last Resort,Bulgaria,,Бългaрия,42.6073975,25.4856617
256,/title/tt3171764/,Mamula,"Pancevo, Serbia",(underwater scenes)                        ,"Панчево, Град Панчево, Јужнобанатски управни округ, Војводина, 26101, Србија (Serbia)",44.8705686,20.6399643
257,/title/tt3171764/,Mamula,"Belgrade, Serbia",(studio)                        ,"Београд, Град Београд, Централна Србија, 11000, Србија (Serbia)",44.8178131,20.4568974
258,/title/tt4094724/,The Purge: Election Year,"Woonsocket, Rhode Island, USA",(Location)                        ,"Woonsocket, Providence County, Rhode Island, 02895, United States of America",42.0028761,-71.5147839
259,/title/tt12298506/,Black Box,"New Orleans, Louisiana, USA",,"New Orleans, Orleans Parish, Louisiana, United States of America",29.9499323,-90.0701156
260,/title/tt7153766/,Unsane,"Summit Park Hospital, Pomona, New York, USA",(Highland Creek Behavioral Center)                        ,,,
261,/title/tt7153766/,Unsane,"Mamaroneck Ave, White Plains, New York, USA",(street scenes)                        ,"Mamaroneck Avenue, Ridgeway, White Plains, Westchester County, New York, 10605, United States of America",41.0164166,-73.7564593
262,/title/tt7153766/,Unsane,USA,,United States,39.7837304,-100.4458825
263,/title/tt7153766/,Unsane,"New York, USA",,"New York, United States of America",40.7127281,-74.0060152
264,/title/tt2762506/,Bacurau,"Parelhas, Rio Grande do Norte, Brazil",,"Parelhas, Região Geográfica Imediata de Caicó, Região Geográfica Intermediária de Caicó, Rio Grande do Norte, Região Nordeste, 59360-000, Brasil",-6.691369,-36.6584475
265,/title/tt2762506/,Bacurau,"Acari, State of Rio Grande do Norte, Brazil",(Fazenda Tarairu)                        ,"Acari, Região Geográfica Imediata de Currais Novos, Região Geográfica Intermediária de Caicó, Rio Grande do Norte, Região Nordeste, Brasil",-6.4364689,-36.6394777
266,/title/tt2762506/,Bacurau,Brazil,,Brasil,-10.3333333,-53.2
267,/title/tt2762506/,Bacurau,"Pervado de Barra, Rio Grande do Norte, Brazil",(Bacurau)                        ,,,
268,/title/tt0103873/,Braindead,"Botanic Garden, Wellington, New Zealand",(Pram in the park sequence)                        ,,,
269,/title/tt0103873/,Braindead,"Rodrigo Rd & Sutherland Rd, Wellington, New Zealand",(Paquita's store)                        ,,,
270,/title/tt0103873/,Braindead,"Wairarapa Coast, Wairarapa, New Zealand",,,,
271,/title/tt0103873/,Braindead,"Wellington, New Zealand",,"Wellington, Wellington City, Wellington, 6011, New Zealand",-41.2887953,174.7772114
272,/title/tt0103873/,Braindead,"Wellington Zoo, Newtown, Wellington, New Zealand",(Zoo scenes)                        ,,,
273,/title/tt0103873/,Braindead,"The Pinnacles, Wairarapa, New Zealand",,"The Pinnacles, Cape Palliser Road, Whangaimoana, Martinborough Community, South Wairarapa District, Wellington, 5772, New Zealand",-41.44692455,175.24662028301282
274,/title/tt0082533/,The Howling,"Mendocino Woodlands Camp - 39350 Little Lake Road, Mendocino, California, USA",,,,
275,/title/tt0082533/,The Howling,"Hollywood, Los Angeles, California, USA",,"Hollywood, Los Angeles, Los Angeles County, California, 90028-8127, United States of America",34.0980031,-118.329523
276,/title/tt0082533/,The Howling,"2715 N Vermont Canyon Road, Los Angeles, California, USA",(Karen and Donna's tennis scene)                        ,"2715, Vermont Canyon Road, Griffith Park, Los Angeles, Los Angeles County, California, 90027, United States of America",34.118045714285714,-118.29400357142858
277,/title/tt3358020/,Kiseijû: Sei no kakuritsu,"Tokyo, Japan",,"東京都, 日本 (Japan)",35.6828387,139.7594549
278,/title/tt0370263/,AVP: Alien vs. Predator,France,,France,46.603354,1.8883335
279,/title/tt0370263/,AVP: Alien vs. Predator,"CKD Factory, Vysocany, Prague, Czech Republic",,,,
280,/title/tt0370263/,AVP: Alien vs. Predator,Czech Republic,,Česko,49.8167003,15.4749544
281,/title/tt0370263/,AVP: Alien vs. Predator,"Prague Studios, Prague, Czech Republic",,,,
282,Code,Show Name,Location,Scene,"Location, Tucker County, West Virginia, United States of America",39.2138905,-79.6371124
283,/title/tt0077766/,Jaws 2,"Okaloosa Island, Florida, USA",,"Okaloosa County, Florida, United States of America",30.6765961,-86.6037748
284,/title/tt0077766/,Jaws 2,"Gulf Islands National Seashore, Florida, USA",,"Gulf Islands National Seashore, Okaloosa County, Florida, United States of America",30.3899597,-86.52111127595626
285,/title/tt0077766/,Jaws 2,"Harthaven, Martha's Vineyard, Massachusetts, USA",,,,
286,/title/tt0077766/,Jaws 2,"Katama, Martha's Vineyard, Massachusetts, USA",,,,
287,/title/tt0077766/,Jaws 2,"Baja, Mexico",(Garibaldi Damselfish and kelp beds)                        ,"Baja, Calle Río Lerma, Cuauhtémoc, Ciudad de México, 06500, México",19.4278954,-99.1699147
288,/title/tt0077766/,Jaws 2,"Edgartown, Martha's Vineyard, Massachusetts, USA",,,,
289,/title/tt0077766/,Jaws 2,"East Chop, Martha's Vineyard, Massachusetts, USA",,,,
290,/title/tt0077766/,Jaws 2,"Martha's Vineyard, Massachusetts, USA",,"Martha's Vineyard, West Tisbury, Dukes County, Massachusetts, United States of America",41.3918832,-70.62085427857699
291,/title/tt0077766/,Jaws 2,"Menemsha, Martha's Vineyard, Massachusetts, USA",,,,
292,/title/tt0077766/,Jaws 2,"Sengekontacket Pond, Martha's Vineyard, Massachusetts, USA",,,,
293,/title/tt0077766/,Jaws 2,"Squibnocket, Martha's Vineyard, Massachusetts, USA",,,,
294,/title/tt0077766/,Jaws 2,"Vineyard Haven, Massachusetts, USA",,"Vineyard Haven, Dukes County, Massachusetts, 02568, United States of America",41.4542914,-70.6038026
295,/title/tt0099582/,Flatliners,"Museum of Science & Industry - 57th & Lake Shore Drive, Jackson Park, Hyde Park, Chicago, Illinois, USA",(exteriors: Tait Building)                        ,,,
296,/title/tt0099582/,Flatliners,"Cotati, California, USA",(Kiefers boyhood backflashes)                        ,"Cotati, Sonoma County, California, 94931, United States of America",38.3266798,-122.7068441
297,/title/tt0099582/,Flatliners,"Bensenville, Illinois, USA",,"Bensenville, DuPage County, Illinois, 60106, United States of America",41.9538384,-87.9431781
298,/title/tt0099582/,Flatliners,"Stage 15, Warner Brothers Burbank Studios - 4000 Warner Boulevard, Burbank, California, USA",,,,
299,/title/tt0099582/,Flatliners,"Penn Central Freight Yards, Near West Side, Chicago, Illinois, USA",,,,
300,/title/tt0099582/,Flatliners,"Graceland Cemetery - 4001 N. Clark Street, Uptown, Chicago, Illinois, USA",(Cemetery)                        ,,,
301,/title/tt0114825/,Vampire in Brooklyn,"Brooklyn, New York City, New York, USA",,"Brooklyn, Kings County, New York, United States of America",40.6501038,-73.9495823
302,/title/tt2975578/,The Purge: Anarchy,"Los Angeles, California, USA",,"Los Angeles, Los Angeles County, California, United States of America",34.0536909,-118.2427666
303,/title/tt2975578/,The Purge: Anarchy,"Silver Lake Medical Center - 1711 W. Temple St, Los Angeles, California, USA","(ending scene when ""Sergeant"" is being taken to the hospital.)                        ","Silver Lake Medical Center, 1711, West Temple Street, Civic Center, Downtown, Los Angeles, Los Angeles County, California, 90026, United States of America",34.069422599999996,-118.26360959634485
304,/title/tt2975578/,The Purge: Anarchy,"929 E 2nd St , Los Angeles, California, USA",(Sergeant is exiting his apartment parkade before purge commencement)                        ,"929, East 2nd Street, Arts District, Downtown, Los Angeles, Los Angeles County, California, 90012, United States of America",34.0472569,-118.2340458
305,/title/tt1687901/,The Awakening,"Gosford House, Longniddry, East Lothian, Scotland, UK",,"Gosford House, Lyars Road, Spittal, Longniddry, East Lothian, Scotland, EH32 0LS, United Kingdom",55.9792195,-2.8907793
306,/title/tt1687901/,The Awakening,"Manderston House, Duns, Berwickshire, Scotland, UK",,,,
307,/title/tt1687901/,The Awakening,"Marchmont, Edinburgh, Scotland, UK",,"Marchmont, Edinburgh, City of Edinburgh, Scotland, United Kingdom",55.9359813,-3.1991153
308,/title/tt1687901/,The Awakening,"Berwickshire, Scotland, UK",,"Berwickshire, Scotland, TD10 6UR, United Kingdom",55.75,-2.5
309,/title/tt1038988/,[Rec],"Barcelona, Catalonia, Spain",,"Barcelona, Barcelonès, Catalunya, 08001, España",41.3828939,2.1774322
310,/title/tt1772264/,Stonehearst Asylum,Bulgaria,,Бългaрия,42.6073975,25.4856617
311,/title/tt1772264/,Stonehearst Asylum,"Sofia, Bulgaria",,"София, Столична, София-град, България",42.6978634,23.3221789
312,/title/tt0464141/,El orfanato,"Llanes, Oviedo, Asturias, Spain",,"Les Llanes, Oviedo, Asturias / Asturies, 33191, España",43.3524249,-5.9517428
313,/title/tt0464141/,El orfanato,"Playa de Andrín, Llanes, Asturias, Spain",(beach)                        ,"Playa de Andrin, Camino de la Ballota, Andrín, Llanes, Asturias / Asturies, 33596, España",43.4109734,-4.708207830085089
314,/title/tt0331953/,Club Dread,"El Tamarindo, Jalisco, Mexico",,"Tamarindo, Paseo de Los Agaves, Galaxia Bonito Jalisco, El Muey, El Salto, Jalisco, 45682, México",20.5029124,-103.2060875
315,/title/tt0331953/,Club Dread,Mexico,,"Ciudad de México, 06060, México",19.4326296,-99.1331785
316,/title/tt0844479/,The Collector,"Mobile, Alabama, USA",(Torture Room)                        ,"Mobile, Mobile County, Alabama, United States of America",30.6943566,-88.0430541
317,/title/tt0844479/,The Collector,"Par Road 522, Mansfield, Louisiana, USA",(mansion)                        ,,,
318,/title/tt0161081/,What Lies Beneath,"Lake Champlain, New York, USA",,"Champlain, Clinton County, New York, United States of America",44.986656,-73.446693
319,/title/tt0161081/,What Lies Beneath,"Spruce Goose Hangar - 16 S Campus Center Dr, Los Angeles, California, USA",,"Spruce Goose Hangar, Campus Center Drive, Playa Vista, Los Angeles, Los Angeles County, California, 90094, United States of America",33.9775332,-118.408156645471
320,/title/tt0161081/,What Lies Beneath,"Burlington, Vermont, USA",,"Burlington, Chittenden County, Vermont, United States of America",44.4762975,-73.2135472
321,/title/tt0161081/,What Lies Beneath,"Royce Hall - 340 Royce Drive, UCLA, Westwood, Los Angeles, California, USA",,,,
322,/title/tt0161081/,What Lies Beneath,"University of Vermont, Burlington, Vermont, USA",,"University of Vermont, Fletcher Place, University of Vermont, Burlington, Chittenden County, Vermont, 05401, United States of America",44.4776649,-73.18351438749691
323,/title/tt0161081/,What Lies Beneath,"D.A.R. State Park - 6750 State Route 17 W., Addison, Vermont, USA",,,,
324,/title/tt6243140/,Les affamés,"Ham-Nord, Québec, Canada",,"Ham-Nord, Arthabaska, Centre-du-Québec, Québec, G0P 1A0, Canada",45.90315,-71.645966
325,/title/tt6243140/,Les affamés,"Wotton, Québec, Canada",,"Wotton, Les Sources, Estrie, Québec, J0A 1N0, Canada",45.737818,-71.807327
326,/title/tt1930294/,Black Rock,"Maine, USA",,"Maine, United States of America",45.709097,-68.8590201
327,/title/tt1714203/,Piranha 3DD,"Wilmington, North Carolina, USA",,"Wilmington, New Hanover County, North Carolina, United States of America",34.2257282,-77.9447107
328,/title/tt1714203/,Piranha 3DD,"The Salton Sea, California, USA",(opening shots of Lake Victoria)                        ,"Salton Sea, California, United States of America",33.312590650000004,-115.78148849148695
329,/title/tt0099052/,Arachnophobia,"Angel Falls, Canaima National Park, Estado Bolívar, Venezuela",,,,
330,/title/tt0099052/,Arachnophobia,"Pasadena, California, USA",,"Pasadena, Los Angeles County, California, United States of America",34.1476452,-118.1444779
331,/title/tt0099052/,Arachnophobia,"Stage 18, Warner Brothers Burbank Studios - 4000 Warner Boulevard, Burbank, California, USA",,,,
332,/title/tt0099052/,Arachnophobia,USA,,United States,39.7837304,-100.4458825
333,/title/tt0309593/,Final Destination 2,"Vancouver, British Columbia, Canada",,"Vancouver, Metro Vancouver Regional District, British Columbia, Canada",49.2608724,-123.1139529
334,/title/tt0309593/,Final Destination 2,"Plaza of Nations, Vancouver, British Columbia, Canada",(Tim's Death)                        ,"Plaza of Nations, Downtown, Vancouver, Metro Vancouver Regional District, British Columbia, Canada",49.2747608,-123.11005352187482
335,/title/tt0092076/,The Texas Chainsaw Massacre 2,"Prairie Dell, Texas, USA",(Texas Battle Land)                        ,"Prairie Dell, Bell County, Texas, United States of America",30.8840741,-97.5802875
336,/title/tt0092076/,The Texas Chainsaw Massacre 2,"6th Street, Austin, Texas, USA",(KOKLA radio station)                        ,"6th Street, Sealy, Austin County, Texas, 77474, United States of America",29.77739,-96.15904
337,/title/tt0092076/,The Texas Chainsaw Massacre 2,"Mean Eyed Cat Bar-1621 W. Fifth Street, Austin, Texas, USA",(Cut-Rite Chain Saws)                        ,,,
338,/title/tt0092076/,The Texas Chainsaw Massacre 2,"Texas, USA",,"Texas, United States of America",31.8160381,-99.5120986
339,/title/tt10843306/,The Beach House,"North Truro, Massachusetts, USA",,"North Truro, Truro, Barnstable County, Massachusetts, 02652, United States of America",42.0334364,-70.0953025
340,/title/tt0265349/,The Mothman Prophecies,"Pittsburgh, Pennsylvania, USA",,"Pittsburgh, Allegheny County, Pennsylvania, United States of America",40.4416941,-79.9900861
341,/title/tt0265349/,The Mothman Prophecies,"Carnegie Mellon University - 5000 Forbes Avenue, Pittsburgh, Pennsylvania, USA",,"Carnegie Mellon University, 5000, Forbes Avenue, Squirrel Hill North, Pittsburgh, Allegheny County, Pennsylvania, 15213, United States of America",40.4441619,-79.942728259225
342,/title/tt0265349/,The Mothman Prophecies,"Bentleyville, Pennsylvania, USA",,"Bentleyville, Washington County, Pennsylvania, 15331, United States of America",40.1167387,-80.0083855
343,/title/tt0265349/,The Mothman Prophecies,"West Mifflin, Pennsylvania, USA",,"West Mifflin, Allegheny County, Pennsylvania, 15110, United States of America",40.3634026,-79.8664375
344,/title/tt0265349/,The Mothman Prophecies,"Ginger Hill, Pennsylvania, USA",,"Ginger Hill, Fallowfield Township, Washington County, Pennsylvania, 15067, United States of America",40.194793,-79.9981071
345,/title/tt0081738/,The Watcher in the Woods,"Ettington Park, Warwickshire, England, UK",(chapel) (manor: home of John Keller)                        ,"Ettington Park, Stratford-on-Avon, Warwickshire, England, CV35 9AJ, United Kingdom",52.1885558,-1.5960431
346,/title/tt0081738/,The Watcher in the Woods,"England, UK",,"England, United Kingdom",52.7954791,-0.5402402866174321
347,/title/tt0081738/,The Watcher in the Woods,"Ettington Park Manor, Ettington Park, Warwickshire, England, UK",(chapel) (manor: home of John Keller)                        ,,,
348,/title/tt0081738/,The Watcher in the Woods,"Warwickshire, England, UK",,"Warwickshire, Blackdown, Warwick, Warwickshire, West Midlands, England, United Kingdom",52.32130635,-1.5467857874161073
349,/title/tt0081738/,The Watcher in the Woods,"Pinewood Studios, Iver Heath, Buckinghamshire, England, UK",(studio)                        ,"Pinewood Studios, Pinewood Green, Iver, Iver Heath, Buckinghamshire, South East, England, SL0 0QJ, United Kingdom",51.54831515,-0.5346765566753087
350,/title/tt2288064/,Witches of East End,"Wilmington, North Carolina, USA",,"Wilmington, New Hanover County, North Carolina, United States of America",34.2257282,-77.9447107
351,/title/tt2288064/,Witches of East End,"Vancouver, British Columbia, Canada",,"Vancouver, Metro Vancouver Regional District, British Columbia, Canada",49.2608724,-123.1139529
352,/title/tt2288064/,Witches of East End,"Burnaby, British Columbia, Canada",,"Burnaby, Metro Vancouver Regional District, British Columbia, Canada",49.2433804,-122.9725459
353,/title/tt2288064/,Witches of East End,Canada,,Canada,61.0666922,-107.9917071
354,/title/tt0079714/,Phantasm,"Dunsmuir House & Gardens - 2960 Peralta Oaks Court, Oakland, California, USA",(Morningside cemetery)                        ,,,
355,/title/tt0079714/,Phantasm,"16232 Pacific Coast Hwy, Huntington Beach, California, USA",(Dunes Cantina)                        ,"Pacific Coast Highway, Huntington Beach, Orange County, California, 92648, United States of America",33.6582518,-118.0036408
356,/title/tt0079714/,Phantasm,"San Fernando Valley, Los Angeles, California, USA",,"San Fernando Valley, Los Angeles, Los Angeles County, California, 91406-1232, United States of America",34.2148853,-118.4998204
357,/title/tt0079714/,Phantasm,"Huntington Beach, California, USA",,"Huntington Beach, Orange County, California, United States of America",33.6783336,-118.0000166
358,/title/tt0079714/,Phantasm,"22840 Calvert St, Woodland Hills, Los Angeles, California, USA",(fortune teller's house)                        ,"Calvert Street, Woodland Hills, Los Angeles, Los Angeles County, California, 91367-1604, United States of America",34.1810221,-118.6215131
359,/title/tt0079714/,Phantasm,"Pacific Palisades, Los Angeles, California, USA",,"Pacific Palisades, Los Angeles, Los Angeles County, California, United States of America",34.0480643,-118.5264706
360,/title/tt0079714/,Phantasm,"Los Angeles, California, USA",,"Los Angeles, Los Angeles County, California, United States of America",34.0536909,-118.2427666
361,/title/tt0079714/,Phantasm,"California, USA",,"California, United States of America",36.7014631,-118.7559974
362,/title/tt4547056/,The Girl with All the Gifts,"Stoke-on-Trent, Staffordshire, England, UK",(Hanley Bus Station)                        ,"HSBC UK, 64, High Street, The Brampton, Newcastle-under-Lyme, Staffordshire, England, ST5 1QN, United Kingdom",53.01066415,-2.2275790160229243
363,/title/tt4547056/,The Girl with All the Gifts,"Pripyat, Ukraine",(as urban London) (only drone footage)                        ,"Кафе «Припять», 7, Набережна вулиця, IIIa мікрорайон, Центр міста (Прип'ять), Прип’ять, Київська область, 01196, Україна",51.40802935,30.065047371428577
364,/title/tt4547056/,The Girl with All the Gifts,"Church Street, Birmingham City Centre, England, UK",,"Church Street, Lozells, Birmingham, West Midlands Combined Authority, West Midlands, England, B19, United Kingdom",52.5011379,-1.911964
365,/title/tt4547056/,The Girl with All the Gifts,"Dudley, West Midlands, England, UK",(First night spent in the derelict hospital)                        ,"Dudley, West Midlands Combined Authority, England, United Kingdom",52.5110832,-2.0816813
366,/title/tt4547056/,The Girl with All the Gifts,"Cardington Studios, Bedford, UK",,,,
367,/title/tt4610748/,Devil's Gate,"Winnipeg, Manitoba, Canada",(as North Dakota)                        ,"Winnipeg, Winnipeg (city), Manitoba, Canada",49.8955367,-97.1384584
368,/title/tt2716382/,Sea Fever,"Ardmore Studios, Bray, County Wicklow, Ireland",(studio)                        ,"Ardmore Studios, Killarney, Kilmacanoge, The Municipal District of Bray, County Wicklow, Leinster, Ireland",53.196191150000004,-6.126617322398845
369,/title/tt0237534/,Brotherhood of the Wolf,"Château de Roquetaillade, Mazères, Gironde, France",,"Château de Roquetaillade, D 223, Cap Blanc de Haut, Mazères, Langon, Nouvelle-Aquitaine, France métropolitaine, 33210, France",44.4925734,-0.26971103862068935
370,/title/tt0397101/,The Skeleton Key,"Bayou Gauche, Louisiana, USA",(trip to see hoodoo lady)                        ,"Bayou Gauche, St. Charles Parish, Louisiana, United States of America",29.7874316,-90.4131376
371,/title/tt0397101/,The Skeleton Key,"New Orleans, Louisiana, USA",,"New Orleans, Orleans Parish, Louisiana, United States of America",29.9499323,-90.0701156
372,/title/tt0397101/,The Skeleton Key,"Stage 27, Universal Studios - 100 Universal City Plaza, Universal City, California, USA",,,,
373,/title/tt0397101/,The Skeleton Key,"Laurel Valley, Thibodaux, Louisiana, USA",,,,
374,/title/tt0397101/,The Skeleton Key,"Stage 29, Universal Studios - 100 Universal City Plaza, Universal City, California, USA",,,,
375,/title/tt0859163/,The Mummy: Tomb of the Dragon Emperor,"Waddesdon Manor, Buckinghamshire, England",,"Waddesdon Manor, North Avenue, Waddesdon, Buckinghamshire, South East, England, HP18 0JH, United Kingdom",51.84250175,-0.9373236865937951
376,/title/tt0859163/,The Mummy: Tomb of the Dragon Emperor,"Dongguan, Guangdong, China",,"东莞市, 广东省, China 中国",23.0444712,113.7465512
377,/title/tt0859163/,The Mummy: Tomb of the Dragon Emperor,"Montréal, Québec, Canada",,"Montréal, Agglomération de Montréal, Montréal (06), Québec, Canada",45.4972159,-73.6103642
378,/title/tt0859163/,The Mummy: Tomb of the Dragon Emperor,"Hengdian World Studios, Heng Dian, China",(Emperor's Palace)                        ,,,
379,/title/tt0859163/,The Mummy: Tomb of the Dragon Emperor,"Tianmo, Hebei Province, China",,,,
380,/title/tt0859163/,The Mummy: Tomb of the Dragon Emperor,"Shanghai, China",,"上海市, China 中国",31.2322758,121.4692071
381,/title/tt0859163/,The Mummy: Tomb of the Dragon Emperor,"B Stage, Shepperton Studios, Shepperton, Surrey, England, UK",,,,
382,/title/tt10229558/,The Dark and the Wicked,"Texas, USA",(location)                        ,"Texas, United States of America",31.8160381,-99.5120986
383,/title/tt3174376/,Before I Wake,"Fairhope, Alabama, USA",(School)                        ,"Fairhope, Baldwin County, Alabama, United States of America",30.507956,-87.89742922432941
384,/title/tt3174376/,Before I Wake,USA,,United States,39.7837304,-100.4458825
385,/title/tt1496025/,Underworld: Awakening,"Simon Fraser University, Burnaby, British Columbia, Canada",,"Simon Fraser University, University Crescent, Burnaby, Metro Vancouver Regional District, British Columbia, V5A 0A1, Canada",49.276709600000004,-122.91780296438841
386,/title/tt1496025/,Underworld: Awakening,"The Bridge Studios, Burnaby, British Columbia, Canada",,"Bridge Studios, Burnaby, Metro Vancouver Regional District, British Columbia, Canada",49.2629905,-123.0205448788792
387,/title/tt10875696/,Marianne,France,(location)                        ,France,46.603354,1.8883335
388,/title/tt0098354/,Society,"Wrigley Mansion - 391 S. Orange Grove Boulevard, Pasadena, California, USA",(exterior: mansion)                        ,,,
389,/title/tt0098354/,Society,"Culver City, California, USA",,"Culver City, Los Angeles County, California, United States of America",34.0211224,-118.3964665
390,/title/tt0098354/,Society,"Veterans Hospital - 1611 Plummer Street, North Hills, Los Angeles, California, USA",(hospital)                        ,,,
391,/title/tt0074751/,King Kong,"Kaua'i, Hawaii, USA",(Skull Island)                        ,"Kauaʻi, Kauaʻi County, Hawaii, United States of America",22.050466550000003,-159.55876775017003
392,/title/tt0074751/,King Kong,"Na Pali Coast, Kaua'i, Hawaii, USA",(Skull Island)                        ,,,
393,/title/tt0074751/,King Kong,"San Pedro, Los Angeles, California, USA",,"San Pedro, Los Angeles, Los Angeles County, California, 90731, United States of America",33.7358518,-118.2922934
394,/title/tt0074751/,King Kong,"Biltmore Hotel - 506 S. Grand Avenue, Downtown, Los Angeles, California, USA",,,,
395,/title/tt0074751/,King Kong,"Metro-Goldwyn-Mayer Studios - 10202 W. Washington Blvd., Culver City, California, USA",(studio)                        ,,,
396,/title/tt0074751/,King Kong,"Queensboro Bridge, Manhattan, New York City, New York, USA",,"Queensboro Bridge, West Road, Manhattan Community Board 8, Manhattan, New York County, New York, 10044, United States of America",40.75573455,-73.95189258066381
397,/title/tt0074751/,King Kong,"Los Angeles, California, USA",,"Los Angeles, Los Angeles County, California, United States of America",34.0536909,-118.2427666
398,/title/tt0074751/,King Kong,"New York Public Library - Fifth Avenue & 42nd Street, Manhattan, New York City, New York, USA",,,,
399,/title/tt8745960/,Daniel Isn't Real,"New York City, New York, USA",,"New York, United States of America",40.7127281,-74.0060152
400,/title/tt0099528/,The Exorcist III,"The Tombs - 1226 36th Street NW, Georgetown, Washington, District of Columbia, USA",,"The Tombs, 1226, 36th Street Northwest, Georgetown, Washington, District of Columbia, 20057, United States of America",38.9060191,-77.0704195
401,/title/tt0099528/,The Exorcist III,"Georgetown, Washington, District of Columbia, USA",,"Georgetown, Washington, District of Columbia, 20057, United States of America",38.90871335,-77.06534937613658
402,/title/tt0099528/,The Exorcist III,"Screen Gems Studios - 1223 North 23rd Street, Wilmington, North Carolina, USA",,,,
403,/title/tt0404032/,The Exorcism of Emily Rose,"Los Angeles, California, USA",,"Los Angeles, Los Angeles County, California, United States of America",34.0536909,-118.2427666
404,/title/tt0404032/,The Exorcism of Emily Rose,"D Block, Buchanan Building, University of British Columbia, Robson Square Campus - 800 Robson Street, Vancouver, British Columbia, Canada",,,,
405,/title/tt3742982/,Akame ga Kill!,"Chicago Illinois, USA",(outdoor filming)                        ,"Chicago, Cook County, Illinois, United States of America",41.8755616,-87.6244212
406,/title/tt0110978/,The Return of the Texas Chainsaw Massacre,"Austin, Texas, USA",,"Austin, Travis County, Texas, United States of America",30.2711286,-97.7436995
407,/title/tt0110978/,The Return of the Texas Chainsaw Massacre,"Texas, USA",,"Texas, United States of America",31.8160381,-99.5120986
408,/title/tt0110978/,The Return of the Texas Chainsaw Massacre,"Pflugerville High School - 1301 W. Pecan St. Pflugerville, Texas, USA.",(Prom Scene)                        ,"Pflugerville High School, 1301, West Pecan Street, Meadow Park, Pflugerville, Travis County, Texas, 78660, United States of America",30.443029199999998,-97.63276032938481
409,/title/tt0099700/,Gremlins 2: The New Batch,"101 Park Avenue, Manhattan, New York City, New York, USA",(Clamp Tower)                        ,"101 Park Avenue, 101, Park Avenue, Murray Hill, Manhattan Community Board 5, Manhattan, New York County, New York, 10016, United States of America",40.7508354,-73.97760948434279
410,/title/tt0099700/,Gremlins 2: The New Batch,"Los Angeles, California, USA",,"Los Angeles, Los Angeles County, California, United States of America",34.0536909,-118.2427666
411,/title/tt0099700/,Gremlins 2: The New Batch,"Stage 25, Warner Brothers Burbank Studios - 4000 Warner Boulevard, Burbank, California, USA",,,,
412,/title/tt2752772/,Sinister 2,"Kankakee, Illinois, USA",,"Kankakee County, Illinois, United States of America",41.1253903,-87.848682
413,/title/tt2752772/,Sinister 2,"Joliet, Illinois, USA",(prison scene)                        ,"Joliet, Will County, Illinois, United States of America",41.5263603,-88.0840212
414,/title/tt2752772/,Sinister 2,"Grant Park, Illinois, USA",,"Grant Park, Kankakee County, Illinois, 60940, United States of America",41.2454168,-87.6425237
415,/title/tt2752772/,Sinister 2,"946 Beloit Ave Forest Park, Illinois, USA","(grocery store, opening scene)                        ","Ed's Way, 946, Beloit Avenue, Forest Park, Proviso Township, Cook County, Illinois, 60130, United States of America",41.868747,-87.8113174
416,/title/tt0130018/,I Still Know What You Did Last Summer,"El Tecuan Marina Resort, Costa Careyes, Jalisco, Mexico",,,,
417,/title/tt0130018/,I Still Know What You Did Last Summer,"Downtown, Los Angeles, California, USA",,"Downtown, Los Angeles, Los Angeles County, California, United States of America",34.0428494,-118.2476732
418,/title/tt0130018/,I Still Know What You Did Last Summer,"University of Southern California, Los Angeles, California, USA",,"University of Southern California, Flower Street, University Park, Los Angeles, Los Angeles County, California, 90089-0871, United States of America",34.0218833,-118.28586726915088
419,/title/tt0130018/,I Still Know What You Did Last Summer,"Exposition Park, Los Angeles, California, USA",,"Exposition Park, Los Angeles, Los Angeles County, California, United States of America",34.01365405,-118.28721058194556
420,/title/tt0130018/,I Still Know What You Did Last Summer,"Los Angeles, California, USA",,"Los Angeles, Los Angeles County, California, United States of America",34.0536909,-118.2427666
421,/title/tt0130018/,I Still Know What You Did Last Summer,"St. Cecilia's Catholic Church - 4230 Normandie Avenue, Los Angeles, California, USA",,,,
422,/title/tt0095179/,Friday the 13th Part VII: The New Blood,"Byrnes Lake, Alabama, USA",,"Byrnes Lymon Lane, Crossroads, Baldwin County, Alabama, 35969, United States of America",30.796028,-87.878325
423,/title/tt0095179/,Friday the 13th Part VII: The New Blood,"Alabama, USA",,"Alabama, United States of America",33.2588817,-86.8295337
424,/title/tt0095179/,Friday the 13th Part VII: The New Blood,"Mobile, Alabama, USA",,"Mobile, Mobile County, Alabama, United States of America",30.6943566,-88.0430541
425,/title/tt0095179/,Friday the 13th Part VII: The New Blood,"Stockton, Alabama, USA",,"Stockton, Baldwin County, Alabama, United States of America",30.9937926,-87.8580499
426,/title/tt0095179/,Friday the 13th Part VII: The New Blood,"Malibu, California, USA",,"Malibu, Los Angeles County, California, 90265-4797, United States of America",34.035591,-118.689423
427,/title/tt4163020/,Tales of Halloween,"Los Angeles, California, USA",,"Los Angeles, Los Angeles County, California, United States of America",34.0536909,-118.2427666
428,/title/tt4163020/,Tales of Halloween,USA,,United States,39.7837304,-100.4458825
429,Code,Show Name,Location,Scene,"Location, Tucker County, West Virginia, United States of America",39.2138905,-79.6371124
430,/title/tt2140553/,The Last of Us,"Pittsburgh, Pennsylvania, USA",,"Pittsburgh, Allegheny County, Pennsylvania, United States of America",40.4416941,-79.9900861
431,/title/tt2140553/,The Last of Us,"Seattle, Washington, USA",,"Seattle, King County, Washington, United States of America",47.6038321,-122.3300624
432,/title/tt0082118/,The Burning,"North Tonawanda, New York, USA",,"North Tonawanda, Niagara County, New York, 14120, United States of America",43.0407742,-78.8660527
433,/title/tt0082118/,The Burning,"Western New York, USA",,"USA, Western Avenue, Dunes, Westmere, Albany County, New York, 12084, United States of America",42.6840289,-73.84800690530612
434,/title/tt0077713/,Day of the Woman,"Kent, Connecticut, USA",,"Kent, Litchfield County, Connecticut, United States of America",41.724646,-73.4770859
435,/title/tt0077713/,Day of the Woman,"New York City, New York, USA",(opening scene)                        ,"New York, United States of America",40.7127281,-74.0060152
436,/title/tt7390588/,Little Monsters,"Sydney, New South Wales, Australia",,"Sydney, New South Wales, Australia",-33.8548157,151.2164539
437,/title/tt7390588/,Little Monsters,"Fox Studios, Moore Park, Sydney, New South Wales, Australia",,"Fox Studios Australia, Moore Park, Sydney, Council of the City of Sydney, New South Wales, 2021, Australia",-33.890960899999996,151.22750517838074
438,/title/tt9543062/,Hosts,"Oxford, Oxfordshire, England, UK",,"Oxford, Oxfordshire, South East, England, United Kingdom",51.7520131,-1.2578499
439,/title/tt10736580/,Spell,"Cape Town, South Africa",,"Cape Town, City of Cape Town, Western Cape, 8001, South Africa",-33.928992,18.417396
440,/title/tt2118624/,The Final Girls,"Frostop Root Beer - 402 Government St Baton Rouge, Louisiana, USA",(Frostop Root Beer)                        ,,,
441,/title/tt2118624/,The Final Girls,"Los Angeles, California, USA",,"Los Angeles, Los Angeles County, California, United States of America",34.0536909,-118.2427666
442,/title/tt0060548/,Island of Terror,"Black Park Country Park, Wexham, Buckinghamshire, England, UK",(car driving through woods) (battle against silicates)                        ,,,
443,/title/tt0060548/,Island of Terror,"Pinewood Studios, Iver Heath, Buckinghamshire, England, UK",(studio)                        ,"Pinewood Studios, Pinewood Green, Iver, Iver Heath, Buckinghamshire, South East, England, SL0 0QJ, United Kingdom",51.54831515,-0.5346765566753087
444,/title/tt3489184/,Constantine,"Atlanta Georgia, USA",(studio) (East Point Studios Ltd.)                        ,"Atlanta, Georgia, United States of America",33.7490987,-84.3901849
445,/title/tt3489184/,Constantine,"Atlanta, Georgia, USA",,"Atlanta, Georgia, United States of America",33.7490987,-84.3901849
446,/title/tt2620590/,Leatherface,Bulgaria,,Бългaрия,42.6073975,25.4856617
447,/title/tt0391198/,The Grudge,"Aoyama, Tokyo, Japan",,"洋服の青山, 武蔵境通り, 野崎, 下連雀4, 東京都, 三鷹市, 182-0011, 日本 (Japan)",35.6821653,139.5485714
448,/title/tt0391198/,The Grudge,"Toho Studios, Tokyo, Japan",(studio)                        ,"東宝撮影所, 成城六間通り, 船橋, 世田谷区, 東京都, 1570066, 日本 (Japan)",35.634334800000005,139.6047840467249
449,/title/tt3280262/,Cult of Chucky,"Winnipeg, Manitoba, Canada",(Shot entirely)                        ,"Winnipeg, Winnipeg (city), Manitoba, Canada",49.8955367,-97.1384584
450,/title/tt3280262/,Cult of Chucky,"Manitoba, Canada",,"Manitoba, Canada",55.001251,-97.001038
451,/title/tt0802948/,An American Crime,"Los Angeles, California, USA",,"Los Angeles, Los Angeles County, California, United States of America",34.0536909,-118.2427666
452,/title/tt5325452/,Boo! A Madea Halloween,"Atlanta, Georgia, USA",,"Atlanta, Georgia, United States of America",33.7490987,-84.3901849
453,/title/tt5325452/,Boo! A Madea Halloween,"Wilmington Film Studios, Wilmington, North Carolina, USA",,,,
454,/title/tt0088993/,Day of the Dead,"Fort Myers, Florida, USA",(Abandoned City Scene)                        ,"Fort Myers, Lee County, Florida, United States of America",26.640628,-81.8723084
455,/title/tt0088993/,Day of the Dead,"Pittsburgh, Pennsylvania, USA",(studio)                        ,"Pittsburgh, Allegheny County, Pennsylvania, United States of America",40.4416941,-79.9900861
456,/title/tt0088993/,Day of the Dead,"Sanibel Island, Florida, USA",(The helicopter landing and escape scenes and fenced in compound; Bowmans Beach Helistop.)                        ,"Sanibel Island, Sanibel, Lee County, Florida, 33957, United States of America",26.440359,-82.1137049
457,/title/tt0088993/,Day of the Dead,"Florida, USA",,"Florida, United States of America",27.7567667,-81.4639835
458,/title/tt1403241/,Wolves,"Pinewood Toronto Studios, Port Lands, Toronto, Ontario, Canada",,"Pinewood Toronto Studios, Munition Street, Toronto—Danforth, Old Toronto, Toronto, Peel, Golden Horseshoe, Ontario, M4M 3P2, Canada",43.6465663,-79.35106457413957
459,/title/tt0238546/,Queen of the Damned,"St. Albans, Victoria, Australia",,"St Albans, McKechnie Street, St Albans, City of Brimbank, Victoria, 3021, Australia",-37.7445766,144.79970234688483
460,/title/tt0238546/,Queen of the Damned,"Duckboard Place, Melbourne, Victoria, Australia",,"Duckboard Place, Melbourne, City of Melbourne, Victoria, 3000, Australia",-37.8156698,144.9714399
461,/title/tt0238546/,Queen of the Damned,"Werribee Quarry, Werribee, Victoria, Australia",,,,
462,/title/tt0238546/,Queen of the Damned,"Los Angeles, California, USA",,"Los Angeles, Los Angeles County, California, United States of America",34.0536909,-118.2427666
463,/title/tt0238546/,Queen of the Damned,"Parliament Train Station, Melbourne, Victoria, Australia",,,,
464,/title/tt0238546/,Queen of the Damned,"Ripponlea, Victoria, Australia",,"Ripponlea, Railway Bridge, Ripponlea, City of Port Phillip, Victoria, 3183, Australia",-37.8758915,144.9952063
465,/title/tt0238546/,Queen of the Damned,"Sorrento, Victoria, Australia",,"Sorrento, Shire of Mornington Peninsula, Victoria, 3943, Australia",-38.3447273,144.7420938
466,/title/tt0238546/,Queen of the Damned,"Storey Hall, Melbourne, Victoria, Australia",,"Storey Hall, Swanston Street, Melbourne Innovation District, Melbourne, City of Melbourne, Victoria, 3000, Australia",-37.8090856,144.9639910564144
467,/title/tt1596365/,The Woman in Black,"The Causeway to Osea Island, Maldon, Essex, England",,,,
468,/title/tt1596365/,The Woman in Black,"Osea Island, Essex, England, UK",,"Osea Island, Maldon, Essex, East of England, England, CM9 8UH, United Kingdom",51.722802900000005,0.7696823361791836
469,/title/tt1596365/,The Woman in Black,"Bluebell Railway, East Sussex, England, UK",(train station)                        ,"Bluebell Railway, Lewes Road, Newick, Lewes, East Sussex, South East, England, TN22 3QB, United Kingdom",50.9953013,-0.0007083
470,/title/tt1596365/,The Woman in Black,"Pinewood Studios, Iver Heath, Buckinghamshire, England, UK",(studio)                        ,"Pinewood Studios, Pinewood Green, Iver, Iver Heath, Buckinghamshire, South East, England, SL0 0QJ, United Kingdom",51.54831515,-0.5346765566753087
471,/title/tt1596365/,The Woman in Black,"Harpsden Court, Harpsden Way, Henley-on-Thames, Oxfordshire, England, UK",,"Harpsden, South Oxfordshire, Oxfordshire, South East, England, United Kingdom",51.518613349999995,-0.91904766663638
472,/title/tt1596365/,The Woman in Black,"Manor House, Frogmore Lane, Long Crendon, Buckinghamshire, UK",,"Frogmore Lane, Long Crendon, Buckinghamshire, South East, England, HP18 9DZ, United Kingdom",51.7708836,-1.0003535
473,/title/tt1179891/,My Bloody Valentine,"Kittanning, Pennsylvania, USA",,"Kittanning, Armstrong County, Pennsylvania, United States of America",40.8164531,-79.5219893
474,/title/tt1179891/,My Bloody Valentine,"Ford City Police Department - 1000 4th Ave, Ford City, Pennsylvania, USA",(Police station)                        ,,,
475,/title/tt1179891/,My Bloody Valentine,"7750 Steubenville Pike, Oakdale, Pennsylvania, USA",(Thunderbird Motel)                        ,,,
476,/title/tt1179891/,My Bloody Valentine,"Pittsburgh ,Pennsylvania, USA",,"Pittsburgh, Allegheny County, Pennsylvania, United States of America",40.4416941,-79.9900861
477,/title/tt8328716/,Doom: Annihilation,"Sofia, Bulgaria",,"София, Столична, София-град, България",42.6978634,23.3221789
478,/title/tt9894470/,VFW,"Dallas, Texas, USA",,"Dallas, Dallas County, Texas, United States of America",32.7762719,-96.7968559
479,/title/tt0758730/,AVP2: Aliens vs. Predator 2 - Requiem,"Vancouver, British Columbia, Canada",,"Vancouver, Metro Vancouver Regional District, British Columbia, Canada",49.2608724,-123.1139529
480,/title/tt0758730/,AVP2: Aliens vs. Predator 2 - Requiem,"Coquitlam, British Columbia, Canada",,"Coquitlam, Metro Vancouver Regional District, British Columbia, Canada",49.2842958,-122.793281
481,/title/tt0758730/,AVP2: Aliens vs. Predator 2 - Requiem,"British Columbia, Canada",,"British Columbia, Canada",55.001251,-125.002441
482,/title/tt0758730/,AVP2: Aliens vs. Predator 2 - Requiem,"Langley, British Columbia, Canada",,"Township of Langley, Metro Vancouver Regional District, British Columbia, Canada",49.106471850000005,-122.5501311568147
483,/title/tt0095925/,Pumpkinhead,"Kelly Gulch - 1801 N. Topanga Canyon Boulevard, Topanga, California, USA",(cabin in which the group holds up in while hiding out)                        ,,,
484,/title/tt0433362/,Daybreakers,"Brisbane, Queensland, Australia",,"Brisbane City, Queensland, Australia",-27.4689682,153.0234991
485,/title/tt0433362/,Daybreakers,Australia,,Australia,-24.7761086,134.755
486,/title/tt0433362/,Daybreakers,"Warner Roadshow Studios, Gold Coast, Queensland, Australia",(studio)                        ,,,
487,/title/tt0433362/,Daybreakers,"Riparian Plaza, Eagle Street, Brisbane, Queensland, Australia",,"Riparian Plaza, 71, Eagle Street, Brisbane City, Queensland, 4000, Australia",-27.468233650000002,153.03040944278965
488,/title/tt7073710/,What Keeps You Alive,"Ontario, Canada",,"Ontario, Canada",50.000678,-86.000977
489,/title/tt7073710/,What Keeps You Alive,Canada,,Canada,61.0666922,-107.9917071
490,/title/tt0097390/,Fright Night Part 2,"UCLA, Westwood, Los Angeles, California, USA",,"UCLA, West Sunset Boulevard, Court of Philanthropy, Westwood, Los Angeles, Los Angeles County, California, 90095, United States of America",34.0708781,-118.44684973165106
491,/title/tt0097390/,Fright Night Part 2,"1000 California Street, San Francisco, California, USA",(Regine's Lair)                        ,"Pacific Union Club, 1000, California Street, Nob Hill, San Francisco, San Francisco City and County, California, 94107, United States of America",37.7922456,-122.41133670951743
492,/title/tt0097390/,Fright Night Part 2,"Long Beach, California, USA",,"Long Beach, Los Angeles County, California, United States of America",33.7690164,-118.1916048
493,/title/tt1675192/,Take Shelter,"LaGrange, Ohio, USA",(family house on Biggs Rd)                        ,"LaGrange, Lorain County, Ohio, United States of America",41.2373401,-82.1198013
494,/title/tt1675192/,Take Shelter,"Grafton, Ohio, USA",(supermarket and road scenes)                        ,"Grafton, Lorain County, Ohio, United States of America",41.2725522,-82.0545892
495,/title/tt1675192/,Take Shelter,"Lorain, Ohio, USA",(hospital)                        ,"Lorain County, Ohio, United States of America",41.2633554,-82.1734746
496,/title/tt1675192/,Take Shelter,"Oberlin, Ohio, USA",(gas masks store)                        ,"Oberlin, Lorain County, Ohio, 44074, United States of America",41.2939386,-82.2173786
497,/title/tt0280609/,Dog Soldiers,Luxembourg,(forest scenes)                        ,Lëtzebuerg,49.8158683,6.1296751
498,/title/tt0280609/,Dog Soldiers,"Glen Affric, Highland, Scotland, UK",(second unit)                        ,"Glen Affric, Highland, Scotland, IV4 7ND, United Kingdom",57.2636381,-4.9995719
499,/title/tt5598292/,Polaroid,"Dartmouth, Nova Scotia, Canada",,"Dartmouth, Nova Scotia, Canada",44.6799707,-63.5720232
500,/title/tt5598292/,Polaroid,"Rushworth, Victoria 3612, Australia",,"Rushworth, Shire of Campaspe, Victoria, 3612, Australia",-36.5860102,145.01557
501,/title/tt5598292/,Polaroid,"87 Fairbanks St Dartmouth, Nova Scotia, Canada",(house & street)                        ,"87, Fairbanks Street, Harbourview, Downtown Dartmouth, Dartmouth, Nova Scotia, B3A 1C5, Canada",44.666896550000004,-63.58090556661462
502,/title/tt4348012/,Mayhem,"Belgrade, Serbia",,"Београд, Град Београд, Централна Србија, 11000, Србија (Serbia)",44.8178131,20.4568974
503,/title/tt3387648/,The Taking,"North Carolina, USA",,"North Carolina, United States of America",35.6729639,-79.0392919
504,/title/tt3387648/,The Taking,"Creative Network Studios - 4202 Barringer Drive, Charlotte, North Carolina, USA",(studio)                        ,,,
505,/title/tt0120004/,The Relic,"Field Museum of Natural History - 1400 S. Lake Shore Drive, Near South Side, Chicago, Illinois, USA",,"Field Museum, 1400, South Lake Shore Drive, Near South Side, South Loop, Chicago, Cook County, Illinois, 60605, United States of America",41.866206649999995,-87.61689086904326
506,/title/tt0120004/,The Relic,"Hollywood, Los Angeles, California, USA",(Interior shots)                        ,"Hollywood, Los Angeles, Los Angeles County, California, 90028-8127, United States of America",34.0980031,-118.329523
507,/title/tt0120004/,The Relic,"San Jose, California, USA",,"San Jose, Santa Clara County, California, United States of America",37.3361905,-121.8905833
508,/title/tt0120004/,The Relic,"Ren-Mar Studios - 846 N. Cahuenga Blvd., Hollywood, Los Angeles, California, USA",,,,
509,/title/tt1349938/,Being Human,"Tredegar House, Newport, Wales, UK",,"Tredegar House, Jamaica Circle, Coedkernew, Newport, Gwent, Cymru / Wales, NP10, United Kingdom",51.561359,-3.0275888
510,/title/tt1349938/,Being Human,"Windsor Terrace, Totterdown, Bristol, England, UK","(Mitchell, George and Annie's home)                        ","Windsor Terrace, The Dings, Totterdown, Bristol, City of Bristol, South West England, England, BS3 4UQ, United Kingdom",51.441645,-2.5820299
511,/title/tt1349938/,Being Human,"Clifton, Bristol, England, UK",,"Clifton, Bristol, City of Bristol, South West England, England, BS8 3JH, United Kingdom",51.4615884,-2.6202846
512,/title/tt1349938/,Being Human,"Paintworks Studios, Bristol, England, UK",,,,
513,/title/tt5516328/,Ghost Stories,"Hornsea, East Riding of Yorkshire, England, UK",,"Hornsea, East Riding of Yorkshire, Yorkshire and the Humber, England, HU18 1LW, United Kingdom",53.9134596,-0.1689412
514,/title/tt5516328/,Ghost Stories,"Bradford, West Yorkshire, England, UK",,"Bradford, West Yorkshire, Yorkshire and the Humber, England, United Kingdom",53.7944229,-1.7519186
515,/title/tt5516328/,Ghost Stories,"Harrogate, North Yorkshire, England, UK",,"Harrogate, North Yorkshire, Yorkshire and the Humber, England, United Kingdom",53.9921491,-1.5391039
516,/title/tt5516328/,Ghost Stories,"Ruddington, Great Central Railway, Nottinghamshire, England, UK",,,,
517,/title/tt5516328/,Ghost Stories,"Ruddington, Great Central Railway, Nottinghamshire, England, UK",(railway yard)                        ,,,
518,/title/tt5516328/,Ghost Stories,"Shipley, Bradford, West Yorkshire, England, UK",,"Shipley, Bradford, West Yorkshire, Yorkshire and the Humber, England, BD18 3RL, United Kingdom",53.8321814,-1.7779777
519,/title/tt5516328/,Ghost Stories,"Roundhay Park, Oakwood, Leeds, West Yorkshire, England, UK",(Boys playing outside storm drain)                        ,"Roundhay Park, Princes Avenue, Roundhay, Leeds, West Yorkshire, Yorkshire and the Humber, England, LS8 2EP, United Kingdom",53.8383912,-1.5046919
520,/title/tt4504044/,The Prodigy,"Toronto, Ontario, Canada",,"Toronto, Peel, Golden Horseshoe, Ontario, Canada",43.6534817,-79.3839347
521,/title/tt1531901/,Byzantium,"Hastings, East Sussex, England, UK",,"Hastings, East Sussex, South East, England, United Kingdom",50.8553888,0.5824703
522,/title/tt1531901/,Byzantium,"Dublin, County Dublin, Ireland",,"Dublin, County Dublin, Leinster, Ireland",53.3497645,-6.2602732
523,/title/tt1531901/,Byzantium,"Skellig Rocks, County Kerry, Ireland",,,,
524,/title/tt1531901/,Byzantium,"Skellig Michael, County Kerry, Ireland",,"Great Skellig, Kenmare Municipal District, County Kerry, Munster, Ireland",51.77127515,-10.54059599625458
525,/title/tt6803212/,Don't Let Go,"Los Angeles, California, USA",,"Los Angeles, Los Angeles County, California, United States of America",34.0536909,-118.2427666
526,/title/tt6803212/,Don't Let Go,"Naud St, Los Angeles, California, USA",(street scenes)                        ,"Naud Street, Mission Junction LA, Chinatown, Los Angeles, Los Angeles County, California, 90012, United States of America",34.0686424,-118.2266345
527,/title/tt0097162/,Dead Calm,"Sydney, New South Wales, Australia",,"Sydney, New South Wales, Australia",-33.8548157,151.2164539
528,/title/tt0097162/,Dead Calm,"Gold Coast, Queensland, Australia",,"Gold Coast City, Queensland, Australia",-28.0023731,153.4145987
529,/title/tt0097162/,Dead Calm,"Hamilton Island, Queensland, Australia",,"Hamilton Island, Queensland, Australia",-20.35462625,148.956051815311
530,/title/tt0097162/,Dead Calm,"Queensland, Australia",,"Queensland, Australia",-22.1646782,144.5844903
531,/title/tt0780653/,The Wolfman,"Chatsworth House, Edensor, Derbyshire, England, UK",,"Chatsworth House, Broadwalk, Chatsworth CP, Derbyshire Dales, Derbyshire, East Midlands, England, DE45 1PJ, United Kingdom",53.227588850000004,-1.611362475457475
532,/title/tt0780653/,The Wolfman,"Lacock, Wiltshire, England, UK",,"Lacock, Wiltshire, South West England, England, SN15 2LG, United Kingdom",51.413844,-2.1208721
533,/title/tt0780653/,The Wolfman,"Black Park, Iver Heath, Buckinghamshire, England, UK",,"Black Park, Wexham, Iver Heath, Buckinghamshire, South East, England, United Kingdom",51.542492100000004,-0.5441123704462851
534,/title/tt0780653/,The Wolfman,"Richmond Theatre, The Green, Richmond, Surrey, England, UK",(interiors)                        ,,,
535,/title/tt0780653/,The Wolfman,"Pinewood Studios, Iver Heath, Buckinghamshire, England, UK",(studio)                        ,"Pinewood Studios, Pinewood Green, Iver, Iver Heath, Buckinghamshire, South East, England, SL0 0QJ, United Kingdom",51.54831515,-0.5346765566753087
536,/title/tt0081455/,Scanners,"Toronto, Ontario, Canada",(yorkdale subway station)                        ,"Toronto, Peel, Golden Horseshoe, Ontario, Canada",43.6534817,-79.3839347
537,/title/tt0081455/,Scanners,"20/20 University, Montréal, Québec, Canada",(food court)                        ,"Erudit, 3744, Rue Jean-Brillant, Édouard-Montpetit, Côte-des-Neiges–Notre-Dame-de-Grâce, Montréal, Agglomération de Montréal, Montréal (06), Québec, H3T 1P1, Canada",45.4951176,-73.6219344
538,/title/tt0081455/,Scanners,"Montréal, Québec, Canada",,"Montréal, Agglomération de Montréal, Montréal (06), Québec, Canada",45.4972159,-73.6103642
539,/title/tt0081455/,Scanners,"Vieux Montreal, Montréal, Québec, Canada","(""good scanners"" home)                        ","Vieux-Montréal, Ville-Marie, Montréal, Agglomération de Montréal, Montréal (06), Québec, Canada",45.5033677,-73.5574484
540,/title/tt0081455/,Scanners,"Panavision, Montréal, Québec, Canada",(studio)                        ,,,
541,/title/tt1477076/,Saw 3D,"Toronto, Ontario, Canada",,"Toronto, Peel, Golden Horseshoe, Ontario, Canada",43.6534817,-79.3839347
542,/title/tt0022913/,Freaks,"Metro-Goldwyn-Mayer Studios - 10202 W. Washington Blvd., Culver City, California, USA",(studio)                        ,,,
543,/title/tt4255304/,The Void,"Sault Ste Marie, Ontario, Canada",(studio)                        ,"Sault Ste. Marie, Algoma District, Northeastern Ontario, Ontario, Canada",46.52391,-84.320068
544,Code,Show Name,Location,Scene,"Location, Tucker County, West Virginia, United States of America",39.2138905,-79.6371124
545,/title/tt3195644/,Insidious: Chapter 3,"929 South Broadway, Downtown, Los Angeles, California, USA",(street scenes)                        ,"Upstairs at Ace Hotel, 929, South Broadway, Historic Core District, Downtown, Los Angeles, Los Angeles County, California, 90015, United States of America",34.0417905,-118.2568638
546,/title/tt3195644/,Insidious: Chapter 3,"Fleur De Lis Apartments - 1825 Whitley Ave, Hollywood, Los Angeles, California, USA","(The Building, main location)                        ",,,
547,/title/tt0093777/,Prince of Darkness,"Japanese Union Church of Los Angeles, 120 N. San Pedro Street, Los Angeles, California, USA",(location)                        ,,,
548,/title/tt0093777/,Prince of Darkness,"2646 Menlo Avenue, Los Angeles, California, USA",(Brian Marsh's house)                        ,"2646, Menlo Avenue, University Park, Los Angeles, Los Angeles County, California, 90007, United States of America",34.03130645,-118.2900108107768
549,/title/tt0093777/,Prince of Darkness,"Town and Gown Faculty Center - 665 Exposition Blvd, University of Southern California, Los Angeles, California, USA",,,,
550,/title/tt0093777/,Prince of Darkness,"Science Hall Lecture Hall 163 - 3651 Trousdale Pkwy, University of Southern California, Los Angeles, California, USA",,,,
551,/title/tt0081383/,Bloody midnight,"Toronto, Ontario, Canada",,"Toronto, Peel, Golden Horseshoe, Ontario, Canada",43.6534817,-79.3839347
552,/title/tt0081383/,Bloody midnight,"Don Mills Collegiate Institute, Toronto, Ontario, Canada",(school interiors and exteriors)                        ,"Don Mills Collegiate Institute, 15, The Donway East, Don Valley East, North York, Toronto, Peel, Golden Horseshoe, Ontario, M3C 1X6, Canada",43.73503845,-79.33880785159096
553,/title/tt0081383/,Bloody midnight,"Scarborough Bluffs, Toronto, Ontario, Canada",(exteriors of school)                        ,"Scarborough Bluffs, Toronto, Peel, Golden Horseshoe, Ontario, M1M 1C7, Canada",43.7183057,-79.2247115
554,/title/tt12274228/,Rent-a-Pal,"Denver, Colorado, USA",,"Denver, Denver County, Colorado, United States of America",39.7392364,-104.9848623
555,/title/tt4669296/,Lords of Chaos,"Budapest, Hungary",,"Budapest, Közép-Magyarország, 1011, Magyarország",47.4983815,19.0404707
556,/title/tt7741388/,The Scientist,"Texas, USA",,"Texas, United States of America",31.8160381,-99.5120986
557,/title/tt0114609/,Tales from the Hood,"2261 West 21st Street, Los Angeles, California, USA",,"2261, West 21st Street, Arlington Heights, Los Angeles, Los Angeles County, California, 90018, United States of America",34.038190285714286,-118.31381194285714
558,/title/tt0114609/,Tales from the Hood,"Philadelphia, Pennsylvania, USA",,"Philadelphia, Philadelphia County, Pennsylvania, United States of America",39.9527237,-75.1635262
559,/title/tt0114609/,Tales from the Hood,"1345 Kellam Avenue, Los Angeles, California, USA",(Simms Funeral Home)                        ,"1345, Kellam Avenue, Echo Park, Los Angeles, Los Angeles County, California, 90026, United States of America",34.07022312244898,-118.25351606122449
560,/title/tt8354344/,Witches in the Woods,"Sudbury, Ontario, Canada",,"Sudbury, Sudbury District, Northeastern Ontario, Ontario, P3C 1S9, Canada",46.49272,-80.991211
561,/title/tt0084695/,The Slumber Party Massacre,"3662 Mountain View Avenue, Los Angeles, California, USA",(Trish's house)                        ,"3662, Mountain View Avenue, Mar Vista, Los Angeles, Los Angeles County, California, 90066, United States of America",34.00858757142857,-118.43225375510204
