,Code,Show Name,Location,Scene,geocodedLocation,latitude,longitude
0,/title/tt0332280/,,"Cypress Gardens - 3030 Cypress Gardens Road, Moncks Corner, South Carolina, USA",(Boat / Swan scene),,,
1,/title/tt0332280/,,"Montréal, Québec, Canada",,"Montréal, Agglomération de Montréal, Montréal (06), Québec, Canada",45.4972159,-73.6103642
2,/title/tt0332280/,,"Charleston, South Carolina, USA",,"Charleston, Charleston County, South Carolina, United States of America",32.7876012,-79.9402728
3,/title/tt0332280/,,"College of Charleston - 66 George Street, Charleston, South Carolina, USA",(Allie's college),,,
4,/title/tt2177461/,,"University of Oxford, Oxford, Oxfordshire, England, UK",,"Oxford University Museum of Natural History, Parks Road, City Centre, Oxford, Oxfordshire, South East, England, OX1 3PW, United Kingdom",51.75870755,-1.2556684826092037
5,/title/tt2177461/,,"Deanery Lane, Bristol, UK",,"Deanery Road, Wapping Wharf, Canon's Marsh, Bristol, City of Bristol, South West England, England, BS1, United Kingdom",51.4515631,-2.6031761
6,/title/tt2177461/,,"Carew Castle, Carew, Tenby, Pembrokeshire, Wales, UK",,,,
7,/title/tt2177461/,,"St. Donats Castle, Vale of Glamorgan, Wales, UK",,"St Donats Castle, West Drive, St Donats, Vale of Glamorgan, Cymru / Wales, CF61 1ZA, United Kingdom",51.40183465,-3.5337242725796907
8,/title/tt3783958/,,"The Lighthouse Cafe - 30 Pier Ave, Hermosa Beach, California, USA",,,,
9,/title/tt3783958/,,"Angels Flight Railway - 351 S Hill St, Los Angeles, California, USA",(Mia & Sebastian ride the funicular railway),"Angels Flight, South Hill Street, Bunker Hill, Downtown, Los Angeles, Los Angeles County, California, 90071, United States of America",34.0511576,-118.2499232
10,/title/tt3783958/,,"Chateau Marmont - 8221 Sunset Blvd., Hollywood, Los Angeles, California, USA","(Exterior: Future Mia arrives home, driving)","Chateau Marmont, 8221, West Sunset Boulevard, Sunset Strip, Hollywood Hills West, West Hollywood, Los Angeles County, California, 90046, United States of America",34.098249749999994,-118.36840487975618
11,/title/tt3783958/,,"Century Freeway I-105/Harbor Freeway I-110 Interchange, South Los Angeles, Los Angeles, California, USA",(opening number),,,
12,/title/tt3783958/,,"Colorado Street Bridge, Pasadena, California, USA",(Mia & Sebastian walk along bridge sidewalk),"Colorado Street Bridge, Colorado Boulevard, Pasadena, Los Angeles County, California, 91123, United States of America",34.1445005,-118.1652411
13,/title/tt3783958/,,"Mount Hollywood Dr, Los Angeles, California, USA","(""Lovely Night"" Dance at Sunset)","Mount Hollywood Drive, Griffith Park, Los Angeles, Los Angeles County, California, 90068, United States of America",34.1380076,-118.3050561
14,/title/tt3783958/,,"Vine St, Los Angeles, California, USA",(1900 Vine St; Mia walks down road after losing her car),"Vine Street, Whitley Heights Historic District, Hollywood, Los Angeles, Los Angeles County, California, 90028, United States of America",34.102698,-118.3267072
15,/title/tt3783958/,,"Grand Central Market - 317 S. Broadway, Downtown, Los Angeles, California, USA",(Mia & Sebastian eat at a bar-style restaurant),"Grand Central Market, 315, South Broadway, Historic Core District, Downtown, Los Angeles, Los Angeles County, California, 90013, United States of America",34.050924949999995,-118.2489634996624
16,/title/tt3783958/,,"Bernard St, Chinatown, Los Angeles, California, USA",(Mia calls Sebastian and leaves a voicemail),"Bernard Street, Elysian Park, Chinatown, Los Angeles, Los Angeles County, California, 90012, United States of America",34.0679288,-118.2404463
17,/title/tt3783958/,,"4403 W. Magnolia Blvd, Burbank, California, USA","(""Van Beek Tapas and Tunes"")","West Magnolia Boulevard, McNeil, Burbank, Los Angeles County, California, 91505, United States of America",34.1686563,-118.3446849
18,/title/tt3783958/,,"6202 Santa Monica Blvd, Los Angeles, California, USA",(Seb's - exterior),"Santa Monica Boulevard, East Hollywood, Los Angeles, Los Angeles County, California, 90029-1831, United States of America",34.0908737,-118.2892189
19,/title/tt3783958/,,"Warner Brothers Burbank Studios - 4000 Warner Boulevard, Burbank, California, USA",(studio) (exteriors on studio backlot),,,
20,/title/tt3783958/,,"Jar, 8225 Beverly Blvd, Los Angeles, California, USA",(restaurant scene),,,
21,/title/tt3783958/,,"Langham Apartments, Normandy, Koreatown, Los Angeles, California, USA",(interior of Mia's apartment),,,
22,/title/tt3783958/,,"8404 Willis Ave, Panorama City, Los Angeles, California, USA",(Sebastian's apartment),"8404, Willis Avenue, Panorama City, Los Angeles, Los Angeles County, California, 91402, United States of America",34.22343717241379,-118.45518910344828
23,/title/tt3783958/,,"Hayworth Theatre, 2511 Wilshire Blvd, Los Angeles, California, USA",(Del Rio Theater - interior),,,
24,/title/tt3783958/,,"Los Angeles, California, USA",,"Los Angeles, Los Angeles County, California, United States of America",34.0536909,-118.2427666
25,/title/tt3783958/,,"16210 Dorilee Ln, Encino, California, USA",(1980s pool party),,,
26,/title/tt3783958/,,"25851 Mendoza Dr, Santa Clarita, California, USA",(Mia's parent's Boulder City home),"25851, Mendoza Drive, Pardee, Santa Clarita, Los Angeles County, California, 91355, United States of America",34.40745823236756,-118.54656918441903
27,/title/tt3783958/,,"Willis Avenue, Panorama City, Los Angeles, California, USA",(exterior of Sebastian's apartment),"Willis Avenue, Panorama City, Los Angeles, Los Angeles County, California, 91402, United States of America",34.2152059,-118.4553009
28,/title/tt3783958/,,USA,,United States,39.7837304,-100.4458825
29,/title/tt0469494/,,"Thornewood Castle - 8601 N. Thorne Lane SW, Lakewood, Washington, USA",(mansion exterior),"Thornewood Castle, 8601, North Thorne Lane Southwest, Woodbrook, Tillicum, Lakewood, Pierce County, Washington, 98498-2051, United States of America",47.1302059,-122.55158437037625
30,/title/tt0469494/,,"Los Angeles, California, USA",,"Los Angeles, Los Angeles County, California, United States of America",34.0536909,-118.2427666
31,/title/tt0469494/,,"Greystone Park & Mansion - 905 Loma Vista Drive, Beverly Hills, California, USA",,,,
32,/title/tt0469494/,,"Shafter, Texas, USA",,"Shafter, Presidio County, Texas, United States of America",29.8173646,-104.3061281
33,/title/tt0469494/,,USA,,United States,39.7837304,-100.4458825
34,/title/tt1442462/,,"Clinton Diner, Maspeth, Queens, New York City, New York, USA",(restaurant),,,
35,/title/tt1442462/,,"Brooklyn, New York City, New York, USA",,"Brooklyn, Kings County, New York, United States of America",40.6501038,-73.9495823
36,/title/tt0470752/,,"Sognefjord, Norway",,"Sognefjorden, Vestland, 6875, Norge",61.2587915,7.356830840773158
37,/title/tt0470752/,,"Briksdalen, Jostedalsbreen National Park, Norway",(vertical panning shot before waterfall hike),,,
38,/title/tt0470752/,,"Bloomberg Offices, Finsbury Square, Broadgate, London, England, UK",(Caleb's workplace),,,
39,/title/tt0470752/,,UK,,United Kingdom,54.7023545,-3.2765753
40,/title/tt0103772/,,"1158 Montgomery Street, Telegraph Hill, San Francisco, California, USA",(exteriors: Nick Curran's apartment),"1158, Montgomery Street, Telegraph Hill, San Francisco, San Francisco City and County, California, 94133, United States of America",37.79971422940481,-122.40405644588097
41,/title/tt0103772/,,"Garrapatta State Beach, Big Sur, California, USA",(beach: Stinson Beach),,,
42,/title/tt0103772/,,"Carmel Valley, California, USA",(Carmel Valley Village),"Carmel Valley, Monterey County, California, United States of America",36.48290245,-121.71417288463448
43,/title/tt0103772/,,"Chinatown, San Francisco, California, USA",,"Chinatown, San Francisco, San Francisco City and County, California, United States of America",37.7943011,-122.4063757
44,/title/tt0103772/,,"Pier 7, The Embarcadero, San Francisco, California, USA",,,,
45,/title/tt0103772/,,"Carmel-by-the-Sea, California, USA",,"Carmel-by-the-Sea, Monterey County, California, United States of America",36.5552387,-121.9232879
46,/title/tt0103772/,,"North Beach, San Francisco, California, USA",,"North Beach, San Francisco, San Francisco City and County, California, 94133, United States of America",37.8011749,-122.4090021
47,/title/tt0103772/,,"Tosca Cafe - 242 Columbus Avenue, North Beach, San Francisco, California, USA",(bar),,,
48,/title/tt0103772/,,"Dominican University of California - 50 Acacia Avenue, San Rafael, California, USA",,,,
49,/title/tt0103772/,,"Raw Hide II - 280 Seventh Street, South of Market, San Francisco, California, USA",(bar),,,
50,/title/tt0103772/,,"2104 Broadway, Pacific Heights, San Francisco, California, USA",(Johnny Boz's mansion),"2102;2104, Broadway, Pacific Heights, San Francisco, San Francisco City and County, California, 90214, United States of America",37.794878749999995,-122.43203530342902
51,/title/tt0103772/,,"Rohnert Park, California, USA",,"Rohnert Park, Sonoma County, California, United States of America",38.3396367,-122.7010984
52,/title/tt0103772/,,"26 Liberty St, Petaluma, California, USA",(Hazel Dobkins Home),"26, Liberty Street, East Petaluma, McNear, Petaluma, Sonoma County, California, 94952, United States of America",38.23306084210527,-122.64280294736841
53,/title/tt0103772/,,"Oakland, California, USA",(finale),"Oakland, Alameda County, California, United States of America",37.8044557,-122.2713563
54,/title/tt0103772/,,"South of Market, San Francisco, California, USA",,"South of Market, San Francisco, San Francisco City and County, California, 94103-3124, United States of America",37.7808925,-122.4009518
55,/title/tt0103772/,,"Yerba Buena Center for the Arts, San Francisco, California, USA",,,,
56,/title/tt0103772/,,"California, USA",,"California, United States of America",36.7014631,-118.7559974
57,/title/tt0103772/,,"Carmel, California, USA",,"Carmel, Roseville, Placer County, California, United States of America",38.75511285,-121.35330894827251
58,/title/tt2874692/,,"Langley, British Columbia, Canada","(studio) (town set, church set, home set, mine set exterior and studio)","Township of Langley, Metro Vancouver Regional District, British Columbia, Canada",49.106471850000005,-122.5501311568147
59,/title/tt0453562/,,"Chattanooga, Tennessee, USA",,"Chattanooga, Hamilton County, Tennessee, United States of America",35.0457219,-85.3094883
60,/title/tt0453562/,,"Macon, Georgia, USA",,"Macon, Bibb County, Georgia, United States of America",32.8406946,-83.6324022
61,/title/tt0453562/,,"Birmingham, Alabama, USA",,"Birmingham, Jefferson County, Alabama, United States of America",33.5206824,-86.8024326
62,/title/tt0453562/,,"New York City, New York, USA",,"New York, United States of America",40.7127281,-74.0060152
63,/title/tt7772602/,,"Ontario, Canada",,"Ontario, Canada",50.000678,-86.000977
64,/title/tt7772602/,,"Chicago Illinois, USA",,"Chicago, Cook County, Illinois, United States of America",41.8755616,-87.6244212
65,/title/tt1399045/,,"Los Angeles, California, USA",(Pilot),"Los Angeles, Los Angeles County, California, United States of America",34.0536909,-118.2427666
66,/title/tt1399045/,,"Paramount Studios - 5555 Melrose Avenue, Hollywood, Los Angeles, California, USA",(studio),,,
67,/title/tt5151816/,,"164 W 2nd Ave, Qualicum Beach, British Columbia, Canada",(Chesapeake Shores Flower Shop),,,
68,/title/tt5151816/,,"Nanaimo, British Columbia, Canada",,"Nanaimo, Regional District of Nanaimo, British Columbia, Canada",49.1637594,-123.9379719
69,/title/tt5151816/,,"Parksville, British Columbia, Canada",,"Parksville, Regional District of Nanaimo, British Columbia, Canada",49.3179514,-124.3117397
70,/title/tt5151816/,,"670 Primrose St, Qualicum Beach, British Columbia, Canada",(Chesapeake Shores Town Square Cafe),"Primrose Street, Qualicum Beach, Regional District of Nanaimo, British Columbia, V9K 1A0, Canada",49.3452118,-124.4443332
71,/title/tt5151816/,,"3521 Dolphin Dr, Nanoose Bay, British Columbia, Canada",(Chesapeake Shores Marina),"Dolphin Drive, Area E (Nanoose Bay), Regional District of Nanaimo, British Columbia, V9P 9A0, Canada",49.2901097,-124.1538718
72,/title/tt4687880/,,"495 Carroll Canal, Venice, Los Angeles, California, USA",(Larson's residence),"495, Carroll Canal, Venice, Los Angeles, Los Angeles County, California, 90291, United States of America",33.985471822016855,-118.46705908196067
73,/title/tt4687880/,,"Los Angeles, California, USA",,"Los Angeles, Los Angeles County, California, United States of America",34.0536909,-118.2427666
74,/title/tt4687880/,,"Santa Monica, California, USA",(Where Billy lives and works from),"Santa Monica, Los Angeles County, California, United States of America",34.0250724,-118.4965129
75,/title/tt8722888/,,"Marietta, Georgia, USA",,"Marietta, Cobb, Georgia, United States of America",33.9528472,-84.5496148
76,/title/tt8722888/,,"Douglasville, Georgia, USA",(High School Homecoming Football Game),"Douglasville, Douglas County, Georgia, United States of America",33.7514966,-84.7477136
77,/title/tt0421715/,,"Montréal, Québec, Canada",,"Montréal, Agglomération de Montréal, Montréal (06), Québec, Canada",45.4972159,-73.6103642
78,/title/tt0421715/,,"New Orleans, Louisiana, USA",,"New Orleans, Orleans Parish, Louisiana, United States of America",29.9499323,-90.0701156
79,/title/tt0421715/,,"Mandeville, Louisiana, USA",(English Channel beach shots),"Mandeville, St. Tammany Parish, Louisiana, United States of America",30.3582305,-90.0657477
80,/title/tt0421715/,,"Laplace, Louisiana, USA",,"LaPlace, St. John the Baptist Parish, Louisiana, 70068, United States of America",30.0665907,-90.4800848
81,/title/tt0421715/,,Cambodia,,ព្រះរាជាណាចក្រ​កម្ពុជា,13.5066394,104.869423
82,/title/tt0421715/,,"Louisiana, USA",,"Louisiana, United States of America",30.8703881,-92.007126
83,/title/tt0421715/,,"Burbank, California, USA",,"Burbank, Los Angeles County, California, United States of America",34.1816482,-118.3258554
84,/title/tt0421715/,,"San Pedro, Los Angeles, California, USA",,"San Pedro, Los Angeles, Los Angeles County, California, 90731, United States of America",33.7358518,-118.2922934
85,/title/tt0421715/,,"Québec, Canada",,"Québec, Canada",52.4760892,-71.8258668
86,/title/tt2119532/,,"Pisgah National Forest, North Carolina, USA",(Waterfall is Looking Glass Falls),"Pisgah National Forest, Transylvania County, North Carolina, United States of America",35.30063265,-82.81364145512714
87,/title/tt2119532/,,"Camden, New South Wales, Australia",,"Camden Council, New South Wales, Australia",-34.016087,150.71988490858
88,/title/tt2119532/,,"Centennial Park, Sydney, New South Wales, Australia",(Cemetery),"Centennial Park, Sydney, Randwick City Council, New South Wales, 2021, Australia",-33.8977778,151.2338889
89,/title/tt2119532/,,"Richmond, New South Wales, Australia",(Church and street outside of Cinema),"Richmond, Sydney, Hawkesbury City Council, New South Wales, 2753, Australia",-33.6009721,150.7496405
90,/title/tt2119532/,,Australia,,Australia,-24.7761086,134.755
91,/title/tt2119532/,,USA,,United States,39.7837304,-100.4458825
92,/title/tt1041829/,,"225 Franklin Street, Boston, Massachusetts, USA",,"State Street Bank Building, 225, Franklin Street, Waterfront, Financial District, Boston, Suffolk County, Massachusetts, 02110, United States of America",42.3560992,-71.05391861012899
93,/title/tt1041829/,,"Bearskin Neck, Rockport, Massachusetts, USA",(internet cafe),"Bearskin Neck, Pigeon Cove, Rockport, Essex County, Massachusetts, 01966, United States of America",42.6596743,-70.6163471
94,/title/tt1041829/,,"Gloucester, Massachusetts, USA",,"Gloucester, Essex County, Massachusetts, 01930-3540, United States of America",42.6159286,-70.6619888
95,/title/tt1041829/,,"Walt Disney Studios, 500 South Buena Vista Street, Burbank, California, USA",(studio),,,
96,/title/tt1041829/,,"Myopia Hunt Club - 435 Bay Road, South Hamilton, Massachusetts, USA",(woods),,,
97,/title/tt1663202/,,"Canmore, Alberta, Canada",(Fort Kiowa),"Canmore, Town of Canmore, Alberta, T1W 2H4, Canada",51.0866897,-115.3481135
98,/title/tt1663202/,,"Libby, Montana, USA",(waterfall scene at Kootenai Falls),"Libby, Lincoln County, Montana, United States of America",48.3882861,-115.5559988
99,/title/tt1663202/,,"Kananaskis Country, Alberta, Canada",,"Kananaskis Country Golf Course, Kananaskis Trail, Kananaskis Village, Kananaskis Improvement District, Alberta, Canada",50.90414855,-115.1464755019835
100,/title/tt1663202/,,"Drumheller, Alberta, Canada",(meteor falling from the sky),"Drumheller, Town of Drumheller, Alberta, T0J 0Y0, Canada",51.4662795,-112.7046642
101,/title/tt1663202/,,"Burnaby, British Columbia, Canada",,"Burnaby, Metro Vancouver Regional District, British Columbia, Canada",49.2433804,-122.9725459
102,/title/tt1663202/,,"Sierra Madre Occidental, Mexico",,"Sierra Madre Occidental, Guadalupe y Calvo, Chihuahua, México",25.948,-107.0339
103,/title/tt1663202/,,Argentina,,Argentina,-34.9964963,-64.9672817
104,/title/tt1663202/,,"Mammoth Studios, Burnaby, British Columbia, Canada",(studio),,,
105,/title/tt1663202/,,Canada,,Canada,61.0666922,-107.9917071
106,/title/tt1663202/,,USA,,United States,39.7837304,-100.4458825
107,/title/tt0246578/,,"Long Beach, California, USA",,"Long Beach, Los Angeles County, California, United States of America",33.7690164,-118.1916048
108,/title/tt0246578/,,"Burbank, California, USA",,"Burbank, Los Angeles County, California, United States of America",34.1816482,-118.3258554
109,/title/tt0246578/,,"4225 Country Club Drive, Long Beach, California, USA",(Donnie Darko's house),"4225, Country Club Drive, Vista del Mar, Long Beach, Los Angeles County, California, 90807, United States of America",33.8337259523122,-118.19781417752195
110,/title/tt0246578/,,"Calabasas, California, USA",,"Calabasas, Los Angeles County, California, United States of America",34.1446643,-118.6440973
111,/title/tt0246578/,,"Santa Clarita, California, USA",,"Santa Clarita, Los Angeles County, California, United States of America",34.3916641,-118.542586
112,/title/tt0246578/,,"Angeles National Forest, California, USA",,"Angeles National Forest, Los Angeles County, California, United States of America",34.32165465,-118.01920095646192
113,/title/tt0972412/,,"Los Angeles, California, USA",,"Los Angeles, Los Angeles County, California, United States of America",34.0536909,-118.2427666
114,/title/tt0972412/,,"Sunset Gower Studios - 1438 N. Gower Street, Hollywood, Los Angeles, California, USA",(studio),,,
115,/title/tt0265208/,,"College of the Canyons - 26455 Rockwell Canyon Road, Santa Clarita, California, USA",,,,
116,/title/tt0265208/,,"Paramount Ranch - 2813 Cornell Road, Agoura, California, USA",,,,
117,/title/tt0265208/,,"Ren-Mar Studios - 846 N. Cahuenga Blvd., Hollywood, Los Angeles, California, USA",(studio),,,
118,/title/tt0265208/,,"Los Angeles, California, USA",,"Los Angeles, Los Angeles County, California, United States of America",34.0536909,-118.2427666
119,/title/tt0265208/,,"Santa Clarita, California, USA",,"Santa Clarita, Los Angeles County, California, United States of America",34.3916641,-118.542586
120,/title/tt0265208/,,USA,,United States,39.7837304,-100.4458825
121,/title/tt1838556/,,"UMass Memorial Medical Center, 55 Lake Avenue, Worcester, Massachusetts, USA",(it was in the local news),,,
122,/title/tt0348914/,,"Frazier Park, California, USA",,"Frazier Park, Kern County, California, 93225, United States of America",34.8227556,-118.9448219
123,/title/tt0348914/,,"Santa Clarita, California, USA",,"Santa Clarita, Los Angeles County, California, United States of America",34.3916641,-118.542586
124,/title/tt5580390/,,"1132 Dundas Street West, Toronto, Ontario, Canada",(The Lakeview restaurant as Dixie Doug's Diner),"The Lakeview Restaurant, 1132, Dundas Street West, Ossington Strip, Old Toronto, Toronto, Golden Horseshoe, Ontario, M6J 1X2, Canada",43.649556849999996,-79.42032009643091
125,/title/tt5580390/,,"Elgin Theatre, Toronto, Ontario, Canada",(movie theater interiors),"The Elgin & Winter Garden, 189, Yonge Street, Toronto Centre, Old Toronto, Toronto, Golden Horseshoe, Ontario, M5B 2H1, Canada",43.6531366,-79.3793735
126,/title/tt5580390/,,"Hamilton City Hall - 71 Main St W, Hamilton, ON, Canada",(Design Firm Interior and Exterior),"Hamilton City Hall, Jackson Street West, Corktown, Hamilton, Golden Horseshoe, Ontario, L8P 3C2, Canada",43.2554037,-79.87322731581064
127,/title/tt5580390/,,"Ontario, Canada",,"Ontario, Canada",50.000678,-86.000977
128,/title/tt5580390/,,"Keating Channel, Toronto, Ontario, Canada",(ending scene on shore),"Keating Channel, Lake Shore Boulevard East, Spadina—Fort York, Old Toronto, Toronto, Golden Horseshoe, Ontario, M4M 3P2, Canada",43.6484232,-79.3523241
129,/title/tt5580390/,,"179 S MacNab Street, Hamilton, Ontario, Canada",(exteriors: Dr Hoffstetler's apartment),"MacNab Street, Dundas, Hamilton, Golden Horseshoe, Ontario, L9H 2H4, Canada",43.2670148,-79.9668078
130,/title/tt0289765/,,"4160 Country Club Drive, Long Beach, California, USA",,"4160, Country Club Drive, Vista del Mar, Long Beach, Los Angeles County, California, 90807, United States of America",33.831792240274254,-118.19895085435816
131,/title/tt0289765/,,"Baltimore, Maryland, USA",,"Baltimore, Maryland, United States of America",39.2908816,-76.610759
132,/title/tt0289765/,,"Washington, District of Columbia, USA",,"Washington, District of Columbia, 20230, United States of America",38.8949924,-77.0365581
133,/title/tt0289765/,,"Universal Studios - 100 Universal City Plaza, Universal City, California, USA",(studio),,,
134,/title/tt0289765/,,"Central Library - 285 E. Walnut Street, Pasadena, California, USA",,,,
135,/title/tt0289765/,,"Pasadena Civic Auditorium - 300 E. Green Street, Pasadena, California, USA",,"Pasadena Civic Auditorium, 300, East Green Street, Pasadena, Los Angeles County, California, 91105, United States of America",34.1438542,-118.1442542
136,/title/tt0289765/,,"Mount Vernon, Baltimore, Maryland, USA",(urban square),"Mount Vernon, Baltimore, Maryland, 21201, United States of America",39.2979113,-76.6156881
137,/title/tt1673434/,,"Casa em Paraty, Saco do Mamanguá, Rio de Janeiro, Brazil",(honeymoon stay),,,
138,/title/tt1673434/,,"Baton Rouge, Louisiana, USA",,"Baton Rouge, East Baton Rouge Parish, Louisiana, United States of America",30.4459596,-91.18738
139,/title/tt1673434/,,Brazil,,Brasil,-10.3333333,-53.2
140,/title/tt1673434/,,USA,,United States,39.7837304,-100.4458825
141,/title/tt0098749/,,"1675 E. Altadena Drive, Altadena, California, USA",(Walsh House),"Walsh Home (Beverly Hills 90210), 1675, East Altadena Drive, Altadena, Los Angeles County, California, 91001, United States of America",34.1909574,-118.1161272
142,/title/tt0098749/,,"3500 The Strand, Hermosa Beach, California, USA",(Beach House),"3500, The Strand, Hermosa Beach, Los Angeles County, California, 90254, United States of America",33.87672052996548,-118.40814282631906
143,/title/tt0098749/,,"3959 Longridge Ave, Sherman Oaks, Los Angeles, California, USA",(Kelly Taylor's house),,,
144,/title/tt0098749/,,"7250 Melrose Avenue, Hollywood, Los Angeles, California, USA",(Now Wear This Boutique),"Melrose Avenue, East Hollywood, Los Angeles, Los Angeles County, California, 90029-3609, United States of America",34.0835868,-118.285655
145,/title/tt0098749/,,"45 S. Fair Oaks Avenue, Pasadena, California, USA",(Peach Pit),"Little Sheep, 43-45, South Fair Oaks Avenue, Pasadena, Los Angeles County, California, 91102, United States of America",34.144960049999995,-118.15071492407054
146,/title/tt0098749/,,"Cedars Sinai Medical Center - 8700 Beverly Blvd, West Hollywood, California, USA",(establishing shot of Hospital),"Cedars-Sinai Medical Center, 8700, Beverly Boulevard, West Hollywood, Los Angeles County, California, 90048, United States of America",34.0751604,-118.38109362449856
147,/title/tt0098749/,,"The Lot - 1041 N. Formosa Avenue, West Hollywood, California, USA",(studio) (additional studio scenes),,,
148,/title/tt0098749/,,"Van Nuys, Los Angeles, California, USA",,"Van Nuys, Los Angeles, Los Angeles County, California, 91401-2649, United States of America",34.1866193,-118.4486669
149,/title/tt0783233/,,"Walpole St Andrew, Norfolk, England, UK",(French Orchard),"Walpole St Andrew, Norfolk, East of England, England, PE14 7LL, United Kingdom",52.7343408,0.2215877
150,/title/tt0783233/,,"Bloomsbury, London, England, UK",,"Bloomsbury, London Borough of Camden, London, Greater London, England, WC1B 5EG, United Kingdom",51.523126,-0.1260664
151,/title/tt0783233/,,"St. John's, Smith Square, Westminster, London, England, UK",(Lola's wedding),"Smith Square, Westminster, Millbank, City of Westminster, London, Greater London, England, SW1P 3HA, United Kingdom",51.4959633,-0.12704967328526146
152,/title/tt0783233/,,"Eldernell Lane, outside Coates, Cambridgeshire, England, UK",(French countryside),,,
153,/title/tt0783233/,,"Gedney Drove End, Cambridgeshire, England, UK",(coastal marshes),,,
154,/title/tt0783233/,,"Whittington Lodge Farm, Whittington, Cheltenham, Gloucestershire, England, UK",(the poppy fields),"Whittington House Nursing Home, Whittington Road, Benhall, Cheltenham, Gloucestershire, South West England, England, GL51 6BL, United Kingdom",51.8947704,-2.124633878341295
155,/title/tt0783233/,,"Bethnall Green Town Hall Hotel and Apartments, Patriot Square, London, England, UK",(The Swallow tea room),,,
156,/title/tt0783233/,,"Great Scotland Yard, St James's, London, England, UK",(Robbie says goodbye before going to fight in France),,,
157,/title/tt0783233/,,"Lydhurst Avenue, London, England, UK",(home of Cecilia and Robbie in Balham),"Lydhurst Avenue, Streatham Hill, London Borough of Lambeth, London, Greater London, England, SW2 3FE, United Kingdom",51.4367904,-0.1177904
158,/title/tt0783233/,,"Step-A-Side, Onibury, Craven Arms, Shropshire, England, UK",(the bridge on the Tallis family estate),,,
159,/title/tt0783233/,,"Coastguard Cottages 1-2, Cuckmere Haven, Seaford, East Sussex, England, UK",(dream cottage on the coast),,,
160,/title/tt0783233/,,"Redcar Beach, Redcar, North Yorkshire, England, UK",(evacuation of Dunkirk),"Redcar, Redcar and Cleveland, North East England, England, TS10 1DZ, United Kingdom",54.6179021,-1.0687914
161,/title/tt0783233/,,"Dover, Kent, England, UK",,"Dover, Kent, South East, England, United Kingdom",51.1251275,1.3134228
162,/title/tt0783233/,,"Nene Washes Nature Reserve, Peterborough, Cambridgeshire, England, UK",(for late 1930s rural France),,,
163,/title/tt0783233/,,"Seven Sisters, East Sussex, England, UK",,"Seven Sisters, Crowlink Lane, East Dean and Friston, Wealden, East Sussex, South East, England, BN20 0AZ, United Kingdom",50.7515798,0.1744874
164,/title/tt0783233/,,"Grimsby Docks, Grimsby, Lincolnshire, England, UK",(Dunkirk - street scenes),"Grimsby Docks, Railway Street, East Marsh, Grimsby, North East Lincolnshire, Yorkshire and the Humber, England, DN32 7BN, United Kingdom",53.5741416,-0.0758325
165,/title/tt0783233/,,"13 Newcomen Terrace, Redcar, North Yorkshire, England, UK",(the bar in Dunkirk),,,
166,/title/tt0783233/,,"The Coatham Hotel and Regent Cinema, Newcomen Terrace, Redcar, North Yorkshire, England, UK",(the cinema in Dunkirk),,,
167,/title/tt0783233/,,"Westminster, London, England, UK",,"Westminster, Millbank, City of Westminster, London, Greater London, England, SW1P 3JX, United Kingdom",51.5004439,-0.1265398
168,/title/tt0783233/,,"E Stage, Shepperton Studios, Shepperton, Surrey, England, UK",,,,
169,/title/tt0783233/,,"L Stage, Shepperton Studios, Shepperton, Surrey, England, UK",,,,
170,/title/tt7653254/,,"New York, USA",,"New York, United States of America",40.7127281,-74.0060152
171,/title/tt7653254/,,USA,,United States,39.7837304,-100.4458825
172,/title/tt8332922/,,"Buffalo FilmWorks - 370 Babcock Street, Buffalo, New York, USA",(sound stage),,,
173,/title/tt8332922/,,"New York City, New York, USA",,"New York, United States of America",40.7127281,-74.0060152
174,/title/tt8332922/,,USA,,United States,39.7837304,-100.4458825
175,/title/tt1693592/,,"Snook House, Lindisfarne Causeway, Berwick-upon-Tweed, Northumberland, UK",(Vera's home),,,
176,/title/tt8134186/,,"Manchester, England, UK",,"Manchester, Greater Manchester, North West England, England, United Kingdom",53.4794892,-2.2451148
177,/title/tt8134186/,,"Cathedral Quarries, Little Langdale, Lake District, Cumbria, England, UK",(location),,,
178,/title/tt8134186/,,"Alpine Lake Dam, Marin County, California, USA",,"Alpine Lake, Fairfax-Bolinas Road, Manor, Marin County, California, 94930, United States of America",37.9405477,-122.6349904
179,/title/tt0086250/,,"656 Park Ln, Santa Barbara, California, USA",(Alejandro Sosa's Bolivian Estate),"656, Park Lane, Montecito, Santa Barbara County, California, 93108, United States of America",34.44114615,-119.61722939000884
180,/title/tt0086250/,,"728 Ocean Drive, Miami Beach, Florida, USA",(Sun Ray Hotel - coke deal with Colombians & chainsaw scene),"728, Ocean Drive, South Beach, Miami Beach, Miami-Dade County, Florida, 33139, United States of America",25.7773486,-80.1316093
181,/title/tt0086250/,,"Torrance, California, USA",(Tony's mother's house),"Torrance, Los Angeles County, California, United States of America",33.8358492,-118.3406288
182,/title/tt0086250/,,"8623 West Sunset Boulevard, West Hollywood, California, USA",(Montana Management Co.),"Montgomery Management Company, 8623, West Sunset Boulevard, Sunset Strip, West Hollywood, Los Angeles County, California, 90069, United States of America",34.0925845,-118.3800494105775
183,/title/tt0086250/,,"3501 Southwest 130th Avenue, Davie, Florida, USA",(Babylon Club exterior),"3501, Southwest 130th Avenue, Pine Island, Davie, Broward County, Florida, 33330, United States of America",26.075024,-80.322362
184,/title/tt0086250/,,"Miami, Florida, USA",,"Miami, Miami-Dade County, Florida, United States of America",25.7742658,-80.1936589
185,/title/tt0086250/,,"South Beach, Miami Beach, Florida, USA",,"South Beach, 5th Street, South Beach, Miami Beach, Miami-Dade County, Florida, 33139, United States of America",25.7744291,-80.1332415
186,/title/tt0086250/,,"Santa Barbara, California, USA",,"Santa Barbara, Santa Barbara County, California, United States of America",34.4221319,-119.7026673
187,/title/tt0086250/,,"Montecito, California, USA",,"Montecito, Santa Barbara County, California, 93108, United States of America",34.4366626,-119.6320753
188,/title/tt0086250/,,"Stage 12, Universal Studios - 100 Universal City Plaza, Universal City, California, USA",,,,
189,/title/tt0086250/,,"Infiniti - 8825 Wilshire Boulevard - Beverly Hills, California, USA",(Frank Lopez' Mercedes dealership),,,
190,/title/tt0362359/,,"Malibu, California, USA",(Newport Beach exteriors),"Malibu, Los Angeles County, California, 90265-4797, United States of America",34.035591,-118.689423
191,/title/tt0362359/,,"Raleigh Manhattan Beach Studios - 1600 Rosecrans Avenue, Manhattan Beach, California, USA",(studio),,,
192,/title/tt0362359/,,"Mira Costa High School - 701 S. Peck Avenue, Manhattan Beach, California, USA",(as Newport Union High School),,,
193,/title/tt0362359/,,"Trump National Golf Club - 1 Ocean Trails Drive, Rancho Palos Verdes, California, USA",,,,
194,/title/tt0210945/,,"Rome, Georgia, USA",(Berry College),"Rome, Floyd County, Georgia, 30161, United States of America",34.257038,-85.1646726
195,/title/tt0210945/,,"Georgia, USA","(some scenes are filmed at Etowah Hight School in Woodstock Georgia.field and statuim in the first scene in the 1970's, when they are practicing before camp and before school, the first time you see any of them on the field, that is at Etowah High school. and during the game when the people in the stands are dressed for cold weather, that is also at the staduim of Etowah High school.)","Georgia, United States of America",32.3293809,-83.1137366
196,/title/tt0210945/,,"Sprayberry High School - 2525 Sandy Plains Road, Marietta, Georgia, USA",,,,
197,/title/tt0210945/,,"Berry College - 2277 Martha Berry Highway, Rome, Georgia, USA",,,,
198,/title/tt0210945/,,"Etowah High School, Woodstock, Georgia, USA",(Football stadium),"Etowah High School, 6565, Putnam Ford Drive, The Arbors, Cherokee County, Georgia, 30189, United States of America",34.1159955,-84.564328
199,/title/tt0210945/,,"Henry W. Grady High School - 929 Charles Allen Drive N.E., Atlanta, Georgia, USA",,,,
200,/title/tt2066051/,,"Troubadour, West Hollywood, California, USA",(location),"Troubadour, 9081, Santa Monica Boulevard, West Hollywood, Los Angeles County, California, 90069, United States of America",34.0816145,-118.38935210812531
201,/title/tt2066051/,,"Bray Studios, England, UK",,"Bray Studios, Down Place, Bray, Oakley Green, Windsor and Maidenhead, South East, England, SL4 5UG, United Kingdom",51.4911738,-0.6772174165413534
202,/title/tt2066051/,,"Dodger Stadium - 1000 Vin Scully Avenue, Chavez Ravine, Elysian Park, Los Angeles, California, USA",(Elton John's concert),,,
203,/title/tt2066051/,,UK,,United Kingdom,54.7023545,-3.2765753
204,/title/tt1731601/,,"Llantrisant, Rhondda Cynon Taff, Wales, UK",,,,
205,/title/tt1213641/,,"Lot108, Atlanta, Georgia, USA",,,,
206,/title/tt1213641/,,"Tyler Perry Studios, Atlanta, Georgia, USA",(studio),,,
207,/title/tt1213641/,,"Georgia, USA",,"Georgia, United States of America",32.3293809,-83.1137366
208,/title/tt8544498/,,"Los Angeles, California, USA",,"Los Angeles, Los Angeles County, California, United States of America",34.0536909,-118.2427666
209,/title/tt2628232/,,"King's Inns, Henrietta Street, Dublin, County Dublin, Ireland",(Explorers' Club),,,
210,/title/tt2628232/,,"Cabinteely, Dublin, County Dublin, Ireland",(Wild West show),"Cabinteely, Foxrock-Carrickmines ED, Dublin 18, Dún Laoghaire-Rathdown, County Dublin, Leinster, D18 FV07, Ireland",53.2612843,-6.1505691
211,/title/tt2628232/,,"El Chorrillo, Pechina, Almeria, Andalucia, Spain",(Western scenes),,,
212,/title/tt2628232/,,"Bray Head, County Wicklow, Ireland",(Cut Wife's cottage exterior scenes),"Bray Head, The Municipal District of Bray, County Wicklow, Leinster, A98 XW24, Ireland",53.190478,-6.0837224
213,/title/tt2628232/,,"The Motte Stone, Connary Upper, Wicklow, Ireland",,,,
214,/title/tt2628232/,,"Belgravia, London, England, UK",(Dorian Gray's neighborhood),"Belgravia, City of Westminster, London, Greater London, England, SW1X 8QA, United Kingdom",51.4982128,-0.1534998
215,/title/tt2628232/,,"Fort Bravo-Texas Hollywood, Tabernas, Almería, Andalucía, Spain",(New Mexico scenes),"Fort Bravo/Texas Hollywood, Texas Hollywood / Fort Bravo, Tabernas, Almería, Andalucía, 04200, España",37.048027149999996,-2.4209645263895823
216,/title/tt0248654/,,"Long Beach, California, USA",,"Long Beach, Los Angeles County, California, United States of America",33.7690164,-118.1916048
217,/title/tt0248654/,,"Lakewood, California, USA",,"Lakewood, Los Angeles County, California, United States of America",33.8503463,-118.1171914
218,/title/tt0248654/,,"Hollywood, Los Angeles, California, USA",,"Hollywood, Los Angeles, Los Angeles County, California, 90028-8127, United States of America",34.0980031,-118.329523
219,/title/tt0248654/,,"Van Nuys, Los Angeles, California, USA",,"Van Nuys, Los Angeles, Los Angeles County, California, 91401-2649, United States of America",34.1866193,-118.4486669
220,/title/tt10303430/,,"Los Angeles, California, USA",,"Los Angeles, Los Angeles County, California, United States of America",34.0536909,-118.2427666
221,/title/tt3460252/,,"Schmid Ranch, Telluride, Colorado, USA",(exterior scenes),,,
222,/title/tt3460252/,,"Los Angeles, California, USA",,"Los Angeles, Los Angeles County, California, United States of America",34.0536909,-118.2427666
223,/title/tt0120631/,,"Chateau de la Roussie, 24200 Proissans, Sarlat-la-Caneda, Dordogne, France",(Danielle's house),"Château de la Roussie, D 56, La Plaine de Roussie, Proissans, Sarlat-la-Canéda, Dordogne, Nouvelle-Aquitaine, France métropolitaine, 24200, France",44.920639,1.252694
224,/title/tt0120631/,,"Dordogne, France",,"Dordogne, Nouvelle-Aquitaine, France métropolitaine, France",45.14291985,0.6321258058651044
225,/title/tt0120631/,,France,,France,46.603354,1.8883335
226,/title/tt4731136/,,"Heilstätten, Beelitz, Brandenburg, Germany",(location),"Beelitz-Heilstätten, Beelitz, Potsdam-Mittelmark, Brandenburg, 14547, Deutschland",52.2618758,12.9245909
227,/title/tt4731136/,,"Schraplau, Saxony-Anhalt, Germany",,"Schraplau, Weida-Land, Saalekreis, Sachsen-Anhalt, Deutschland",51.4383844,11.6668362
228,/title/tt4731136/,,"Zwickau, Saxony, Germany",(Water Gymnastics Pool),"Zwickau, Sachsen, Deutschland",50.7185043,12.4939267
229,/title/tt0268978/,,"Newark, New Jersey, USA",,"Newark, Essex County, New Jersey, United States of America",40.735657,-74.1723667
230,/title/tt0268978/,,"Manhattan College - Manhattan College Parkway, Riverdale, Manhattan, New York City, New York, USA",(Harvard scenes),,,
231,/title/tt0268978/,,"East Orange, New Jersey, USA",,"East Orange, Essex County, New Jersey, United States of America",40.767323,-74.2048677
232,/title/tt0268978/,,"Jersey City, New Jersey, USA",,"Jersey City, Hudson County, New Jersey, United States of America",40.7281575,-74.0776417
233,/title/tt0268978/,,"Fordham University - 441 E. Fordham Road. Rose Hill, Bronx, New York City, New York, USA",,,,
234,/title/tt0268978/,,"Yonkers, New York, USA",,"Yonkers, Westchester County, New York, United States of America",40.9312099,-73.8987469
235,/title/tt3501584/,,"210-555 Brooksbank Ave, Bld. 10 North Vancouver, British Columbia, Canada",(studio),,,
236,/title/tt6439020/,,"King's Lynn, Norfolk, England, UK",,"King's Lynn, Norfolk, East of England, England, PE30 1AR, United Kingdom",52.754891,0.3964614
237,/title/tt6439020/,,"Dorney Court, Dorney, Buckinghamshire, England, UK",,"Dorney Court, Court Lane, Dorney, Buckinghamshire, South East, England, SL4 6QR, United Kingdom",51.5026216,-0.6683080784164475
238,/title/tt6439020/,,"Ealing Studios, London, England, UK",,"Ealing Studios, London Borough of Ealing, London, Greater London, England, United Kingdom",51.50903755,-0.30734058249777363
239,/title/tt6439020/,,"England, UK",,"England, United Kingdom",52.7954791,-0.5402402866174321
240,/title/tt7263154/,,"Saint-Malo, France",,"Saint-Malo, Ille-et-Vilaine, Bretagne, France métropolitaine, 35400, France",48.6454528,-2.015418
241,/title/tt7263154/,,"Veldhoven, Noord-Brabant, Netherlands",,"Veldhoven, Noord-Brabant, Nederland",51.40770635,5.392731058176404
242,/title/tt7263154/,,"Aken, Germany",,"Aachen, Städteregion Aachen, Nordrhein-Westfalen, Deutschland",50.776351,6.083862
243,/title/tt1800241/,,"Worcester, Massachusetts, USA",(interior and street scenes),"Worcester, Worcester County, Massachusetts, United States of America",42.2625932,-71.8022934
244,/title/tt1800241/,,"Essex Superior Courthouse - 34 Federal Street, Salem, Massachusetts, USA",,,,
245,/title/tt1800241/,,"Salem, Massachusetts, USA",(Interior and street scenes),"Salem, Essex County, Massachusetts, 01970, United States of America",42.5195292,-70.8967226
246,/title/tt1800241/,,"Malden, Massachusetts, USA",(Mayor's house),"Malden, Middlesex County, Massachusetts, 02148, United States of America",42.4250964,-71.066163
247,/title/tt1800241/,,"Union Station, Worcester, Massachusetts, USA",(exterior scenes),"Atlantic Union College, George Hill Road, Ebenville, Lancaster, Worcester County, Massachusetts, 01561, United States of America",42.4460379,-71.6848648
248,/title/tt1800241/,,"Massachusetts, USA",,"Massachusetts, United States of America",42.3788774,-72.032366
249,/title/tt1800241/,,"Norwood Memorial Airport, 125 Access Rd, Norwood, Massachusetts, USA",,"Norwood Memorial Airport, 125, Access Road, Winslows, Norwood, Norfolk County, Massachusetts, 02062, United States of America",42.18799105,-71.17554459560378
250,/title/tt1800241/,,"Plaza Hotel - 750 Fifth Avenue, Manhattan, New York City, New York, USA",(on location) (exterior scenes),,,
251,/title/tt1800241/,,"54 Doonan Street, Medford, Massachusetts, USA",(Irving's house),"54, Doonan Street, Medford, Middlesex County, Massachusetts, 02148, United States of America",42.4317632,-71.08964513397768
252,/title/tt1800241/,,"37 Beltran Street, Malden, Massachusetts, USA",(Carmine's house),"37, Beltran Street, Oak Grove, Malden, Middlesex County, Massachusetts, 02148, United States of America",42.4332434,-71.07370307807898
253,/title/tt1800241/,,"Teterboro Airport - 90 Moonachie Avenue, Teterboro, New Jersey, USA",(on location),"Teterboro Airport, Purcell Court, Moonachie, Bergen County, New Jersey, 07074, United States of America",40.84951,-74.06353615015186
254,/title/tt1800241/,,"New York City, New York, USA",(exterior shots),"New York, United States of America",40.7127281,-74.0060152
255,/title/tt0050083/,,"Fox Movietone Studio, New York, USA",(studio),,,
256,/title/tt2699110/,,"Long Island, New York, USA",,"Long Island, Suffolk County, New York, United States of America",40.85172235,-73.09921882199973
257,/title/tt2699110/,,"Los Angeles, California, USA",(Season 4),"Los Angeles, Los Angeles County, California, United States of America",34.0536909,-118.2427666
258,/title/tt0439100/,,"Manhattan Beach, California, USA","(Boston Globe, 6/14/08)","Manhattan Beach, Los Angeles County, California, 90266, United States of America",33.8915985,-118.3951241
259,/title/tt0439100/,,"26885 Chaucer Pl, Stevenson Ranch, California, USA",(Nancy's house),,,
260,/title/tt3397884/,,"Albuquerque, New Mexico, USA",,"Albuquerque, Bernalillo County, New Mexico, United States of America",35.0841034,-106.6509851
261,/title/tt3397884/,,"Motel 1, 2001 Candelaria Rd NE, Albuquerque, New Mexico, USA",(Motel Scene),,,
262,/title/tt3397884/,,"Corrales, New Mexico, USA",(location),"Corrales, Sandoval County, New Mexico, 87048, United States of America",35.2382346,-106.6069727
263,/title/tt3397884/,,"9620 Candelaria Road NE, Albuquerque, New Mexico, USA",(bank scene),"Candelaria Road Northeast, Netherwood Park, Albuquerque, Bernalillo County, New Mexico, 87107-4224, United States of America",35.1165281,-106.6085255
264,/title/tt2179136/,,"O'Malleys Pub , Seal Beach, California, USA",,,,
265,/title/tt2179136/,,"Salé, Morroco",,,,
266,/title/tt2179136/,,"San Bernardino International Airport - 294 S. Leland Norton Way, San Bernardino, California, USA",,,,
267,/title/tt2179136/,,"Los Angeles, California, USA",,"Los Angeles, Los Angeles County, California, United States of America",34.0536909,-118.2427666
268,/title/tt2179136/,,"Seal Beach Pier, Main Street, Seal Beach, California, USA",(Not Oceanside),,,
269,/title/tt2179136/,,"Santa Clarita, California, USA",,"Santa Clarita, Los Angeles County, California, United States of America",34.3916641,-118.542586
270,/title/tt2179136/,,"Daniel Freeman Regional Medical Center - 333 North Prairie Avenue, Inglewood, California, USA",(Hospital exterior where Taya was on the phone),,,
271,/title/tt2179136/,,"Highland Park, Los Angeles, California, USA",,"Highland Park, Los Angeles, Los Angeles County, California, United States of America",34.1099469,-118.1969828
272,/title/tt0434409/,,"Berlin, Germany",,"Berlin, 10117, Deutschland",52.5170365,13.3888599
273,/title/tt0434409/,,"Studio Babelsberg, Potsdam, Brandenburg, Germany",(studio),"Studio Babelsberg, 15, Babelsberg, Potsdam, Brandenburg, 14482, Deutschland",52.38260355,13.113726021425222
274,/title/tt0434409/,,"Strand, London, England, UK",,"Strand, St Clement Danes, Covent Garden, City of Westminster, London, Greater London, England, WC2, United Kingdom",51.5126762,-0.1149508
275,/title/tt0434409/,,"Hatfield House, Hatfield, Hertfordshire, England, UK",,"Hatfield House, The Stable Yard, Hatfield, Welwyn Hatfield, Hertfordshire, East of England, England, AL9 5NF, United Kingdom",51.7605139,-0.20879851305478084
276,/title/tt0434409/,,"London, England, UK",,"London, Greater London, England, United Kingdom",51.5073219,-0.1276474
277,/title/tt0434409/,,"Parliament Square, Westminster, London, England, UK",(Parliament externals),"Parliament Square, Westminster, Millbank, City of Westminster, London, Greater London, England, United Kingdom",51.500616750000006,-0.12723657575273836
278,/title/tt7504726/,,"British Columbia, Canada",,"British Columbia, Canada",55.001251,-125.002441
279,/title/tt7504726/,,"Santa Clarita, California, USA",,"Santa Clarita, Los Angeles County, California, United States of America",34.3916641,-118.542586
280,/title/tt1210166/,,"Oakland, California, USA",(Oakland Athletics Stadium),"Oakland, Alameda County, California, United States of America",37.8044557,-122.2713563
281,/title/tt1210166/,,"Downtown, Los Angeles, California, USA",,"Downtown, Los Angeles, Los Angeles County, California, United States of America",34.0428494,-118.2476732
282,/title/tt1210166/,,"Ontario International Airport - 2900 E. Airport Drive, Ontario, California, USA",(interiors),,,
283,/title/tt1210166/,,"California, USA",,"California, United States of America",36.7014631,-118.7559974
284,/title/tt1210166/,,"Phoenix Municipal Stadium, 5999 E. Van Buren Street, Phoenix, Arizona, USA",(location),,,
285,/title/tt1210166/,,"Arizona, USA",,"Arizona, United States of America",34.395342,-111.7632755
286,/title/tt1210166/,,"Los Angeles, California, USA",,"Los Angeles, Los Angeles County, California, United States of America",34.0536909,-118.2427666
287,/title/tt10293938/,,"South Carolina, USA",,"South Carolina, United States of America",33.6874388,-80.4363743
288,/title/tt1454029/,,"Jackson, Mississippi, USA",,"Jackson, Hinds County, Mississippi, United States of America",32.2990384,-90.1847691
289,/title/tt7817340/,,"Kings County Hospital Center - 451 Clarkson Avenue, Brooklyn, New York City, New York, USA",(New Amsterdam Hospital including exteriors),"Kings County Hospital Center, 451, Clarkson Avenue, Brooklyn, Kings County, New York, 11203, United States of America",40.65666885,-73.94345825407726
290,/title/tt0387199/,,"Malibu Lagoon State Beach - 23200 Pacific Coast Highway, Malibu, California, USA",,"Malibu Lagoon State Beach, Pacific Coast Highway, Malibu Beach, Malibu, Los Angeles County, California, 90265-4797, United States of America",34.03393525,-118.67896640147059
291,/title/tt0387199/,,"Viper Room - 8852 Sunset Blvd., Hollywood, Los Angeles, California, USA",(opening credits),"The Viper Room, 8852, West Sunset Boulevard, Sunset Strip, West Hollywood, Los Angeles County, California, 90069, United States of America",34.090449,-118.3847153
292,/title/tt0387199/,,"Arclight Cinemas - 6360 W. Sunset Blvd., Hollywood, Los Angeles, California, USA",(opening credits),,,
293,/title/tt0387199/,,"Hollywood Boulevard & Highland Avenue, Hollywood, Los Angeles, California, USA",(opening credits),,,
294,/title/tt0387199/,,"Beverly Hills, California, USA",,"Beverly Hills, Los Angeles County, California, United States of America",34.0696501,-118.3963062
295,/title/tt0387199/,,"Los Angeles, California, USA",,"Los Angeles, Los Angeles County, California, United States of America",34.0536909,-118.2427666
296,/title/tt0387199/,,"Santa Clarita, California, USA",,"Santa Clarita, Los Angeles County, California, United States of America",34.3916641,-118.542586
297,/title/tt0387199/,,"West Hollywood, California, USA",,"West Hollywood, Los Angeles County, California, United States of America",34.0923014,-118.3692894
298,/title/tt3581652/,,"New York, USA",,"New York, United States of America",40.7127281,-74.0060152
299,/title/tt3581652/,,"Newark, New Jersey, USA",,"Newark, Essex County, New Jersey, United States of America",40.735657,-74.1723667
300,/title/tt3581652/,,"National Newark Building, 744 Broad St, Newark, New Jersey, USA",,,,
301,/title/tt0105958/,,"Walt Disney Studios, 500 South Buena Vista Street, Burbank, California, USA",,,,
302,/title/tt0105958/,,"Ruppert Hall, Loyola High School - 1901 Venice Boulevard, Los Angeles, California, USA","(Cory's school, where Mr Feeny teaches)",,,
303,/title/tt2309295/,,"Liuna Station, Hamilton, Ontario",(The Godfrey Institute),"LiUNA Station, 360, James Street North, North End, Hamilton, Golden Horseshoe, Ontario, L8L 2V6, Canada",43.2656282,-79.8637551
304,/title/tt2309295/,,"Claireville Conservation Area, Brampton, Ontario, Canada",,"Claireville Conservation Area, Claireville, Brampton, Peel Region, Golden Horseshoe, Ontario, L6T 0B2, Canada",43.7431901,-79.63977980266392
305,/title/tt2309295/,,"Eaton Hall, King City, Ontario, Canada",,"Eaton Hall, Woodland Passage Trail, King, York Region, Golden Horseshoe, Ontario, L7B 1K5, Canada",43.96187575,-79.52048077010983
306,/title/tt0458352/,,"St Regis-Sheraton Hotel - 2 East 55th Street, Fifth Avenue, Manhattan, New York City, New York, USA",(Tearfull Miranda Priestly scene),,,
307,/title/tt0458352/,,"Silvercup Studios - 4222 22nd Street, Long Island City, Queens, New York City, New York, USA",(studio),"Silvercup Studios Main Lot, 42-22, 22nd Street, Queens, Queens County, New York, 11101, United States of America",40.7513513,-73.94424267969767
308,/title/tt0458352/,,"3 Times Square, Manhattan, New York City, New York, USA",(Runnway's office canteen),"3 Times Square, 3, 7th Avenue, Times Square, Manhattan Community Board 5, Times Square, New York County, New York, 10036, United States of America",40.75660395,-73.98700701375037
309,/title/tt0458352/,,"Philadelphia Hotel, Times Square, New York City, New York, USA",(Ann wakes up in Christian's hotel bedroom in Paris),,,
310,/title/tt0458352/,,"New York City, New York, USA",,"New York, United States of America",40.7127281,-74.0060152
311,/title/tt0458352/,,"1221 6th Ave, Manhattan, New York City, New York, USA",(Elias-Clarke's headquarters),"McGraw-Hill Building, 1221, 6th Avenue, Midtown, Manhattan Community Board 5, Manhattan, New York County, New York, 10019, United States of America",40.7595447,-73.98253281534684
312,/title/tt0335266/,,"Heian Shrine, Kyoto, Japan",,"平安神宮, 丸太町通, 聖護院山王町, 岡崎入江町, 左京区, 京都府, 606-8341, 日本 (Japan)",35.015906799999996,135.78289780423577
313,/title/tt0335266/,,"Rainbow Bridge, Minato, Tokyo, Japan",,"レインボーブリッジ, 首都高速11号台場線, 台場1, 台場, 東京都, 港区, 135-0091, 日本 (Japan)",35.636321699999996,139.77490736053358
314,/title/tt0335266/,,"Kyoto, Japan",,"京都市, 京都府, 日本 (Japan)",35.021041,135.7556075
315,/title/tt0335266/,,"Sushiya no Ichikan, Shibuya, Tokyo, Japan",(Bob and Charlotte go to the sushi restaurant),,,
316,/title/tt0335266/,,"Kawaguchiko Country Club, Fujikawaguchiko, Yamanashi, Japan","(Bob tees off on 2nd Hole, South Nine)",,,
317,/title/tt0335266/,,"Omote-Sando, Tokyo, Japan",(Train station scene),"表参道, 青山通り, 南青山6, 東京都, 港区, 1070042, 日本 (Japan)",35.6649851,139.7125708
318,/title/tt0335266/,,"Nanzen-ji Temple, Kyoto, Japan",(Charlotte sees the newlywed Japanese couple),"南禅寺, 蹴上インクライン, 東山区, 京都府, 606-8437, 日本 (Japan)",35.011063899999996,135.79260238044424
319,/title/tt0335266/,,Japan,,日本,36.5748441,139.2394179
320,/title/tt0120863/,,"Honiara, Solomon Islands",,"Honiara, Capital Territory, 677, Solomon Islands",-9.4310769,159.9552552
321,/title/tt0120863/,,"Port Douglas, Queensland, Australia",,"Port Douglas, Douglas Shire, Queensland, 4877, Australia",-16.4845983,145.4636294
322,/title/tt0120863/,,"San Pedro, Los Angeles, California, USA",,"San Pedro, Los Angeles, Los Angeles County, California, 90731, United States of America",33.7358518,-118.2922934
323,/title/tt0120863/,,"Bramston Beach, Queensland, Australia",,"Bramston Beach, Cairns, Cairns Regional, Queensland, Australia",-17.3495925,146.010814753739
324,/title/tt0120863/,,Solomon Islands,,Solomon Islands,-8.7053941,159.10710973724628
325,/title/tt0120863/,,"Los Angeles, California, USA",(San Pedro),"Los Angeles, Los Angeles County, California, United States of America",34.0536909,-118.2427666
326,/title/tt0118971/,,"Gainesville, Florida, USA","(establishing shots, home town of Kevin Lomax)","Gainesville, Alachua County, Florida, United States of America",29.6519684,-82.3249846
327,/title/tt0118971/,,"Jacksonville, Florida, USA",(establishing shots),"Jacksonville, Duval County, Florida, United States of America",30.3321838,-81.655651
328,/title/tt0118971/,,"Bellevue Hospital - 462 First Avenue, Manhattan, New York City, New York, USA",(Mary's suicide scenes),,,
329,/title/tt0118971/,,"Central Presbyterian Church - 593 Park Avenue, East Side, Manhattan, New York City, New York, USA",(St Andrews Catholic Church) (Holy water boiling scene),,,
330,/title/tt0118971/,,"Carnegie Hill, Manhattan, New York City, New York, USA",,"Carnegie Hill, Manhattan Community Board 8, Manhattan, New York County, New York, United States of America",40.7841972,-73.954339
331,/title/tt0118971/,,"Continental Tower, Continental Plaza, Wall Street, Manhattan, New York City, New York, USA",(John Milton leads Kevin Lomax into temptation),,,
332,/title/tt0118971/,,"Central Park, Manhattan, New York City, New York, USA",(Eddie Barzoon's heart attack whilst jogging),"Central Park, Manhattan, New York County, New York, United States of America",40.7827725,-73.9653627406542
333,/title/tt0118971/,,"Central Park West, Manhattan, New York City, New York, USA",,"Central Park West, Columbus Circle, Manhattan Community Board 7, Manhattan, New York County, New York, 10107, United States of America",40.7684282,-73.9815516
334,/title/tt0118971/,,"East River, New York City, New York, USA",,"East River, New York, 10044, United States of America",40.7792911,-73.92771
335,/title/tt0118971/,,"Fifth Avenue, Manhattan, New York City, New York, USA",,,,
336,/title/tt0118971/,,"Jacqueline Kennedy Onassis Reservoir, Central Park, Manhattan, New York City, New York, USA",(Eddie Barzoon's heart attack whilst jogging),"Jacqueline Kennedy Onassis Reservoir, Northwest Central Park Loop, Manhattan, New York County, New York, 10024, United States of America",40.785450999999995,-73.96261042305999
337,/title/tt0118971/,,"Manhattan Municipal Building - 1 Centre Street, Manhattan, New York City, New York, USA",,,,
338,/title/tt0118971/,,"New York City, New York, USA",,"New York, United States of America",40.7127281,-74.0060152
339,/title/tt0118971/,,"Soho, Manhattan, New York City, New York, USA",,"SoHo, Spring Street, Little Italy, Manhattan Community Board 2, Manhattan, New York County, New York, 10013, United States of America",40.72288,-73.9987505
340,/title/tt0118971/,,"Surrogate's Court - 31 Chamber's Street, Lower Manhattan, Manhattan, New York City, New York, USA",(Kevin Lomax exit from offices),,,
341,/title/tt12540080/,,"New York, USA",(location),"New York, United States of America",40.7127281,-74.0060152
342,/title/tt0119174/,,"Filoli Estate - 86 Cañada Road, Woodside, California, USA",,"Filoli Estate, 86, Cañada Road, Highlands, San Mateo County, California, 94062, United States of America",37.469806250000005,-122.31060788438967
343,/title/tt0119174/,,"City Club - 155 Sansome Street, San Francisco, California, USA",,,,
344,/title/tt0119174/,,"Johnie's Broiler - 7447 Firestone Blvd., Downey, California, USA",(Now Bob's Big Boy Broiler),,,
345,/title/tt0119174/,,"Sheraton Palace - 639 Market Street, San Francisco, California, USA",,,,
346,/title/tt0119174/,,"301 Howard Street, San Francisco, California, USA",,"301, Howard Street, Financial District, San Francisco, San Francisco City and County, California, 94105, United States of America",37.7895328,-122.3942379
347,/title/tt0119174/,,"San Francisco-Oakland Bay Bridge, San Francisco Bay, California, USA",,"San Francisco – Oakland Bay Bridge, Yerba Buena Island, San Francisco, San Francisco City and County, California, 94017, United States of America",37.7885108,-122.3882669
348,/title/tt0119174/,,"Mason Street & California Street, Nob Hill, San Francisco, California, USA",(confrontation between brothers),,,
349,/title/tt0119174/,,"Palo Alto, California, USA",,"Palo Alto, Santa Clara County, California, United States of America",37.4443293,-122.1598465
350,/title/tt0119174/,,"Los Angeles International Airport - 1 World Way, Los Angeles, California, USA",(Stand-in for San Francisco International Airport. Nick arrives at Terminal 2 and uses a lounge whose windows look down the connector between Terminals 2 and 3.),,,
351,/title/tt0119174/,,"Tunnel Top Lounge and Bar - 601 Bush Street, San Francisco, California, USA",(Nick chases Conrad to the tunnel stairs at this corner.),,,
352,/title/tt0119174/,,"San Francisco, California, USA",,"San Francisco, San Francisco City and County, California, United States of America",37.7790262,-122.4199061
353,/title/tt1596363/,,"The Black Horse, Windmill Road, Fulmer, Buckinghamshire, England, UK",(exterior of English pub),"The Black Horse, Windmill Road, Fulmer, Buckinghamshire, South East, England, SL3 6HD, United Kingdom",51.5611817,-0.5606642
354,/title/tt1596363/,,"Malibu, California, USA",(bathtub),"Malibu, Los Angeles County, California, 90265-4797, United States of America",34.035591,-118.689423
355,/title/tt1596363/,,UK,,United Kingdom,54.7023545,-3.2765753
356,/title/tt5016504/,,"Melbourne, Victoria, Australia",(Season 4),"Melbourne, City of Melbourne, Victoria, 3000, Australia",-37.8142176,144.9631608
357,/title/tt0408381/,,"Dinnabroad Farm, St. Teath, Bodmin, Cornwall, England, UK",(Joan Norton's house),,,
358,/title/tt0408381/,,"Boscastle, Cornwall, England, UK",,"Boscastle, Cornwall, South West England, England, PL35 0HE, United Kingdom",50.6895365,-4.692369
359,/title/tt4145054/,,"Toronto, Ontario, Canada",,"Toronto, Golden Horseshoe, Ontario, Canada",43.6534817,-79.3839347
360,/title/tt4145054/,,"Mississauga, Ontario, Canada",,"Mississauga, Peel Region, Golden Horseshoe, Ontario, Canada",43.590338,-79.645729
361,/title/tt0120382/,,"Panama City, Florida, USA",,"Panama City, Bay County, Florida, United States of America",30.1600827,-85.6545729
362,/title/tt0120382/,,"Universal Studios - 100 Universal City Plaza, Universal City, California, USA",,,,
363,/title/tt0120382/,,"Florida, USA","(Island, exteriors, interiors)","Florida, United States of America",27.7567667,-81.4639835
364,/title/tt0120382/,,"31, changed to 36, Natchez Street Seaside, Florida, USA",,,,
365,/title/tt0115355/,,"Cambridge, Cambridgeshire, England, UK",,"Cambridge, Cambridgeshire, East of England, England, United Kingdom",52.2034823,0.1235817
366,/title/tt0115355/,,"Almería, Andalucía, Spain",,"Almería, Andalucía, España",36.8414197,-2.4628135
367,/title/tt8010340/,,"Penang, Malaysia",,"Pulau Pinang, Malaysia",5.4065013,100.2559077
368,/title/tt2980516/,,"Dunsfold Park Aerodrome, Dunsfold Park, Dunsfold, Surrey, England, UK",(Airport scene between Jane Hawking and Jonathan Jones.),,,
369,/title/tt2980516/,,"Swinley Forest, Bracknell, Berkshire, England, UK",(Jane and Jonathan take the children camping),,,
370,/title/tt2980516/,,"Pinner, Middlesex, England, UK",,,,
371,/title/tt2980516/,,"St. John's College, Cambridge University, Cambridge, Cambridgeshire, England, UK",(university exteriors),,,
372,/title/tt2980516/,,"Horsted Keynes station, Bluebell Railway, West Sussex, England, UK",(Cambridge train station),,,
373,/title/tt2980516/,,"Penn, Buckinghamshire, England, UK",(wedding),"Penn, Beaconsfield, Buckinghamshire, South East, England, HP10 8RL, United Kingdom",51.6330228,-0.6879482
374,/title/tt2980516/,,"Royal Opera House, Bow Street, Covent Garden, London, England, UK",(opera),"Royal Opera House, Bow Street, St Clement Danes, Covent Garden, City of Westminster, London, Greater London, England, WC2E 9DD, United Kingdom",51.512873600000006,-0.12254367918576929
375,/title/tt2980516/,,"Hampton Court Palace, East Molesey, Surrey, England, UK",(as Buckingham Palace garden),,,
376,/title/tt0068149/,,"Stage 26, Warner Brothers Burbank Studios - 4000 Warner Boulevard, Burbank, California, USA",,,,
377,/title/tt2234222/,,"35 Mariner Terrace, Toronto, Ontario, Canada",(Beth's House),"Harbourview Estates 2, 35, Mariner Terrace, Spadina—Fort York, Old Toronto, Toronto, Golden Horseshoe, Ontario, M5V 3Y7, Canada",43.639684200000005,-79.39212575086206
378,/title/tt2234222/,,"35 Harper Hill Road, Markham, Ontario, Canada",(Alison's house),"35, Harper Hill Road, Markham, York Region, Golden Horseshoe, Ontario, L6C 0M4, Canada",43.894775,-79.321137
379,/title/tt2234222/,,"1 Elmsley Place, Toronto, Ontario, Canada",(Cosima's house),"1, Elmsley Place, University—Rosedale, Old Toronto, Toronto, Golden Horseshoe, Ontario, M5S 1C4, Canada",43.6655197,-79.38930314303498
380,/title/tt2234222/,,"St. Michael's College, 81 St. Mary Street, Toronto, Ontario, Canada",(University of Minnesota),,,
381,/title/tt2234222/,,"Waverley Hotel, 484 Spadina Avenue, Toronto, Ontario, Canada",(Maggie Chen's apartment),,,
382,/title/tt2234222/,,"Brennan Hall 3rd Floor, 81 St. Mary Street, Toronto, Ontario, Canada","(""Evolution is a human right"" lecture)",,,
383,/title/tt2234222/,,"274 Queen St S Mississauga, Ontario, Canada",(Swan Man Church),"Streetsville United Church, 274, Queen Street South, Vista Heights, Streetsville, Mississauga, Peel Region, Golden Horseshoe, Ontario, L5M 1L9, Canada",43.579413450000004,-79.71139160943531
384,/title/tt2234222/,,"1303 Lakeshore Rd E Mississauga, Ontario, Canada",(Green Acres Motel),"Green Acres Motel, 1303, Lakeshore Road East, Orchard Heights, Lakeview, Mississauga, Peel Region, Golden Horseshoe, Ontario, L5E 1G5, Canada",43.58345145,-79.5529419264895
385,/title/tt2234222/,,"20 wagstaff dr, Toronto, Ontario, Canada",(Thomson Groceries),"20, Wagstaff Drive, Toronto—Danforth, Old Toronto, Toronto, Golden Horseshoe, Ontario, M4L 1Y7, Canada",43.6734001,-79.3315853
386,/title/tt2234222/,,"3990 Major Mackenzie Dr E, Markham, Ontario, Canada",(Soccer field),"Markham Public Library - Angus Glen Branch, 3990, Major MacKenzie Drive East, Cachet, Markham, York Region, Golden Horseshoe, Ontario, L6C 1P8, Canada",43.8946497,-79.3359719
387,/title/tt2234222/,,"507 King Street East, Toronto, Ontario, Canada",(Police station),"507, King Street East, Toronto Centre, Old Toronto, Toronto, Golden Horseshoe, Ontario, M5A 1G1, Canada",43.654612,-79.35913207099591
388,/title/tt2234222/,,"Papas Laundromat, Dundas Street East, Toronto, Ontario, Canada",(MK's Laundromat),,,
389,/title/tt2234222/,,"Le Germaine Hotel - 75 Bremner Boulevard, Toronto, Ontario, Canada",(Brightborn),,,
390,/title/tt4878326/,,"Didsbury, Alberta, Canada",,"Didsbury, Town of Didsbury, Alberta, T0M 0W0, Canada",51.6607926,-114.1372475
391,/title/tt5651844/,,"British Columbia, Canada",,"British Columbia, Canada",55.001251,-125.002441
392,/title/tt0167404/,,"Blue Bell, Pennsylvania, USA",,"Blue Bell, Whitpain Township, Montgomery County, Pennsylvania, 19422, United States of America",40.152331,-75.266289
393,/title/tt0167404/,,"Bryn Mawr, Pennsylvania, USA",(Murdered Little girl's house/Grocery Store exteriors),"Bryn Mawr, Lower Merion Township, Montgomery County, Pennsylvania, 19041-1228, United States of America",40.0198335,-75.3046299
394,/title/tt0167404/,,"Gerri's Palm Tavern - 446 E. 47th Street, Grand Boulevard, Chicago, Illinois, USA",,,,
395,/title/tt0167404/,,USA,,United States,39.7837304,-100.4458825
396,/title/tt0112230/,,"Waitakere Ranges Regional Park, Waitakere, Auckland Region, New Zealand",,,,
397,/title/tt0112230/,,"Henderson, Auckland, New Zealand",(studio),"Henderson, Henderson-Massey, Auckland, 0650, New Zealand",-36.8805554,174.6333709
398,/title/tt0039896/,,"Hall of Justice - 211 W. Temple Street, Downtown, Los Angeles, California, USA",(court exterior),,,
399,/title/tt0039896/,,"Hollywood Burbank Airport - 2627 North Hollywood Way, Burbank, California, USA",(Larry and Janice return to Los Angeles),,,
400,/title/tt1837642/,,"Southport, North Carolina, USA",,"Southport, Brunswick County, North Carolina, United States of America",33.921563,-78.0202677
401,/title/tt1837642/,,"MBS Media Campus - 1600 Rosecrans Avenue, Manhattan Beach, California, USA",(studio),,,
402,/title/tt4093826/,,"North Bend, Washington, USA",,"North Bend, King County, Washington, United States of America",47.4959464,-121.7851542
403,/title/tt4093826/,,"Everett, Washington, USA",,"Everett, Snohomish County, Washington, United States of America",47.9673056,-122.2013998
404,/title/tt4093826/,,"Las Vegas, Nevada, USA",,"Las Vegas, Clark County, Nevada, United States of America",36.1672559,-115.1485163
405,/title/tt4093826/,,"Silver Lake, Los Angeles, California, USA",,"Silver Lake, Los Angeles, Los Angeles County, California, 90026-2106, United States of America",34.0896518,-118.2693735
406,/title/tt4093826/,,"Big Sky Ranch - 4927 Bennett Road, Simi Valley, California, USA",,,,
407,/title/tt4093826/,,"Palmdale, California, USA",,"Palmdale, Los Angeles County, California, United States of America",34.5793131,-118.1171108
408,/title/tt4093826/,,"Palm Springs, California, USA",,"Palm Springs, Riverside County, California, United States of America",33.8246269,-116.540303
409,/title/tt9815454/,,"Berlin, Germany",,"Berlin, 10117, Deutschland",52.5170365,13.3888599
410,/title/tt9815454/,,"Jüdischer Friedhof, Weißensee, Berlin, Germany",(cemetery),"Jüdischer Friedhof Berlin-Weißensee, Weißensee, Pankow, Berlin, 13088, Deutschland",52.54205865,13.464077112423116
411,/title/tt9815454/,,"Musikinstrumenten-Museum, Berlin, Germany",(music academy),"Musikinstrumenten-Museum, Tunnel Tiergarten Spreebogen, Botschaftsviertel, Tiergarten, Mitte, Berlin, 10785, Deutschland",52.51047815,13.37082067324739
412,/title/tt8362852/,,"North Carolina, USA",,"North Carolina, United States of America",35.6729639,-79.0392919
413,/title/tt2582846/,,"821 11th Street, Oakmont, Pittsburgh, Pennsylvania, USA",(Hazel Grace Lancaster's House),,,
414,/title/tt2582846/,,"Keizersgracht 498, Amsterdam, Netherlands",(Restaurant Oranjee -- Exterior scenes only),"Keizersgracht, Grachtengordel, Amsterdam, Noord-Holland, Nederland, 1015CN, Nederland",52.3776082,4.8876491
415,/title/tt2582846/,,"American Hotel, Amsterdam, Noord-Holland, Netherlands","(Hotel of Gus, Hazel and her mother -- Exterior scenes only -- a double was used in place of Laura Dern)","American Hotel, 97, Leidsekade, Kinkerbuurt, Amsterdam, Noord-Holland, Nederland, 1017PN, Nederland",52.3638369,4.8812002
416,/title/tt2582846/,,"Rijksmuseum, Amsterdam, Noord-Holland, Netherlands","(Tunnel under museum, with the music)","Rijksmuseum, Hobbemastraat, Museumkwartier, Amsterdam, Noord-Holland, Nederland, 1071ZC, Nederland",52.359875900000006,4.885058432455201
417,/title/tt2582846/,,"Allegheny General Hospital Suburban Campus - West Ave, Bellevue, Pittsburgh, Pennsylvania, USA",(Emergency Room Entrance),,,
418,/title/tt2582846/,,Netherlands,,Nederland,52.5001698,5.7480821
419,/title/tt2582846/,,"31st Street Studios - Pittsburgh, Pennsylvania, USA",(Anne Frank House -- scenes above the first floor),,,
420,/title/tt2582846/,,"Mansions on 5th Avenue Hotel, 5105 Fifth Ave, Pittsburgh, Pennsylvania, USA","(Hotel of Gus, Hazel and her mother -- interior scenes including all scenes with Laura Dern)",,,
421,/title/tt2582846/,,"Church Hill Cemetery - 260 Churchill Road, Wilkins Township, Pittsburgh, Pennsylvania, USA",(Gus's funeral near end of movie where Willem Defoe makes a surprise appearance),,,
422,/title/tt2582846/,,"Lawrenceville, Pittsburgh, Pennsylvania, USA",(Peter van Houten's house -- Interior scenes including those with Willem Defoe),"Lawrenceville, Pittsburgh, Allegheny County, Pennsylvania, 15201, United States of America",40.467569,-79.9606078
423,/title/tt0314331/,,"Canary Wharf, Isle of Dogs, London, England, UK",,"Canary Wharf, Isle of Dogs, London Borough of Tower Hamlets, London, Greater London, England, E14 5AX, United Kingdom",51.5048954,-0.0190006
424,/title/tt0314331/,,"Aix-en-Provence, Bouches-du-Rhône, France",,"Aix-en-Provence, Bouches-du-Rhône, Provence-Alpes-Côte d'Azur, France métropolitaine, France",43.5298424,5.4474738
425,/title/tt0314331/,,"Grosvenor Chapel, South Audley Street, Mayfair, London, England, UK",(Peter and Juliet's wedding),"Grosvenor Chapel, 24, South Audley Street, Mayfair, City of Westminster, London, Greater London, England, W1K 2PA, United Kingdom",51.5090453,-0.15120515777645877
426,/title/tt0314331/,,"Trafalgar Square, St James's, London, England, UK",,"Trafalgar Square, St. James's, Covent Garden, City of Westminster, London, Greater London, England, WC2, United Kingdom",51.508037,-0.12804941070724718
427,/title/tt0314331/,,"Bouches-du-Rhône, France",,"Bouches-du-Rhône, Provence-Alpes-Côte d'Azur, France métropolitaine, 13250, France",43.5424182,5.034323560504859
428,/title/tt0314331/,,"Esher, Surrey, England, UK",,"Esher, Surrey, South East, England, United Kingdom",51.3693929,-0.3654406
429,/title/tt0314331/,,Kenya,(Deleted Scene),Kenya,1.4419683,38.4313975
430,/title/tt0314331/,,"Shepperton Studios, Shepperton, Surrey, England, UK",(studio),,,
431,/title/tt0108358/,,"Babocomari Ranch, Sonoita, Arizona, USA",,,,
432,/title/tt0108358/,,"Texas Canyon, Arizona, USA",,"Texas, Gold Canyon RV & Golf Resort, Pinal County, Arizona, 85118, United States of America",33.3574546,-111.4708343
433,/title/tt0108358/,,"Skeleton Canyon, Arizona, USA",,"Skeleton Canyon Road, Apache, Cochise County, Arizona, United States of America",31.6902851,-109.1308878
434,/title/tt0108358/,,"Sonoran Desert, Arizona, USA",,"Sonoran Desert, Bates Well Road, Pima County, Arizona, United States of America",32.2598642,-112.9262583
435,/title/tt0108358/,,"Empire Ranch, Sonoita, Arizona, USA",,,,
436,/title/tt0108358/,,"Las Cienegas National Conservation Area, Arizona, USA",,"Las Cienegas National Conservation Area, Red Cloud Mine Road, Pima County, Arizona, United States of America",31.78308655,-110.6048063412536
437,/title/tt0108358/,,"Patagonia, Arizona, USA",,"Patagonia, Santa Cruz County, Arizona, 85624, United States of America",31.5393138,-110.7563046
438,/title/tt0108358/,,"Whetstone Mountains, Arizona, USA",,,,
439,/title/tt0108358/,,"Dragoon Mountains, Arizona, USA",,"Little Dragoon Mountains, Cochise County, Arizona, United States of America",32.111745,-110.0942366
440,/title/tt0108358/,,"Turkey Creek, Arizona, USA",,"Turkey Creek, Gila County, Arizona, United States of America",33.531419,-110.132089
441,/title/tt0108358/,,"Harshaw, Arizona, USA",,"Harshaw, Santa Cruz County, Arizona, United States of America",31.4673182,-110.707029
442,/title/tt0108358/,,"St. David, Arizona, USA",,"St. David, Saint David, Cochise County, Arizona, 85639, United States of America",31.893851,-110.22081081642511
443,/title/tt0108358/,,"Benson, Arizona, USA",,"Benson, Cochise County, Arizona, United States of America",31.9678611,-110.2945174
444,/title/tt0108358/,,USA,,United States,39.7837304,-100.4458825
445,/title/tt2543164/,,"Université de Montréal, Montréal, Québec, Canada",,"Université de Montréal, Place Alice-Girard, Outremont, Montréal, Agglomération de Montréal, Montréal (06), Québec, Canada",45.504956750000005,-73.61453887024297
446,/title/tt2543164/,,"Place des Arts, Montréal, Québec, Canada",(interiors),"Place des arts, Rue Balmoral, René-Lévesque, Ville-Marie, Montréal, Agglomération de Montréal, Montréal (06), Québec, H2X, Canada",45.50845855,-73.56654929388955
447,/title/tt3661394/,,"Vancouver, British Columbia, Canada",,"Vancouver, Metro Vancouver Regional District, British Columbia, Canada",49.2608724,-123.1139529
448,/title/tt6823368/,,"Ontario Street Comic Book Shop, 2235 E. Ontario St., Philadelphia, Pennsylvania, USA",(Comic Book Store),,,
449,/title/tt6823368/,,"227 S 18th St, Philadelphia, Pennsylvania, USA",(French Cafe),"Parc, 227, South 18th Street, Rittenhouse Square, Philadelphia, Philadelphia County, Pennsylvania, 19103, United States of America",39.949089,-75.1707551
450,/title/tt6823368/,,USA,,United States,39.7837304,-100.4458825
451,/title/tt9076562/,,"Rockmart, Georgia, USA",(film credits),"Rockmart, Polk County, Georgia, 30154, United States of America",34.0026005,-85.0416133
452,/title/tt3224458/,,"William Penn Hotel - 530 William Penn Place, Pittsburgh, Pennsylvania, USA",(Magazine Awards Ceremony),,,
453,/title/tt0780504/,,"Point Mugu, California, USA",(end of the car chase),"Point Mugu State Park, Ventura County, California, United States of America",34.106923800000004,-119.02102537387437
454,/title/tt0780504/,,"The Pink Motel & Cadillac Jack's Diner, 9457 San Fernando Road, Sun Valley, California, USA",(interiors: motel),,,
455,/title/tt0780504/,,"Park Plaza Hotel - 607 S. Park View Street, Los Angeles, California, USA",(interiors: Driver and Irene's apartments),,,
456,/title/tt0780504/,,"Los Angeles River, California, USA",,"Los Angeles River, Los Angeles, Los Angeles County, California, 91303-2211, United States of America",34.1952667,-118.5886446
457,/title/tt0780504/,,"1710 Naomi Avenue, Los Angeles, California, USA",(electronic store robbery),"1710, Naomi Avenue, Nevin, Central-Alameda, Los Angeles, Los Angeles County, California, 90021, United States of America",34.02393566666667,-118.24720022222222
458,/title/tt0780504/,,"Picture Car Warehouse - 8400 Reseda Boulevard, Northridge, Los Angeles, California, USA",(Shannon's garage),,,
459,/title/tt0780504/,,"Santa Clarita, California, USA",,"Santa Clarita, Los Angeles County, California, United States of America",34.3916641,-118.542586
460,/title/tt0780504/,,"California, USA",,"California, United States of America",36.7014631,-118.7559974
461,/title/tt1355644/,,"Atlanta, Georgia, USA",,"Atlanta, Georgia, United States of America",33.7490987,-84.3901849
462,/title/tt1355644/,,"Georgia, USA",,"Georgia, United States of America",32.3293809,-83.1137366
463,/title/tt0288937/,,"University of Waterloo, Waterloo, Ontario, Canada",,"University of Waterloo, Laurel Trail (Trans-Canada Trail), Northdale, Waterloo, Region of Waterloo, Southwestern Ontario, Ontario, N2L 3E9, Canada",43.473362,-80.5412782
464,/title/tt8847712/,,France,,France,46.603354,1.8883335
465,/title/tt4209788/,,"Toronto, Ontario, Canada",,"Toronto, Golden Horseshoe, Ontario, Canada",43.6534817,-79.3839347
466,/title/tt4209788/,,"New York City, New York, USA",(where started her game over and became involved with Russian mobsters),"New York, United States of America",40.7127281,-74.0060152
467,/title/tt0368447/,,"Philadelphia, Pennsylvania, USA",,"Philadelphia, Philadelphia County, Pennsylvania, United States of America",39.9527237,-75.1635262
468,/title/tt0368447/,,"Pedricktown, New Jersey, USA",,"Pedricktown, Oldmans, Salem County, New Jersey, 08067, United States of America",39.7673357,-75.4146374
469,/title/tt0368447/,,USA,,United States,39.7837304,-100.4458825
470,/title/tt5348176/,,"Los Angeles, California, USA",,"Los Angeles, Los Angeles County, California, United States of America",34.0536909,-118.2427666
471,/title/tt4975722/,,"Jimmy's Eastside Diner, 7201 Biscayne Blvd., Miami, Florida, USA",(diner scene with Black and Kevin),"Jimmy's Eastside Diner, Biscayne Boulevard, Little Haiti, Bayshore, Miami, Miami-Dade County, Florida, 33101, United States of America",25.84139895,-80.1841320089851
472,/title/tt4975722/,,"Liberty City, Florida, USA",(on location),"Liberty City, Gregg County, Texas, United States of America",32.4454257,-94.9485507
473,/title/tt0121164/,,"Three Mills Studios, Three Mill Lane, Bow, London, England, UK",(studio),,,
474,/title/tt0121164/,,"England, UK",,"England, United Kingdom",52.7954791,-0.5402402866174321
475,/title/tt1659337/,,"Peters Township High School - 264 E McMurray Road, McMurray, Pennsylvania, USA",,"Peters Township High School, East McMurray Road, Donaldsons Crossroads, Peters Township, Washington County, Pennsylvania, 15055, United States of America",40.267859900000005,-80.11820092446712
476,/title/tt1659337/,,"Pittsburgh, Pennsylvania, USA",,"Pittsburgh, Allegheny County, Pennsylvania, United States of America",40.4416941,-79.9900861
477,/title/tt1659337/,,"The Hollywood Theater Dormont - Pittsburgh, Pennsylvania, USA",(Rocky Horror Picture Show Scenes),,,
478,/title/tt1659337/,,"Peters Township Middle School, 625 E McMurray Rd, McMurray, Pennsylvania, USA",(Prom),"Peters Township Middle School, East McMurray Road, Peters Township, Washington County, Pennsylvania, 15367, United States of America",40.281897650000005,-80.08181412546631
479,/title/tt1659337/,,USA,,United States,39.7837304,-100.4458825
480,/title/tt7971476/,,"Orange County, California, USA",,"Orange County, California, United States of America",33.7500378,-117.8704931
481,/title/tt7971476/,,"New York City, New York, USA",(Episode 4 & 8),"New York, United States of America",40.7127281,-74.0060152
482,/title/tt6149154/,,"Ouarzazate, Morocco",(location),"Ouarzazate ⵡⴰⵔⵣⴰⵣⴰⵜ ورزازات, Pachalik d'Ouarzazate, Province de Ouarzazate ⵍⵉⵇⵍⵉⵎ ⵏ ⵡⴰⵔⵣⴰⵣⴰⵜ إقليم ورززات, Drâa-Tafilalet ⴷⴰⵔⵄⴰ-ⵜⴰⴼⵉⵍⴰⵍⵜ درعة تافيلالت, 45005, Maroc",30.920193,-6.910923
483,/title/tt6149154/,,"Rome, Italy",(location),"Roma, Roma Capitale, Italia",41.8933203,12.4829321
484,/title/tt6149154/,,Italy,,Italia,42.6384261,12.674297
485,/title/tt6306064/,,Fiji,,Viti,-18.1239696,179.0122737
486,/title/tt6306064/,,"Suva, Fiji",,"Suva, Central, 679, Fiji",-18.1415884,178.4421662
487,/title/tt0212985/,,"Florence, Tuscany, Italy",,"Firenze, Toscana, Italia",43.7698712,11.2555757
488,/title/tt0212985/,,"North Carolina, USA",,"North Carolina, United States of America",35.6729639,-79.0392919
489,/title/tt0212985/,,"Sardinia, Italy",,"Sardegna, Austis, Nuoro, Sardegna, 08030, Italia",40.06160405,9.097753806553065
490,/title/tt0212985/,,"Union Station - 50 Massachusetts Avenue NE, Washington, District of Columbia, USA",,,,
491,/title/tt0212985/,,"Virginia, USA",,"Virginia, United States of America",37.1232245,-78.4927721
492,/title/tt0212985/,,USA,,United States,39.7837304,-100.4458825
493,/title/tt4378376/,,"Rathaus Schöneberg, Schöneberg, Berlin, Germany","(many interior scenes as Berlin Police Headquarter, e.g. stairs in the main entrance hall where the female secretaries receive their daily tasks)","Rathaus Schöneberg, 1, John-F.-Kennedy-Platz, Schöneberg, Tempelhof-Schöneberg, Berlin, 10825, Deutschland",52.48482525,13.344102747709004
494,/title/tt4378376/,,"Haus des Rundfunks, Charlottenburg, Berlin, Germany",(interior scenes where paternoster lift is shown),"Haus des Rundfunks, 8-14, Masurenallee, Westend, Charlottenburg-Wilmersdorf, 14057, Deutschland",52.507941849999995,13.276628110730936
495,/title/tt4378376/,,"Historic Harbor at Fischerinsel, Mühlendammschleuse, Mitte, Berlin, Germany",(where the Russian train driver is lying dead in the water),,,
496,/title/tt9077540/,,"Atlanta, Georgia, USA",,"Atlanta, Georgia, United States of America",33.7490987,-84.3901849
497,/title/tt8338762/,,Canada,,Canada,61.0666922,-107.9917071
498,/title/tt5776858/,,"Whitby, North Yorkshire, England, UK",,"Whitby, Windsor Terrace, Whitby, Scarborough, North Yorkshire, Yorkshire and the Humber, England, YO21 1ET, United Kingdom",54.4848396,-0.615191
499,/title/tt5776858/,,"Lythe, Whitby, North Yorkshire, England, UK",,,,
500,/title/tt5776858/,,"London, England, UK",,"London, Greater London, England, United Kingdom",51.5073219,-0.1276474
501,/title/tt5776858/,,"North Yorkshire, England, UK",,"North Yorkshire, Sharow, Harrogate, North Yorkshire, Yorkshire and the Humber, England, United Kingdom",54.13453275,-1.498628491239545
502,/title/tt5776858/,,"Fitzroy Square, Fitzrovia, London, England, UK",,"Fitzroy Square, London Borough of Camden, London, Greater London, England, W1T 6EG, United Kingdom",51.5232469,-0.1403648
503,/title/tt5776858/,,"Robin Hood's Bay, Whitby, North Yorkshire, England, UK",,,,
504,/title/tt5776858/,,"Scarborough, North Yorkshire, England, UK",,"Scarborough, North Yorkshire, Yorkshire and the Humber, England, United Kingdom",54.2820009,-0.4011868
505,/title/tt5770786/,,"Foster's Freeze 904 N Maclay Ave San Fernando, CA 91340, USA",(Across the street from Cassell's Music most known from 1993's Wayne's World),,,
506,/title/tt5770786/,,"San Fernando Masonic Lodge, 1112 North Maclay Avenue, San Fernando, California, USA",(Exterior of Chavo's Boxing Gym),,,
507,/title/tt2583620/,,"British Columbia, Canada",,"British Columbia, Canada",55.001251,-125.002441
508,/title/tt2024544/,,"Felicity Plantation, Vacherie, Louisiana, USA",(Epps' house Exteriors),,,
509,/title/tt2024544/,,"St. Joseph Plantation, Louisiana, USA",,"St. Joseph Plantation, Saint Joe Plantation Road, Feitel, St. James Parish, Louisiana, 70743, United States of America",30.00566115,-90.77253361514417
510,/title/tt2024544/,,"New Orleans, Louisiana, USA",(as Saratoga),"New Orleans, Orleans Parish, Louisiana, United States of America",29.9499323,-90.0701156
511,/title/tt2024544/,,"Urbania, Lower Garden District, New Orleans, Louisiana, USA",(Epps' House Interiors),,,
512,/title/tt2024544/,,"Destrehan, Louisiana, USA",(Epps plantation barn),"Destrehan, St. Charles Parish, Louisiana, 70047, United States of America",29.960933,-90.3705407077716
513,/title/tt2024544/,,"Louisiana, USA",,"Louisiana, United States of America",30.8703881,-92.007126
514,/title/tt0147800/,,"2715 North Junett Street, Tacoma, Washington, USA",(Kat and Bianca's house),"2715, North Junett Street, Old Tacoma, Tacoma, Pierce County, Washington, 98407, United States of America",47.2721928554812,-122.47454485180648
515,/title/tt0147800/,,"Fremont Troll, Aurora Bridge, Seattle, Washington, USA",,"Fremont Troll, Aurora Bridge, Fremont, Seattle, King County, Washington, 98109, United States of America",47.6510483,-122.3472348
516,/title/tt0147800/,,"Kerry Park - 211 W Highland Drive, Seattle, Washington, USA",,"Kerry Park, West Highland Drive, Queen Anne, Seattle, King County, Washington, 98109, United States of America",47.6294074,-122.3599259
517,/title/tt0147800/,,"Buckaroo Tavern - 4201 Fremont Ave N, Seattle, Washington, USA",,,,
518,/title/tt0147800/,,"Aurora Bridge, Seattle, Washington, USA",,"Aurora Bridge, North 34th Street, Fremont, Seattle, King County, Washington, 98109, United States of America",47.647597149999996,-122.34730925
519,/title/tt0147800/,,"Fremont Place Book Company - 621 N 35th Street, Seattle, Washington, USA",,,,
520,/title/tt0147800/,,"Kingdome - 589 Occidental Avenue South, Seattle, Washington, USA",,,,
521,/title/tt0796264/,,"Vancouver Film Studios, Vancouver, British Columbia, Canada",,"Vancouver Film Studios, Renfrew-Collingwood, Vancouver, Metro Vancouver Regional District, British Columbia, Canada",49.2612189,-123.02658531247799
522,/title/tt0796264/,,"Vancouver, British Columbia, Canada",,"Vancouver, Metro Vancouver Regional District, British Columbia, Canada",49.2608724,-123.1139529
523,/title/tt9071322/,,"Ohio, USA",,"Ohio, United States of America",40.2253569,-82.6881395
524,/title/tt9071322/,,"Hamilton, Ohio, USA",(Parkersburg town and residential neighborhood),"Hamilton, Butler County, Ohio, 45013, United States of America",39.3995067,-84.5613428
525,/title/tt9071322/,,"50 Tri County Parkway, Springdale, Ohio, USA",(Benihana restaurant),"50, Tri-County Parkway, Crescentville, Springdale, Hamilton County, Ohio, 45246, United States of America",39.2832705,-84.4686175
526,/title/tt9071322/,,"Haven Avenue, Hamilton, Ohio, USA",(girl with black teeth riding bike),"Haven Avenue, Main Street Historic District, Grand View, Hamilton, Butler County, Ohio, 45013, United States of America",39.4148601,-84.5781224
527,/title/tt9071322/,,USA,,United States,39.7837304,-100.4458825
528,/title/tt2084970/,,"Bicester Aerodrome, Bicester, Oxfordshire, England, UK",,,,
529,/title/tt2084970/,,"King's Cross Station, King's Cross, London, England, UK",(Evacuee train scene at start),"King's Cross Station, York Way, Pentonville, King's Cross, London Borough of Islington, London, Greater London, England, N1 9SJ, United Kingdom",51.5330741,-0.1224766
530,/title/tt2084970/,,"Bletchley Park, Bletchley, Buckinghamshire, England, UK",,"Far Bletchley, Milton Keynes, South East, England, MK3 7QE, United Kingdom",51.9979444,-0.7640271
531,/title/tt2084970/,,"Joyce Grove, Nettlebed, Oxfordshire, England, UK",(Bletchley Park),,,
532,/title/tt2084970/,,"West London Film Studios, London, England, UK",(studio),,,
533,/title/tt2649356/,,"11531 East Rd, Redwood Valley, California, USA","(Calhoun Day Festival, Adora Crellin's victorian home in Windgap)","11531, East Road, Calpella, Redwood Valley, Mendocino County, California, 95470, United States of America",39.31167300272855,-123.21589495046227
534,/title/tt2649356/,,"Los Angeles, California, USA",(shot in the Greater Los Angeles area),"Los Angeles, Los Angeles County, California, United States of America",34.0536909,-118.2427666
535,/title/tt2649356/,,"Mendocino County, California, USA",(shot in),"Mendocino County, California, United States of America",39.3176491,-123.4126399
536,/title/tt2649356/,,"California, USA",,"California, United States of America",36.7014631,-118.7559974
537,/title/tt5580036/,,"Macon Centreplex, Macon, Georgia, USA",(Skating Arena Scenes),,,
538,/title/tt5580036/,,"Atlanta, Georgia, USA",,"Atlanta, Georgia, United States of America",33.7490987,-84.3901849
539,/title/tt5580036/,,"1905 Clairmont Rd, Decatur, Georgia, USA",(Jeff meets Shawn at the Golden Buddha Restaurant),"Clairmont Road, Oakhurst, Decatur, DeKalb County, Georgia, 30030, United States of America",33.7890488,-84.3068263
540,/title/tt5580036/,,"Gwinnett Arena - 6400 Sugarloaf Parkway, Duluth, Georgia, USA",(assault on Nancy Kerrigan),"The Arena at Gwinnett Center, 6400, Sugarloaf Parkway, Centurion Hills, Duluth, Gwinnett County, Georgia, 30097, United States of America",33.991601349999996,-84.09383971450303
541,/title/tt1870479/,,"Hollywood, Los Angeles, California, USA",,"Hollywood, Los Angeles, Los Angeles County, California, 90028-8127, United States of America",34.0980031,-118.329523
542,/title/tt3748172/,,"Point Clear, Alabama, USA",,"Point Clear, Loyola Villa, Baldwin County, Alabama, United States of America",30.5048675,-87.92260259767964
543,/title/tt3748172/,,USA,,United States,39.7837304,-100.4458825
544,/title/tt8151874/,,"The Pink Motel & Cadillac Jack's Diner, 9457 San Fernando Road, Sun Valley, California, USA",,,,
545,/title/tt8151874/,,USA,,United States,39.7837304,-100.4458825
546,/title/tt6628394/,,"Hidden Valley, California, USA",,"Hidden Valley, Siskiyou County, California, United States of America",41.3877796,-122.2332554
547,/title/tt6628394/,,"Heritage Valley, California, USA",,"Heritage, Temeku Hills, Temecula, Riverside County, California, United States of America",33.5171757,-117.1183221
548,/title/tt6628394/,,Canada,,Canada,61.0666922,-107.9917071
549,/title/tt6628394/,,USA,,United States,39.7837304,-100.4458825
550,/title/tt8206668/,,"Greater Roslyn Area, Roslyn, New York, USA",(exterior scenes),,,
551,/title/tt8206668/,,"Long Island, New York, USA",,"Long Island, Suffolk County, New York, United States of America",40.85172235,-73.09921882199973
552,/title/tt0364569/,,"Mount Lyford, Southern Alps, New Zealand",(final scenes),,,
553,/title/tt0364569/,,"Songgye High School, Chinju, Kyongsangnam-Do, South Korea",(Evergreen High School),,,
554,/title/tt0108399/,,"The Vista Theatre - 4473 Sunset Drive, Los Angeles, California, USA",(Theater playing Sonny Chiba triple feature where Clarence and Alabama meet),"The Vista Theatre, 4473, Sunset Boulevard, East Hollywood, Los Angeles, Los Angeles County, California, 90027, United States of America",34.0984202,-118.2869441531968
555,/title/tt0108399/,,"Ambassador Hotel - 3400 Wilshire Boulevard, Los Angeles, California, USA",(hotel lobby),,,
556,/title/tt0108399/,,"The Athenaeum, California Institute of Technology - 551 S Hill Ave, Pasadena, California, USA",,,,
557,/title/tt0108399/,,"Los Angeles, California, USA",,"Los Angeles, Los Angeles County, California, United States of America",34.0536909,-118.2427666
558,/title/tt3865236/,,"New Orleans, Louisiana, USA",,"New Orleans, Orleans Parish, Louisiana, United States of America",29.9499323,-90.0701156
559,/title/tt5114356/,,"Vancouver, British Columbia, Canada",(season 1),"Vancouver, Metro Vancouver Regional District, British Columbia, Canada",49.2608724,-123.1139529
560,/title/tt5114356/,,"Los Angeles, California, USA",(seasons 2-3),"Los Angeles, Los Angeles County, California, United States of America",34.0536909,-118.2427666
561,/title/tt4106514/,,"Stockholm, Sweden",,"Stockholm, Stockholms kommun, Stockholms län, Svealand, 111 29, Sverige",59.3251172,18.0710935
562,/title/tt4106514/,,"Maria Tappgränd, Stockholm, Sweden",(Dessies home),"Täppgränd, Dalen, Enskede-Årsta-Vantörs stadsdelsområde, Stockholm, Stockholms kommun, Stockholms län, Svealand, 12133, Sverige",59.2857559,18.0987555
563,/title/tt0110322/,,"Calgary, Alberta, Canada",,"Calgary, Strathmore (town), Alberta, Canada",51.0534234,-114.0625892
564,/title/tt0110322/,,"Alberta, Canada",,"Alberta, Canada",55.001251,-115.002136
565,/title/tt0110322/,,"Powell Street, Vancouver, British Columbia, Canada",(town: Helena),"Powell Street, Grandview-Woodland, Vancouver, Metro Vancouver Regional District, British Columbia, V5L 1K5, Canada",49.284836,-123.0645673
566,/title/tt0110322/,,"43 Powell Street, Vancouver, British Columbia, Canada",(hotel),"Hotel Europe, 43, Powell Street, Maple Tree Square, Gastown, Downtown, Vancouver, Metro Vancouver Regional District, British Columbia, V6B 1G7, Canada",49.28344765,-123.10334656490215
567,/title/tt0110322/,,"Maple Leaf Square, Vancouver, British Columbia, Canada",(town: Helena),,,
568,/title/tt0110322/,,"Vancouver, British Columbia, Canada",(town: Helena),"Vancouver, Metro Vancouver Regional District, British Columbia, Canada",49.2608724,-123.1139529
569,/title/tt2798920/,,"Former RAF Bentwaters, Woodbridge, Suffolk, England, UK",(Exterior shots of army base),,,
570,/title/tt2798920/,,"England, UK",,"England, United Kingdom",52.7954791,-0.5402402866174321
571,/title/tt1570728/,,"The Skyline Residence - 8520 Skyline Dr, Los Angeles, California, USA",(Jacob Palmer's house),,,
572,/title/tt1570728/,,"Ulysses S. Grant High School - 13000 Oxnard St, Van Nuys, California, USA",,,,
573,/title/tt1570728/,,"Portola Middle School - 18720 Linnet Street, Tarzana, Los Angeles, California, USA",,,,
574,/title/tt1570728/,,"Glendale, California, USA",,"Glendale, Los Angeles County, California, United States of America",34.1469416,-118.2478471
575,/title/tt1570728/,,"William Howard Taft Charter High School, Woodland Hills, California, USA","(5461 Winnetka Ave, Woodland Hills, CA 91364)",,,
576,/title/tt1570728/,,"Calabasas, California, USA",,"Calabasas, Los Angeles County, California, United States of America",34.1446643,-118.6440973
577,/title/tt1570728/,,"Los Angeles, California, USA",,"Los Angeles, Los Angeles County, California, United States of America",34.0536909,-118.2427666
578,/title/tt1570728/,,USA,,United States,39.7837304,-100.4458825
579,/title/tt0181875/,,"University of San Diego High School, San Diego, California, USA",,"University of San Diego, 5998, Alcala Park Way, Morena, Mission Hills, San Diego, San Diego County, California, 92110, United States of America",32.77259675,-117.18916301008481
580,/title/tt0181875/,,"Hollywood Roosevelt Hotel - 7000 Hollywood Blvd., Hollywood, Los Angeles, California, USA",(Pool Party),"Hollywood Roosevelt Hotel, 7000, Hollywood Boulevard, Hollywood, Los Angeles, Los Angeles County, California, 90028, United States of America",34.100968050000006,-118.34181478202902
581,/title/tt0181875/,,"Hollywood Palladium - 6215 Sunset Blvd., Hollywood, Los Angeles, California, USA","(performance venue, as Cleveland live performance venue, and where Penny does her lone dance)",,,
582,/title/tt0181875/,,"Gramercy Park Hotel, New York City, New York, USA",,"Gramercy Park Hotel, 2, Lexington Avenue, Gramercy, Manhattan Community Board 6, Manhattan, New York County, New York, 10010, United States of America",40.738566649999996,-73.98577239206193
583,/title/tt0181875/,,"1047 Maple St, Santa Monica, California, USA",,"1047, Maple Street, Ocean Park, Santa Monica, Los Angeles County, California, 90405, United States of America",34.008737206084085,-118.47534966400302
584,/title/tt0181875/,,"Tucson, Arizona, USA",,"Tucson, Pima County, Arizona, United States of America",32.2228765,-110.9748477
585,/title/tt0181875/,,"Amado, Arizona, USA",,"Amado, Amado Montoso Road, Amado, Santa Cruz County, Arizona, 85645, United States of America",31.685279,-111.06212842449665
586,/title/tt0181875/,,"Santa Monica, California, USA",(Miller home exterior),"Santa Monica, Los Angeles County, California, United States of America",34.0250724,-118.4965129
587,/title/tt0181875/,,"Arizona, USA",,"Arizona, United States of America",34.395342,-111.7632755
588,/title/tt0181875/,,"Sacramento, California, USA",(Tiny Dancer bus scene),"Sacramento, Sacramento County, California, United States of America",38.5815719,-121.4943996
589,/title/tt0181875/,,"California, USA",,"California, United States of America",36.7014631,-118.7559974
590,/title/tt1598778/,,"Taylor Street, San Francisco, California, USA",(Krumweide wandering SF streets),"Taylor Street, Tenderloin, San Francisco, San Francisco City and County, California, 94104, United States of America",37.7823687,-122.4106185
591,/title/tt1598778/,,"Jumbo Floating Restaurant, Aberdeen, Hong Kong, China",(Macau casino),,,
592,/title/tt1598778/,,"Henry Ford Bridge, Chicago, Illinois, USA",(Wisconsin border bridge),,,
593,/title/tt1598778/,,"Sherman Hospital, Elgin, Illinois, USA",(as University of Minnesota Medical Center),"Sherman Hospital, 1425, North Randall Road, Elgin, Kane County, Illinois, 60123, United States of America",42.06992555,-88.3311591326983
594,/title/tt1598778/,,"Naperville, Illinois, USA",(Tellabs),"Naperville, DuPage County, Illinois, United States of America",41.7728699,-88.1479278
595,/title/tt1598778/,,"O'Hare International Airport, Chicago, Illinois, USA",,"O'Hare International Airport, 10000, Doris Court, Rosemont, Cook County, Illinois, 60018, United States of America",41.977984899999996,-87.90932141282806
596,/title/tt1598778/,,"Candlestick Park - 602 Jamestown Avenue, San Francisco, California, USA",(vaccination center),,,
597,/title/tt1598778/,,"Golden Gate Park, San Francisco, California, USA",,"Golden Gate Park, Richmond District, San Francisco, San Francisco City and County, California, 94118-4504, United States of America",37.769368099999994,-122.48218371117709
598,/title/tt1598778/,,"San Francisco Chronicle - 901 Mission St, San Francisco, California, USA",,,,
599,/title/tt1598778/,,"Waukegan, Illinois, USA",(expressway scenes),"Waukegan, Illinois, United States of America",42.3636331,-87.8447938
600,/title/tt1598778/,,"Central Elementary School, Wilmette, Illinois, USA",,"Central Elementary School, 910, Central Avenue, Wilmette, New Trier Township, Cook County, Illinois, 60091, United States of America",42.07756405,-87.70197087817128
601,/title/tt1598778/,,"City Hall - 1 Dr. Carlton B. Goodlett Place, San Francisco, California, USA",,,,
602,/title/tt1598778/,,"General Jones Armory, Chicago, Illinois, USA",(Minneapolis Armory),"General Jones Armory, 5324, South Cottage Grove Avenue, Washington Park, Chicago, Cook County, Illinois, 60615, United States of America",41.799244349999995,-87.60702381012482
603,/title/tt1598778/,,"Hong Kong International Airport, Chek Lap Kok, Hong Kong, China",,,,
604,/title/tt1598778/,,"Los Angeles, California, USA",,"Los Angeles, Los Angeles County, California, United States of America",34.0536909,-118.2427666
605,/title/tt1598778/,,"Princess Margaret Hospital, Kwai Chung, New Territories, Hong Kong, China",,"瑪嘉烈醫院 Princess Margaret Hospital, 荔景山路 Lai King Hill Road, 荔枝角灣 Lai Chi Kok Bay, 荔枝角 Lai Chi Kok, 深水埗區 Sham Shui Po District, 九龍 Kowloon, 葵青區 Kwai Tsing District, 新界 New Territories, 香港 Hong Kong, 000000, China 中国",22.3412376,114.13456663436574
606,/title/tt1598778/,,"Skokie, Illinois, USA",(as Minnesota Center for Disease Control),"Skokie, Niles Township, Cook County, Illinois, United States of America",42.0333694,-87.7333972
607,/title/tt1598778/,,"Hong Kong, China",,"香港島 Hong Kong Island, 香港 Hong Kong, China 中国",22.2793278,114.1628131
608,/title/tt1598778/,,"Chemin de la Grande-Vigne, 1294 Genthod, Switzerland",(Geneva establishing shot with SBB train),,,
609,/title/tt1598778/,,"Aero Mock-Ups - 13126 Saticoy St, North Hollywood, California, USA",,,,
610,/title/tt1598778/,,"Potrero Hill, San Francisco, California, USA",,"Potrero Hill, San Francisco, San Francisco City and County, California, 41907, United States of America",37.759652,-122.3980262
611,/title/tt0384766/,,"Cinecittà Studios, Cinecittà, Rome, Lazio, Italy",(studio),,,
612,/title/tt10272386/,,"West London Film Studios, London, England, UK",(studio),,,
613,/title/tt0319061/,,"Wetumpka, Alabama, USA",(Town of Ashton and Ed Bloom's house),"Wetumpka, Elmore County, Alabama, United States of America",32.5437448,-86.2119127
614,/title/tt0319061/,,"Montgomery, Alabama, USA",,"Montgomery, Montgomery County, Alabama, United States of America",32.3669656,-86.3006485
615,/title/tt0319061/,,"Tallassee, Alabama, USA",,"Tallassee, Elmore County, Alabama, 36078, United States of America",32.5368152,-85.8987271
616,/title/tt0319061/,,"Pine Flat Presbyterian Church, Deatsville, Alabama, USA",(Church in the ending scene),,,
617,/title/tt0319061/,,"Millbrook, Alabama, USA",(Town of Spectre set),"Millbrook, Elmore County, Alabama, 36054, United States of America",32.4798575,-86.3619163
618,/title/tt0319061/,,USA,,United States,39.7837304,-100.4458825
619,/title/tt4995776/,,"Durban, KwaZulu-Natal, South Africa",,"Durban, eThekwini Metropolitan Municipality, KwaZulu-Natal, 4057, South Africa",-29.861825,31.009909
620,/title/tt4995776/,,"Lüderitz, Namibia",,"Lüderitz, ǁKaras Region, Namibia",-26.6500086,15.157266
621,/title/tt0105236/,,"Johnie's Coffee Shop - 6101 Wilshire Boulevard, Fairfax, Los Angeles, California, USA",(Mr. Orange meeting with Randy),,,
622,/title/tt0105236/,,"York Boulevard and North Avenue 50, Highland Park, Los Angeles, California, USA",,"York Boulevard, Highland Park, Los Angeles, Los Angeles County, California, 90042, United States of America",34.1194563,-118.197086
623,/title/tt0105236/,,"Burbank, California, USA",,"Burbank, Los Angeles County, California, United States of America",34.1816482,-118.3258554
624,/title/tt0105236/,,"Highland Park, Los Angeles, California, USA",,"Highland Park, Los Angeles, Los Angeles County, California, United States of America",34.1099469,-118.1969828
625,/title/tt0112384/,,"Johnson Space Center - 2101 NASA Rd., Houston, Texas, USA",,,,
626,/title/tt0112384/,,"Merritt Island, Florida, USA",,"Merritt Island, Brevard County, Florida, 32952, United States of America",28.3581193,-80.6968385
627,/title/tt0112384/,,"San Diego, California, USA",,"San Diego, San Diego County, California, United States of America",32.7174209,-117.1627714
628,/title/tt0112384/,,"Stage 27, Universal Studios - 100 Universal City Plaza, Universal City, California, USA",(studio),,,
629,/title/tt0112384/,,"Ambassador Hotel - 3400 Wilshire Boulevard, Los Angeles, California, USA",(apartments of Ken Mattingly and Jack Swigert),,,
630,/title/tt0112384/,,"Falls Lake, Backlot, Universal Studios - 100 Universal City Plaza, Universal City, California, USA",,,,
631,/title/tt9777644/,,"Ho Chi Minh City, Vietnam",,"Thành phố Hồ Chí Minh, Việt Nam",10.7758439,106.7017555
632,/title/tt9777644/,,Thailand,,ประเทศไทย,14.8971921,100.83273
633,/title/tt9340526/,,"Georgia, USA",,"Georgia, United States of America",32.3293809,-83.1137366
634,/title/tt0119558/,,"Luckenbach, Texas, USA",,"Luckenbach, Gillespie County, Texas, United States of America",30.1790941,-98.7578121
635,/title/tt0119558/,,"Las Cruces, New Mexico, USA",,"Las Cruces, Doña Ana County, New Mexico, United States of America",32.3140354,-106.7798078
636,/title/tt0119558/,,"Austin High School - 3500 Memphis Avenue, El Paso, Texas, USA",,,,
637,/title/tt0119558/,,"Loyola University New Orleans - 6363 St Charles Ave, New Orleans, Louisiana, USA",(as Beardsley School exteriors),,,
