,Code,Show Name,Location,Scene,geocodedLocation,latitude,longitude
0,/title/tt0100168/,Mo' Better Blues,"Brooklyn Bridge, New York City, New York, USA",,"Brooklyn Bridge, Dover Street, Financial District, Manhattan Community Board 1, Manhattan, New York County, New York, 10038, United States of America",40.70569125,-73.9963578678543
1,/title/tt0100168/,Mo' Better Blues,"Shinbone Alley, Manhattan, New York City, New York, USA",(Bleek and Giant are assaulted)                        ,"Jones Alley, NoHo, Manhattan Community Board 2, Manhattan, New York County, New York, 10012-3332, United States of America",40.7257517,-73.9939865
2,/title/tt0100168/,Mo' Better Blues,"Broadway, Manhattan, New York City, New York, USA",,"Broadway, Inwood, Manhattan Community Board 12, Manhattan, New York County, New York, 10463, United States of America",40.8732847,-73.911655
3,/title/tt0100168/,Mo' Better Blues,"Brooklyn, New York City, New York, USA",,"Brooklyn, Kings County, New York, United States of America",40.6501038,-73.9495823
4,/title/tt0100168/,Mo' Better Blues,"East Village, Manhattan, New York City, New York, USA",,"East Village, Manhattan Community Board 3, Manhattan, New York County, New York, United States of America",40.7292688,-73.9873613
5,/title/tt0100168/,Mo' Better Blues,"Greenwich Village, Manhattan, New York City, New York, USA",,"Greenwich Village, 7th Avenue South, West Village, Manhattan Community Board 2, Manhattan, New York County, New York, 10014, United States of America",40.7335844,-74.0028172
6,/title/tt0100168/,Mo' Better Blues,"Harlem, Manhattan, New York City, New York, USA",,"Harlem, Manhattan Community Board 10, Manhattan, New York County, New York, United States of America",40.8078786,-73.9454154
7,/title/tt0100168/,Mo' Better Blues,"Park Slope, Brooklyn, New York City, New York, USA",,"Park Slope, Brooklyn, Kings County, New York, United States of America",40.6701033,-73.9859723
8,/title/tt0100168/,Mo' Better Blues,"Tower Records - 1961 Broadway, Manhattan, New York City, New York, USA",(Clark works as jazz section cashier)                        ,,,
9,/title/tt1182937/,Rab Ne Bana Di Jodi,"Amritsar, Punjab, India",,"Amritsar, Amritsar I Tahsil, Amritsar, Punjab, 143001, India",31.6343083,74.8736788
10,/title/tt0403217/,Last Days,"Garrison, New York, USA",,"Garrison, Lower Station Road, Garrison, Town of Philipstown, Putnam County, New York, 10524, United States of America",41.3815064,-73.9471707
11,/title/tt2764784/,Phoenix,"Legnica, Dolnoslaskie, Poland",(Berlin in 1945)                        ,"Legnica, województwo dolnośląskie, Polska",51.2081617,16.1603187
12,/title/tt2764784/,Phoenix,"Kirchmöser, Brandenburg an der Havel, Brandenburg, Germany",(Spitz barge Nelly used as hide out)                        ,"Kirchmöser, Brandenburg an der Havel, Brandenburg, 14774, Deutschland",52.3758454,12.4228308
13,/title/tt2764784/,Phoenix,"Plauer Schloss, Schlossstrasse 27, Brandenburg an der Havel, Brandenburg, Germany",,,,
14,/title/tt2764784/,Phoenix,"18 Ignacego Daszynskiego, Legnica, Dolnoslaskie, Poland",(Johnny's apartment)                        ,"18, Ignacego Daszyńskiego, Kartuzy, Osiedle Mikołaja Kopernika, Legnica, województwo dolnośląskie, 59-220, Polska",51.2118051,16.1766787
15,/title/tt2764784/,Phoenix,Poland,,Polska,52.215933,19.134422
16,/title/tt0060010/,The Monkees,"Columbia/Sunset Gower Studios - 1438 N. Gower Street, Hollywood, Los Angeles, California, USA",,,,
17,/title/tt0086946/,Beat Street,"Fresh Pond Road Train Station, Fresh Pond Road, Ridgewood, Queens, New York City, New York, USA",,,,
18,/title/tt0086946/,Beat Street,"South Bronx, New York City, New York, USA",,"The Bronx, Bronx County, New York, United States of America",40.8466508,-73.8785937
19,/title/tt0086946/,Beat Street,"Ridgewood, Queens, New York City, New York, USA",,"Ridgewood, Queens County, New York, 11385, United States of America",40.7080556,-73.9141667
20,/title/tt0086946/,Beat Street,"New York, USA",,"New York, United States of America",40.7127281,-74.0060152
21,/title/tt3397754/,"10,000 Saints","Tarrytown, New York, USA",,"Tarrytown, Town of Greenburgh, Westchester County, New York, 10591, United States of America",41.0762077,-73.8587461
22,/title/tt3397754/,"10,000 Saints","Briarcliff Manor, New York, USA",,"Briarcliff Manor, Town of Ossining, Westchester County, New York, 10510, United States of America",41.1456512,-73.8237456
23,/title/tt0420087/,A Prairie Home Companion,"Fitzgerald Theater - 10 Exchange Street E., St. Paul, Minnesota, USA",,,,
24,/title/tt0420087/,A Prairie Home Companion,"St. Paul, Minnesota, USA",,"St. Paul, Ramsey County, Minnesota, United States of America",44.9504037,-93.1015026
25,/title/tt8884430/,Echo in the Canyon,"Los Angeles, California, USA",,"Los Angeles, Los Angeles County, California, United States of America",34.0536909,-118.2427666
26,/title/tt8884430/,Echo in the Canyon,"London, England, UK",,"London, Greater London, England, United Kingdom",51.5073219,-0.1276474
27,/title/tt0150915/,Hilary and Jackie,"Abbercrombe Square, Liverpool, Merseyside, England, UK",,,,
28,/title/tt0150915/,Hilary and Jackie,"Formby Park, Liverpool, Merseyside, England, UK",(beach scenes)                        ,,,
29,/title/tt0150915/,Hilary and Jackie,"School Chapel, The Blue Coat School, Liverpool, Merseyside, England, UK",,,,
30,/title/tt0150915/,Hilary and Jackie,"The Walker Art Gallery, Liverpool, Merseyside, England, UK",,,,
31,/title/tt0150915/,Hilary and Jackie,"Corridor outside main hall, The Blue Coat School, Liverpool, Merseyside, England, UK",,,,
32,/title/tt0150915/,Hilary and Jackie,"London, England, UK",,"London, Greater London, England, United Kingdom",51.5073219,-0.1276474
33,/title/tt0150915/,Hilary and Jackie,"Wales, UK","(Brithdir Mawr, Flintshire, Wales, UK)                        ","Cymru / Wales, United Kingdom",52.2928116,-3.73893
34,/title/tt9577852/,Rolling Thunder Revue: A Bob Dylan Story by Martin Scorsese,"1375 Gorham St, Lowell, Massachusetts, USA",(Edson Cemetery - Kerouac Grave)                        ,"1375, Gorham Street, Bleachery, Lowell, Middlesex County, Massachusetts, 01825, United States of America",42.61856845,-71.30485555
35,/title/tt9577852/,Rolling Thunder Revue: A Bob Dylan Story by Martin Scorsese,"Plymouth, Massachusetts, USA",(location)                        ,"Plymouth, Plymouth County, Massachusetts, United States of America",41.9583799,-70.6673851
36,/title/tt9577852/,Rolling Thunder Revue: A Bob Dylan Story by Martin Scorsese,"Niagara Falls, New York, USA",(location)                        ,"Niagara Falls, Niagara County, New York, United States of America",43.08436,-79.0614686
37,/title/tt9577852/,Rolling Thunder Revue: A Bob Dylan Story by Martin Scorsese,"Toronto, Ontario, Canada",(Gordon Lightfoot Apt.)                        ,"Toronto, Peel, Golden Horseshoe, Ontario, Canada",43.6534817,-79.3839347
38,/title/tt9577852/,Rolling Thunder Revue: A Bob Dylan Story by Martin Scorsese,"America's Cup Ave, Newport, Rhode Island, USA",(At 41: 00 the bus enters Newport - Market Square is visible on the right and Thames Street between Pelham and Mill Streets is visible on the left)                        ,"America's Cup Avenue, Ward 3, Newport, Newport County, Rhode Island, 02840, United States of America",41.4845768,-71.3147164
39,/title/tt9577852/,Rolling Thunder Revue: A Bob Dylan Story by Martin Scorsese,"The Breakers - 44 Ochre Point Ave, Newport, Rhode Island, USA",(At 46: 40 man in Guam t-shirt hits golf ball in front of mansion)                        ,"The Breakers, 44, Ochre Point Avenue, Salve Regina University, Ward 3, Newport, Newport County, Rhode Island, 02840, United States of America",41.469914450000005,-71.2981521787299
40,/title/tt9577852/,Rolling Thunder Revue: A Bob Dylan Story by Martin Scorsese,"Lawrence, Massachusetts, USA",(At 36: 00 when discussing New England the view is traveling south on route 495 while crossing the Merrimac River)                        ,"Lawrence, Essex County, Massachusetts, 01840, United States of America",42.7070354,-71.1631137
41,/title/tt9577852/,Rolling Thunder Revue: A Bob Dylan Story by Martin Scorsese,"New York City, New York, USA",,"New York, United States of America",40.7127281,-74.0060152
42,/title/tt9577852/,Rolling Thunder Revue: A Bob Dylan Story by Martin Scorsese,"Massachusetts, USA",,"Massachusetts, United States of America",42.3788774,-72.032366
43,/title/tt9577852/,Rolling Thunder Revue: A Bob Dylan Story by Martin Scorsese,"New Jersey, USA",,"New Jersey, United States of America",40.0757384,-74.4041622
44,/title/tt9577852/,Rolling Thunder Revue: A Bob Dylan Story by Martin Scorsese,"Lowell, Massachusetts, USA",,"Lowell, Middlesex County, Massachusetts, United States of America",42.6334247,-71.3161718
45,/title/tt9577852/,Rolling Thunder Revue: A Bob Dylan Story by Martin Scorsese,USA,,United States,39.7837304,-100.4458825
46,/title/tt0036261/,Het spook van de opera,"Stage 28, Universal Studios - 100 Universal City Plaza, Universal City, California, USA",,,,
47,/title/tt2039345/,Blackmail,"Barcelona, Catalonia, Spain",,"Barcelona, Barcelonès, Catalunya, 08001, España",41.3828939,2.1774322
48,/title/tt2039345/,Blackmail,"Chicago, Illinois, USA",,"Chicago, Cook County, Illinois, United States of America",41.8755616,-87.6244212
49,/title/tt2039345/,Blackmail,"The Loop, Downtown, Chicago, Illinois, USA",,"Residence Inn Chicago Downtown/Loop, 11, West Madison Street, Loop, Chicago, Cook County, Illinois, 60603, United States of America",41.881644,-87.63209480891294
50,/title/tt0101615/,Cool as Ice,"Glendora, California, USA",,"Glendora, Los Angeles County, California, United States of America",34.1361187,-117.865339
51,/title/tt10516984/,Anima,"Prague, Czech Republic",,"Praha, okres Hlavní město Praha, Hlavní město Praha, Praha, Česká republika",50.0874654,14.4212535
52,/title/tt1477715/,This Is It,"Staples Center - 1111 S. Figueroa Street, Downtown, Los Angeles, California, USA",,"STAPLES Center, Figueroa Street, South Park, Downtown, Los Angeles, Los Angeles County, California, 90015, United States of America",34.0430046,-118.26705260279402
53,/title/tt1657283/,Honey 2,"Los Angeles, California, USA",,"Los Angeles, Los Angeles County, California, United States of America",34.0536909,-118.2427666
54,/title/tt7131308/,Guardians of the Galaxy: Inferno,USA,,United States,39.7837304,-100.4458825
55,/title/tt0086423/,Tender Mercies,"Palmer, Texas, USA",,"Palmer, Ellis County, Texas, United States of America",32.431252,-96.66777
56,/title/tt0086423/,Tender Mercies,"Arlington, Texas, USA",,"Arlington, Tarrant County, Texas, United States of America",32.701938999999996,-97.10562379033699
57,/title/tt0088001/,Rhinestone,"Leipers Fork, Tennessee, USA",,"Leipers Fork, Williamson County, Tennessee, United States of America",35.8956206,-86.9977814
58,/title/tt0088001/,Rhinestone,"Piru, California, USA",,"Piru, Ventura County, California, 93040, United States of America",34.4156137,-118.7927456
59,/title/tt0088001/,Rhinestone,"California, USA",,"California, United States of America",36.7014631,-118.7559974
60,/title/tt0088001/,Rhinestone,USA,,United States,39.7837304,-100.4458825
61,/title/tt8351520/,White Riot,"London, England, UK",,"London, Greater London, England, United Kingdom",51.5073219,-0.1276474
62,/title/tt8351520/,White Riot,"Coventry, England, UK",,"Coventry, West Midlands Combined Authority, England, United Kingdom",52.4081812,-1.510477
63,/title/tt0079103/,Elvis,USA,,United States,39.7837304,-100.4458825
64,/title/tt0164292/,The Temptations,"Pittsburgh, Pennsylvania, USA",,"Pittsburgh, Allegheny County, Pennsylvania, United States of America",40.4416941,-79.9900861
65,/title/tt0143081/,Zoom,"Boston, Massachusetts, USA",,"Boston, Suffolk County, Massachusetts, United States of America",42.3602534,-71.0582912
66,/title/tt0018037/,The Jazz Singer,"Los Angeles, California, USA",,"Los Angeles, Los Angeles County, California, United States of America",34.0536909,-118.2427666
67,/title/tt0018037/,The Jazz Singer,"Warner Brothers Studios - 5800 Sunset Blvd., Los Angeles, California, USA",(studio)                        ,,,
68,/title/tt0018037/,The Jazz Singer,"Winter Garden Theatre, New York City, New York, USA",(Broadway theater scenes)                        ,"Winter Garden Theatre, 1634, Broadway, Theater District, Manhattan Community Board 5, Times Square, New York County, New York, 10107, United States of America",40.7616856,-73.98350453470516
69,/title/tt0018037/,The Jazz Singer,"Iverson Ranch - 1 Iverson Lane, Chatsworth, Los Angeles, California, USA",,,,
70,/title/tt0018037/,The Jazz Singer,"San Francisco, California, USA",,"San Francisco, San Francisco City and County, California, United States of America",37.7790262,-122.4199061
71,/title/tt0437714/,Elvis,"Memphis, Tennessee, USA",,"Memphis, Shelby County, Tennessee, United States of America",35.1490215,-90.0516285
72,/title/tt0437714/,Elvis,"Louisiana, USA",,"Louisiana, United States of America",30.8703881,-92.007126
73,/title/tt0437714/,Elvis,"State Palace Theatre - 1108 Canal Street, New Orleans, Louisiana, USA",(interiors)                        ,,,
74,/title/tt0158371/,Sweet and Lowdown,"Haverstraw, New York, USA",(various scenes)                        ,"Town of Haverstraw, Rockland County, New York, United States of America",41.20247875,-74.04226654881208
75,/title/tt0158371/,Sweet and Lowdown,"Nyack, New York, USA",,"Nyack, Town of Orangetown, Rockland County, New York, 10960, United States of America",41.091121,-73.9196794
76,/title/tt4537842/,A Very Murray Christmas,"New York City, New York, USA",,"New York, United States of America",40.7127281,-74.0060152
77,/title/tt4537842/,A Very Murray Christmas,"Cafe Carlyle, Carlyle Hotel - 35 East 76th Street, Broadway, Manhattan, New York City, New York, USA",,,,
78,/title/tt0147004/,Little Voice,"Twickenham Film Studios, St Margarets, Twickenham, Middlesex, England, UK",(studio)                        ,,,
79,/title/tt0147004/,Little Voice,"The Rendezvous Club, Wallis's Holiday Centre - now demolished, Cayton Bay, North Yorkshire, England, UK",(Club Rendez Boo: Mr Boo's night club)                        ,,,
80,/title/tt0147004/,Little Voice,"The Leeds Hotel - previously The Seabirds, West Sandgate, Scarborough, North Yorkshire, England, UK",(Mari goes to the pub and later leaves with Ray and Mr Boo)                        ,,,
81,/title/tt0147004/,Little Voice,"The Coffee Beans Cafe, Columbus Ravine, Scarborough, North Yorkshire, England, UK",(Mari and Sadie go to the cafe for bacon and eggs)                        ,,,
82,/title/tt1127896/,Taking Woodstock,"Valley Rest Motel, New Lebanon, New York, USA",(El Monaco Motel)                        ,,,
83,/title/tt1127896/,Taking Woodstock,"Millerton, New York, USA",,"Millerton, Town of North East, Dutchess County, New York, 12546, United States of America",41.9537035,-73.5106791
84,/title/tt1127896/,Taking Woodstock,"Cherry Plain State Park, New York, USA",(Woodstock concert ground)                        ,"Cherry Plain State Park, Town of Berlin, Rensselaer County, New York, United States of America",42.61810385,-73.41240278055812
85,/title/tt1127896/,Taking Woodstock,"Schodack, New York, USA",(two muddy Woodstock concert areas)                        ,"Town of Schodack, Rensselaer County, New York, United States of America",42.5302285,-73.68083538797035
86,/title/tt1127896/,Taking Woodstock,"The Stephentown Hotel, Stephentown, New York, USA",(bar at the El Monaco Motel)                        ,"Stephentown, Town of Stephentown, Rensselaer County, New York, 12168, United States of America",42.5486929,-73.3739973
87,/title/tt0205177/,Kevin & Perry Go Large,"Watford, Hertfordshire, England, UK",,"Watford, Hertfordshire, East of England, England, United Kingdom",51.6553875,-0.3957425
88,/title/tt0205177/,Kevin & Perry Go Large,"Dover Castle, Dover, Kent, England, UK",(opening Anne Boleyn sequence)                        ,"Dover Castle, Upper Road, Guston, Dover, Kent, South East, England, CT16 1HW, United Kingdom",51.1289759,1.3228764412873386
89,/title/tt0205177/,Kevin & Perry Go Large,"London, England, UK",,"London, Greater London, England, United Kingdom",51.5073219,-0.1276474
90,/title/tt9364124/,"Ariana Grande: Thank U, Next","Alexander Hamilton High School - 2955 S. Robertson Blvd., Palms District, Los Angeles, California, USA",,,,
91,/title/tt0077838/,The Last Waltz,"Winterland Arena, San Francisco, California, USA",(concert)                        ,,,
92,/title/tt0077838/,The Last Waltz,"Shangri-La Studios, Malibu, California, USA",(interview)                        ,,,
93,/title/tt0094321/,Who's That Girl,"West 57th Street, Manhattan, New York City, New York, USA",(Scene before Nikki and Loudon go to Cartier)                        ,"West 57th Street, Hell's Kitchen, Manhattan Community Board 4, Manhattan, New York County, New York, 10019, United States of America",40.7714466,-73.9940769
94,/title/tt0094321/,Who's That Girl,"Wall Street, Manhattan, New York City, New York, USA",(Scene after Nikki and Loudon get the car back from the carjackers)                        ,"Wall Street, Financial District, Manhattan Community Board 1, Manhattan, New York County, New York, 10005, United States of America",40.704756,-74.006889
95,/title/tt0094321/,Who's That Girl,"1050 Arden Road, Pasadena, California, USA",(Front of Simon Worthington's mansion)                        ,"1050, Arden Road, Oak Knoll, Pasadena, Los Angeles County, California, 91106, United States of America",34.13140773000143,-118.12855402387889
96,/title/tt0094321/,Who's That Girl,"Los Angeles County Arboretum & Botanic Garden - 301 N. Baldwin Avenue, Arcadia, California, USA",(Montgomery Bell's greenhouse)                        ,,,
97,/title/tt0094321/,Who's That Girl,"New York City, New York, USA",(many exteriors)                        ,"New York, United States of America",40.7127281,-74.0060152
