,Code,Show Name,Location,Scene,geocodedLocation,latitude,longitude
0,/title/tt0112111/,The Outer Limits,"Victoria, British Columbia, Canada",,"Victoria, Capital Regional District, British Columbia, Canada",48.4283182,-123.3649533
1,/title/tt0472181/,The Smurfs,"Times Square, Manhattan, New York City, New York, USA",,"Times Square, West 45th Street, Times Square, Manhattan Community Board 5, Times Square, New York County, New York, 10036, United States of America",40.757280550000004,-73.98585503545917
2,/title/tt0472181/,The Smurfs,"New York City, New York, USA",,"New York, United States of America",40.7127281,-74.0060152
3,/title/tt0472181/,The Smurfs,"Queens, New York City, New York, USA",,"Queens, Queens County, New York, United States of America",40.7498243,-73.7976337
4,/title/tt0472181/,The Smurfs,"New York, USA",,"New York, United States of America",40.7127281,-74.0060152
5,/title/tt1187064/,Triangle,"Gold Coast, Queensland, Australia",,"Gold Coast City, Queensland, Australia",-28.0023731,153.4145987
6,/title/tt1187064/,Triangle,"Brisbane, Queensland, Australia",,"Brisbane City, Queensland, Australia",-27.4689682,153.0234991
7,/title/tt1187064/,Triangle,"Village Roadshow Studios, Oxenford, Queensland, Australia",,"Village Roadshow Studios, Entertainment Road, Oxenford, Gold Coast City, Queensland, 4210, Australia",-27.910527700000003,153.3118145855983
8,/title/tt6807662/,The New Legends of Monkey,"Kumeu Film Studios, 116 Access Rd, Kumeu 0891, New Zealand",,,,
9,/title/tt0029583/,Sneeuwwitje en de zeven dwergen,"Walt Disney Feature Animation - 500 S. Buena Vista Street, Burbank, California, USA",(Walt Disney Productions)                        ,,,
10,/title/tt0406375/,Zathura: A Space Adventure,"South Pasadena, California, USA",,"South Pasadena, Los Angeles County, California, 91030, United States of America",34.1133062,-118.1478291
11,/title/tt0406375/,Zathura: A Space Adventure,"Sony Pictures Studios - 10202 W. Washington Blvd., Culver City, California, USA",(studio)                        ,,,
12,/title/tt8050756/,The Owl House,Paris France,(location)                        ,"Paris, Île-de-France, France métropolitaine, France",48.8566969,2.3514616
13,/title/tt0097428/,Ghostbusters II,"Fire Station 23 - 225 E. 5th Street, Los Angeles, California, USA",(interiors: Ghostbusters headquarters)                        ,"Fire Station 23, 225, East 5th Street, Skid Row, Downtown, Los Angeles, Los Angeles County, California, 90013, United States of America",34.0458225,-118.24658608422999
14,/title/tt0097428/,Ghostbusters II,"Greystone Park & Mansion - 905 Loma Vista Drive, Beverly Hills, California, USA",,,,
15,/title/tt0097428/,Ghostbusters II,"Val's Restaurant, 10130 Riverside Drive, Toluca Lake, California, USA",(restaurant where Dana and Peter have dinner)                        ,,,
16,/title/tt0097428/,Ghostbusters II,"Stage 15, Warner Brothers Burbank Studios - 4000 Warner Boulevard, Burbank, California, USA",(studio)                        ,,,
17,/title/tt0097428/,Ghostbusters II,"Stage 16, Warner Brothers Burbank Studios - 4000 Warner Boulevard, Burbank, California, USA",(studio)                        ,,,
18,/title/tt0374536/,Bewitched,"Book Soup - 8818 W. Sunset Blvd., West Hollywood, California, USA",,,,
19,/title/tt0374536/,Bewitched,"510 S Lucerne Blvd., Los Angeles, California, USA",,"510, South Lucerne Boulevard, Windsor Square, Los Angeles, Los Angeles County, California, 90020, United States of America",34.06504789795918,-118.3242613877551
20,/title/tt0374536/,Bewitched,"Beverly Hills, California, USA",,"Beverly Hills, Los Angeles County, California, United States of America",34.0696501,-118.3963062
21,/title/tt0374536/,Bewitched,"Pann's Restaurant, Los Angeles, California, USA",(interiors)                        ,"Pann's Coffee Shop, South La Tijera Boulevard, Westchester, Los Angeles, Los Angeles County, California, 90056, United States of America",33.9781387,-118.37056510020327
22,/title/tt0374536/,Bewitched,"Torrance, California, USA",,"Torrance, Los Angeles County, California, United States of America",33.8358492,-118.3406288
23,/title/tt12546328/,Crash Bandicoot 4: It's About Time,"Chicago Illinois, USA",(beach scenes)                        ,"Chicago, Cook County, Illinois, United States of America",41.8755616,-87.6244212
24,/title/tt3289724/,Welcome to Marwen,"Maple Ridge, British Columbia, Canada",,"Maple Ridge, Metro Vancouver Regional District, British Columbia, Canada",49.2197345,-122.5997078
25,/title/tt3289724/,Welcome to Marwen,"Vancouver, British Columbia, Canada",,"Vancouver, Metro Vancouver Regional District, British Columbia, Canada",49.2608724,-123.1139529
26,/title/tt3289724/,Welcome to Marwen,"Riverview Hospital, Coquitlam, British Columbia, Canada",,,,
27,/title/tt9010360/,The Legend of the Five,Australia,(on location)                        ,Australia,-24.7761086,134.755
28,/title/tt1528406/,Fairy Tail: Fearî teiru,"Tokyo, Japan",,"東京都, 日本 (Japan)",35.6828387,139.7594549
29,/title/tt6468680/,Marvel's Avengers,"San Francisco, California, USA",,"San Francisco, San Francisco City and County, California, United States of America",37.7790262,-122.4199061
30,/title/tt0111987/,Goosebumps,"Ontario, Canada",,"Ontario, Canada",50.000678,-86.000977
31,/title/tt0111987/,Goosebumps,"Toronto, Ontario, Canada",,"Toronto, Peel, Golden Horseshoe, Ontario, Canada",43.6534817,-79.3839347
32,/title/tt1731141/,Ender's Game,"Duffey Lake, British Columbia, Canada",(Lake scenery)                        ,"Duffey Lake, Duffey Lake Road, Area B (Cayoosh/Pavilion), Squamish-Lillooet Regional District, British Columbia, Canada",50.40516465,-122.31228433118096
33,/title/tt1731141/,Ender's Game,"New Orleans, Louisiana, USA",,"New Orleans, Orleans Parish, Louisiana, United States of America",29.9499323,-90.0701156
34,/title/tt0412175/,Medium,"10010 Yolanda Ave, Northridge, California, USA",(Dubois' house exterior)                        ,"Yolanda Avenue, Northridge, Los Angeles, Los Angeles County, California, 91324, United States of America",34.2273376,-118.5404711
35,/title/tt0412175/,Medium,"Santa Clarita Studios - 25135 Anza Drive, Santa Clarita, California, USA",,,,
36,/title/tt0059978/,Dark Shadows,"Seaview Terrace, Newport, Rhode Island, USA",,,,
37,/title/tt0059978/,Dark Shadows,"Newport, Rhode Island, USA",,"Newport, Newport County, Rhode Island, 02840, United States of America",41.4899827,-71.3137707
38,/title/tt0059978/,Dark Shadows,USA,,United States,39.7837304,-100.4458825
39,/title/tt1139797/,Låt den rätte komma in,"Örnäset, Luleå, Norrbottens län, Sweden",(the apartments)                        ,"Örnäset, Luleå, Luleå kommun, Norrbottens län, Norrland, 97438, Sverige",65.5777526,22.2059079
40,/title/tt1139797/,Låt den rätte komma in,"Boden, Norrbottens län, Sweden",,"Bodens kommun, Norrbottens län, Norrland, Sverige",66.04794225,21.18164547792631
41,/title/tt0816520/,Return to Halloweentown,"Salt Lake City, Utah, USA",,"Salt Lake City, Salt Lake County, Utah, United States of America",40.7596198,-111.8867975
42,/title/tt0816520/,Return to Halloweentown,"Provo, Utah, USA",,"Provo, Utah County, Utah, United States of America",40.2338438,-111.6585337
43,/title/tt0107362/,Last Action Hero,"28824 Cliffside Dr., Malibu, California, USA",(Tony Vivaldi's house)                        ,"28824, Cliffside Drive, Malibu Riviera, Malibu, Los Angeles County, California, 90265, United States of America",34.00780262451268,-118.79739206617911
44,/title/tt0107362/,Last Action Hero,"Orpheum Theater - 842 South Broadway, Downtown, Los Angeles, California, USA",(interiors: Pandora Theater)                        ,,,
45,/title/tt0107362/,Last Action Hero,"Queen Mary Dome - 1126 Queens Highway, Long Beach, California, USA",,,,
46,/title/tt0107362/,Last Action Hero,"1st Street Bridge, Los Angeles, California, USA",(car goes off bridge)                        ,"1st Street, Long Beach Boulevard, Long Beach, Los Angeles County, California, 90802, United States of America",33.7687147,-118.1893988
47,/title/tt0107362/,Last Action Hero,"Hyatt Regency Hotel - 200 South Pine Avenue, Long Beach, California, USA",,,,
48,/title/tt0107362/,Last Action Hero,"Manhattan, New York City, New York, USA",,"Manhattan, New York County, New York, United States of America",40.7896239,-73.9598939
49,/title/tt0107362/,Last Action Hero,"Malibu Colony Plaza - 23841 West Malibu Road, Malibu, California, USA",(video store)                        ,,,
50,/title/tt0107362/,Last Action Hero,"San Diego, California, USA",,"San Diego, San Diego County, California, United States of America",32.7174209,-117.1627714
51,/title/tt0107362/,Last Action Hero,"Empire State Building - 350 Fifth Avenue, Manhattan, New York City, New York, USA",(Danny and Jack have a scene on the observation deck)                        ,,,
52,/title/tt0107362/,Last Action Hero,"Los Angeles, California, USA",,"Los Angeles, Los Angeles County, California, United States of America",34.0536909,-118.2427666
53,/title/tt0107362/,Last Action Hero,"New York City, New York, USA",,"New York, United States of America",40.7127281,-74.0060152
54,/title/tt0107362/,Last Action Hero,"Studio City, Los Angeles, California, USA",(studio)                        ,"Studio City, Los Angeles, Los Angeles County, California, 91604, United States of America",34.1483989,-118.3961877
55,/title/tt0230030/,Bedazzled,"Olympic Auditorium - 1801 S. Grand Avenue, Downtown, Los Angeles, California, USA",,"Olympic Auditorium, South Grand Avenue, Downtown, Los Angeles, Los Angeles County, California, 90007, United States of America",34.03414135,-118.26798335769011
56,/title/tt0230030/,Bedazzled,"Santa Barbara, California, USA",,"Santa Barbara, Santa Barbara County, California, United States of America",34.4221319,-119.7026673
57,/title/tt0230030/,Bedazzled,"City Hall - 1 Dr. Carlton B. Goodlett Place, San Francisco, California, USA",,,,
58,/title/tt0230030/,Bedazzled,"Los Angeles County Arboretum & Botanic Garden - 301 N. Baldwin Avenue, Arcadia, California, USA",,,,
59,/title/tt0230030/,Bedazzled,"Stage 16, 20th Century Fox Studios - 10201 Pico Blvd., Century City, Los Angeles, California, USA",(studio)                        ,,,
60,/title/tt0230030/,Bedazzled,"War Memorial Veterans Building, San Francisco War Memorial & Performing Arts Center - 401 Van Ness Avenue, Civic Center, San Francisco, California, USA",,,,
61,/title/tt0089908/,Return to Oz,"Salisbury Plain, Wiltshire, England, UK",(Kansas scenes)                        ,"Salisbury Plain Training Area, Wiltshire, South West England, England, SP3 4RT, United Kingdom",51.2486531,-1.893483044497956
62,/title/tt0089908/,Return to Oz,"Whippendell Woods, Watford, Hertfordshire, England, UK",,,,
63,/title/tt0089908/,Return to Oz,"England, UK",,"England, United Kingdom",52.7954791,-0.5402402866174321
64,/title/tt2709692/,The Grinch,"Illumination Entertainment - 1805 Colorado Avenue, Santa Monica, California, USA",,,,
65,/title/tt0118617/,Anastasia,"Fox Animation Studios - 2747 E. Camelback Road, Phoenix, Arizona, USA",(studio)                        ,,,
66,/title/tt0190332/,Wo hu cang long,"Huangshan region, Anhui Province, China",,,,
67,/title/tt0190332/,Wo hu cang long,"Anhui Province, China",,"中国中铁四局集团, 芜湖路街道, 合肥市区, 安徽省, 230000, China 中国",31.8310475,117.26993634764685
68,/title/tt0190332/,Wo hu cang long,"Chengde, Hubei, China",,,,
69,/title/tt0190332/,Wo hu cang long,"Cangyanshan, Hebei, China",,,,
70,/title/tt1228987/,Let Me In,"Moana Condominiums - 1100 Alvarado Drive SE, Albuquerque, New Mexico, USA",(apartment building)                        ,,,
71,/title/tt1228987/,Let Me In,"New Mexico, USA",,"New Mexico, United States of America",34.5708167,-105.993007
72,/title/tt1228987/,Let Me In,"Menaul School, Albuquerque, New Mexico, USA",,"Menaul Boulevard Northeast, Netherwood Park, Albuquerque, Bernalillo County, New Mexico, 87106-1164, United States of America",35.1091401,-106.6091099
73,/title/tt0097351/,Field of Dreams,"Dyersville, Iowa, USA",(baseball field)                        ,"Dyersville, Dubuque County, Iowa, 52040, United States of America",42.4844404,-91.1229136
74,/title/tt0097351/,Field of Dreams,"Western Dubuque Elementary/Jr. High School, Farley, Iowa, USA",(PTA meeting)                        ,,,
75,/title/tt0097351/,Field of Dreams,"Dubuque, Iowa, USA",,"Dubuque, Dubuque County, Iowa, United States of America",42.5006217,-90.6647967
76,/title/tt0097351/,Field of Dreams,"Boston, Massachusetts, USA",,"Boston, Suffolk County, Massachusetts, United States of America",42.3602534,-71.0582912
77,/title/tt0097351/,Field of Dreams,"Iowa, USA",,"Iowa, United States of America",41.9216734,-93.3122705
78,/title/tt0093629/,A Nightmare on Elm Street 3: Dream Warriors,"UCLA, Westwood, Los Angeles, California, USA",(as psychiatric hospital)                        ,"UCLA, West Sunset Boulevard, Court of Philanthropy, Westwood, Los Angeles, Los Angeles County, California, 90095, United States of America",34.0708781,-118.44684973165106
79,/title/tt0331632/,Scooby Doo 2: De losgeslagen monsters,"Britannia Beach, British Columbia, Canada",,"Britannia Beach, Area D (Elaho/Garibaldi), Squamish-Lillooet Regional District, British Columbia, V0N 1J0, Canada",49.626392,-123.206005
80,/title/tt0331632/,Scooby Doo 2: De losgeslagen monsters,"Winnipeg, Manitoba, Canada",,"Winnipeg, Winnipeg (city), Manitoba, Canada",49.8955367,-97.1384584
81,/title/tt0331632/,Scooby Doo 2: De losgeslagen monsters,"Chinatown, Vancouver, British Columbia, Canada",,"Chinatown, Downtown, Vancouver, Metro Vancouver Regional District, British Columbia, Canada",49.2799809,-123.10408941422125
82,/title/tt0331632/,Scooby Doo 2: De losgeslagen monsters,"Vancouver Art Gallery, 750 Hornby Street, Vancouver, British Columbia, Canada",,"Vancouver Art Gallery, 750, Hornby Street, Downtown, Vancouver, Metro Vancouver Regional District, British Columbia, V6Z 3B7, Canada",49.28287695,-123.1205638545168
83,/title/tt0331632/,Scooby Doo 2: De losgeslagen monsters,"Vancouver, British Columbia, Canada",,"Vancouver, Metro Vancouver Regional District, British Columbia, Canada",49.2608724,-123.1139529
84,/title/tt0331632/,Scooby Doo 2: De losgeslagen monsters,"Britannia Mine Museum, 1 Forbes Way, Britannia Beach, BC V0N 1J0, Canada",(Location)                        ,,,
85,/title/tt3810192/,Cyberpunk 2077,"Los Angeles, California, USA",(location)                        ,"Los Angeles, Los Angeles County, California, United States of America",34.0536909,-118.2427666
86,/title/tt3810192/,Cyberpunk 2077,"Chicago Illinois, USA",(Battle scenes)                        ,"Chicago, Cook County, Illinois, United States of America",41.8755616,-87.6244212
87,/title/tt0938330/,Silent Hill: Revelation,"Galt District, Cambridge, Ontario, Canada",(bridge scenes)                        ,,,
88,/title/tt0938330/,Silent Hill: Revelation,"Cambridge, Ontario, Canada",(streets of Silent Hill)                        ,"Cambridge, Region of Waterloo, Southwestern Ontario, Ontario, N1R 1T7, Canada",43.3600536,-80.3123023
89,/title/tt0938330/,Silent Hill: Revelation,"Cherry Beach, Toronto, Ontario, Canada",(as Lakeside Amusement Park)                        ,"Cherry Beach, Martin Goodman Trail, Toronto—Danforth, Old Toronto, Toronto, Peel, Golden Horseshoe, Ontario, M5A 1A4, Canada",43.6370261,-79.34379126722979
90,/title/tt0938330/,Silent Hill: Revelation,"Toronto, Ontario, Canada",,"Toronto, Peel, Golden Horseshoe, Ontario, Canada",43.6534817,-79.3839347
91,/title/tt0938330/,Silent Hill: Revelation,"Woodbine Centre, Etobicoke, Toronto, Ontario, Canada",(shopping mall)                        ,"Woodbine Centre, 500, Rexdale Boulevard, West Humber-Clairville, Etobicoke, Toronto, Peel, Golden Horseshoe, Ontario, M9W 6K5, Canada",43.7205168,-79.5994233
92,/title/tt0938330/,Silent Hill: Revelation,Canada,,Canada,61.0666922,-107.9917071
93,/title/tt5220122/,Hotel Transylvania 3: Summer Vacation,"New York City, New York, USA",,"New York, United States of America",40.7127281,-74.0060152
94,/title/tt0499448/,The Chronicles of Narnia: Prince Caspian,"Bovec, Slovenia",(bridge scene)                        ,"Bovec, Slovenija",46.3385467,13.5525933
95,/title/tt0499448/,The Chronicles of Narnia: Prince Caspian,"Cathedral Cove, Hahei, Coromandel, New Zealand",,"Cathedral Cove, Purangi, Hahei, Thames Coromandel District, Waikato, 3591, New Zealand",-36.8284356,175.7902123
96,/title/tt0499448/,The Chronicles of Narnia: Prince Caspian,"Dart River, Glenorchy, Otago, New Zealand",,,,
97,/title/tt0499448/,The Chronicles of Narnia: Prince Caspian,"Lake Moeraki, West Coast, New Zealand",,"Lake Moeraki, Westland District, West Coast, New Zealand",-43.7170234,169.2691469
98,/title/tt0499448/,The Chronicles of Narnia: Prince Caspian,"Moeraki Quarry, Lake Moeraki, West Coast, New Zealand",,,,
99,/title/tt0499448/,The Chronicles of Narnia: Prince Caspian,"Henderson Valley Studios, Hickory Avenue, Henderson, Auckland, New Zealand",(studio)                        ,,,
100,/title/tt0499448/,The Chronicles of Narnia: Prince Caspian,New Zealand,,New Zealand / Aotearoa,-41.5000831,172.8344077
101,/title/tt1964418/,Project T,"City of Arts and Sciences, Valencia, Comunidad Valenciana, Spain",(Tomorrowland exteriors and interiors)                        ,,,
102,/title/tt1964418/,Project T,"Disneyland Park, Disneyland Resort - 1600 S. Disneyland Drive, Anaheim, California, USA",(It's a Small World)                        ,,,
103,/title/tt1964418/,Project T,"Launch Complex 39A, Kennedy Space Center, Titusville, Florida, USA",(Launch Pad)                        ,,,
104,/title/tt1964418/,Project T,"New Smyrna Beach, Florida, USA",(US-1)                        ,"New Smyrna Beach, Volusia County, Florida, United States of America",29.0258132,-80.9271271
105,/title/tt1964418/,Project T,"Altamonte Springs, Florida, USA",(Casey Newton's home in Altamonte Springs and a driving sequence that was filmed on 436 and Uptown Altamonte)                        ,"Altamonte Springs, Seminole County, Florida, United States of America",28.6619154,-81.3885899
106,/title/tt1964418/,Project T,"Titusville, Florida, USA",(Hopkins Ave. & Country Club Blvd. and Space Memorial Park)                        ,"Titusville, Brevard County, Florida, United States of America",28.6122187,-80.8075538
107,/title/tt1964418/,Project T,"Eleuthera Island, Bahamas",(Beach scene)                        ,"Eleuthera, South Eleuthera, Bahamas",24.93038,-76.1921181
108,/title/tt1964418/,Project T,"HR MacMillan Space Centre - 1100 Chestnut St, Vancouver, British Columbia, Canada",(1964-1965 New York World's Fair)                        ,,,
109,/title/tt8101850/,Undone,"Chicago Illinois, USA",,"Chicago, Cook County, Illinois, United States of America",41.8755616,-87.6244212
110,/title/tt1488589/,Pinocchio,"Portland, Oregon, USA",,"Portland, Multnomah County, Oregon, United States of America",45.5202471,-122.6741949
111,/title/tt0287839/,Children of Dune,"Barrandov Studios, Prague, Czech Republic",,,,
112,/title/tt0312528/,The Cat in the Hat,"Art District, Pomona, California, USA",,,,
113,/title/tt0312528/,The Cat in the Hat,"Simi Valley, California, USA",,"Simi Valley, Ventura County, California, United States of America",34.2694474,-118.781482
114,/title/tt0312528/,The Cat in the Hat,"Courthouse Square, Backlot, Universal Studios - 100 Universal City Plaza, Universal City, California, USA",,,,
115,/title/tt0312528/,The Cat in the Hat,"Stage 28, Universal Studios - 100 Universal City Plaza, Universal City, California, USA",,,,
116,/title/tt0312528/,The Cat in the Hat,"Stage 31, Universal Studios - 100 Universal City Plaza, Universal City, California, USA",,,,
117,/title/tt6908274/,Durante la tormenta,"Gran Canaria, Canary Islands, Spain",,"Gran Canaria, Tejeda, Las Palmas, Canarias, España",27.9580004,-15.6062305376665
118,/title/tt6908274/,Durante la tormenta,"L'Ametlla del Vallés, Barcelona",,"Carretera de Barcelona, Can Camp, Can Noble, l'Ametlla del Vallès, Vallès Oriental, Catalunya, 08480, España",41.6618892,2.2665778
119,/title/tt0210070/,Ginger Snaps,"Brampton, Ontario, Canada",,"Brampton, Peel Region, Golden Horseshoe, Ontario, Canada",43.6858146,-79.7599337
120,/title/tt0210070/,Ginger Snaps,"Toronto, Ontario, Canada",,"Toronto, Peel, Golden Horseshoe, Ontario, Canada",43.6534817,-79.3839347
121,/title/tt0460791/,The Fall,Turkey,,Türkiye,38.9597594,34.9249653
122,/title/tt0460791/,The Fall,"Bali, Indonesia",,"Bali, Enduro, Gunungsari, Bali, 82152, Indonesia",-8.3304977,115.0906401
123,/title/tt0460791/,The Fall,"Jodhpur, Rajasthan, India",(blue city)                        ,"Jodhpur, Jodhpur Tehsil, Jodhpur District, Rajasthan, India",26.2967719,73.0351433
124,/title/tt0460791/,The Fall,"Mehrangarh Fort, Jodhpur, Rajasthan, India",,"Mehrangarh Fort Museum Tickets, लायाकान मोहाल्ला, Jodhpur, Jodhpur Tehsil, Jodhpur District, Rajasthan, 342002, India",26.2995407,73.0195132
125,/title/tt0460791/,The Fall,"Hagia Sophia, Istanbul, Turkey",,"Ayasofya-i Kebir Câmi-i Şerifi, Soğukçeşme Sokağı, Cankurtaran, Cankurtaran Mahallesi, Fatih, İstanbul, Marmara Bölgesi, 34122, Türkiye",41.008508649999996,28.980009932000005
126,/title/tt0460791/,The Fall,"Sumatra, Indonesia",,"Sumatra, Kecamatan Langgam, Kabupaten Pelalawan, Riau, Indonesia",-0.142924,101.62414321577288
127,/title/tt0460791/,The Fall,Argentina,,Argentina,-34.9964963,-64.9672817
128,/title/tt0460791/,The Fall,"Valkenberg Hospital, Cape Town, Western Cape, South Africa",(hospital scenes)                        ,,,
129,/title/tt0460791/,The Fall,"Taj Lake Palace, Lake Pichola, Udaipur, Rajasthan, India",(Palace in the lake)                        ,,,
130,/title/tt0460791/,The Fall,"Agra, Uttar Pradesh, India",,"Agra, Uttar Pradesh, 280001, India",27.1752554,78.0098161
131,/title/tt0460791/,The Fall,"Chennai, Tamil Nadu, India",,"சென்னை - Chennai, சென்னை மாவட்டம், Tamil Nadu, India",13.0801721,80.2838331
132,/title/tt0460791/,The Fall,"Namib-Naukluft National Park, Erongo, Namibia",(desert scenes)                        ,,,
133,/title/tt0460791/,The Fall,"Chand Baori, Abhaneri, Rajasthan, India",(Stepwell scene)                        ,"Chand Baori Step Well, MDR151, Nayagaon Bolka, Abhaneri, Baswa Tehsil, Dausa, Rajasthan, 303313, India",27.00726285,76.60664524943806
134,/title/tt0460791/,The Fall,"Prague, Czech Republic",,"Praha, okres Hlavní město Praha, Hlavní město Praha, Praha, Česká republika",50.0874654,14.4212535
135,/title/tt0460791/,The Fall,Brazil,,Brasil,-10.3333333,-53.2
136,/title/tt0460791/,The Fall,Italy,,Italia,42.6384261,12.674297
137,/title/tt0460791/,The Fall,"Paris, France",,"Paris, Île-de-France, France métropolitaine, France",48.8566969,2.3514616
138,/title/tt0460791/,The Fall,Spain,,España,39.3262345,-4.8380649
139,/title/tt0460791/,The Fall,"Jardin Zoologico, Buenos Aires, Federal District, Argentina",,,,
140,/title/tt0460791/,The Fall,"Pangong Tso, Ladakh, Jammu & Kashmir, India",,,,
141,/title/tt0460791/,The Fall,"Charles Bridge, Old Town, Prague, Czech Republic",(Blue bandit jumps from bridge)                        ,"Karlův most, Malá Strana, Praha, okres Hlavní město Praha, Hlavní město Praha, Praha, 11665, Česká republika",50.0863704,14.4123674
142,/title/tt0460791/,The Fall,India,,India,22.3511148,78.6677428
143,/title/tt0460791/,The Fall,Maldives,,ދިވެހިރާއްޖެ,4.7064352,73.3287853
144,/title/tt0460791/,The Fall,"Sossusvlei, Namib-Naukluft National Park, Erongo, Namibia",,,,
145,/title/tt0460791/,The Fall,Czech Republic,,Česko,49.8167003,15.4749544
146,/title/tt0460791/,The Fall,"The Colosseum, Rome, Lazio, Italy",,"Colosseo, Piazza del Colosseo, Rione XIX Celio, Municipio Roma I, Roma, Roma Capitale, Lazio, 00184, Italia",41.8902614,12.493087103595503
147,/title/tt0460791/,The Fall,"Buland Darwaza, Fatehpur Sikri, Uttar Pradesh, India",,"Buland Darwaza, 45, Jahannagar, Rupbas Tehsil, Bharatpur, Uttar Pradesh, 283110, India",27.0943123,77.6627939
148,/title/tt0460791/,The Fall,"Hollywood, Los Angeles, California, USA",,"Hollywood, Los Angeles, Los Angeles County, California, 90028-8127, United States of America",34.0980031,-118.329523
149,/title/tt0460791/,The Fall,UK,,United Kingdom,54.7023545,-3.2765753
150,/title/tt0460791/,The Fall,Namibia,(desert scenes)                        ,Namibia,-23.2335499,17.3231107
151,/title/tt0460791/,The Fall,Bolivia,,Bolivia,-17.0568696,-64.9912286
152,/title/tt0460791/,The Fall,USA,,United States,39.7837304,-100.4458825
153,/title/tt0460791/,The Fall,France,,France,46.603354,1.8883335
154,/title/tt0460791/,The Fall,"Teatro Opera, Buenos Aires, Federal District, Argentina",,,,
155,/title/tt0460791/,The Fall,"Tomb of Akbar the Great, Sikandra, Agra, Uttar Pradesh, India",,,,
156,/title/tt0460791/,The Fall,"Consuegra, Toledo, Castilla-La Mancha, Spain",(Riding horses in windmills scene)                        ,"Consuegra, Mancha Alta de Toledo, Toledo, Castilla-La Mancha, España",39.460918,-3.6070786
157,/title/tt0460791/,The Fall,"Jailsalmer Fort, Jaisalmer, Rajasthan, India",,,,
158,/title/tt0460791/,The Fall,"Red Fort, New Delhi, Delhi, India",,"Red Fort, AH1, Meena Bazaar, Chandni Chowk, Delhi, Kotwali Tehsil, Central Delhi, Delhi, 110003, India",28.65608095,77.24079592327321
159,/title/tt0851851/,Terminator: The Sarah Connor Chronicles,"Albuquerque, New Mexico, USA",,"Albuquerque, Bernalillo County, New Mexico, United States of America",35.0841034,-106.6509851
160,/title/tt0851851/,Terminator: The Sarah Connor Chronicles,"Barelas Railyard, Albuquerque, New Mexico, USA",,,,
161,/title/tt0851851/,Terminator: The Sarah Connor Chronicles,"Los Angeles, California, USA",,"Los Angeles, Los Angeles County, California, United States of America",34.0536909,-118.2427666
162,/title/tt1453405/,Monsters Universiteit,"Walt Disney Animation Studios - 2100 Riverside Drive, Burbank, California, USA",,,,
163,Code,Show Name,Location,Scene,"Location, Tucker County, West Virginia, United States of America",39.2138905,-79.6371124
164,/title/tt0146402/,Addams Family Reunion,"California, USA",,"California, United States of America",36.7014631,-118.7559974
165,/title/tt0146402/,Addams Family Reunion,"Los Angeles, California, USA",,"Los Angeles, Los Angeles County, California, United States of America",34.0536909,-118.2427666
166,/title/tt8762206/,Creepshow,"Georgia, USA",,"Georgia, United States of America",32.3293809,-83.1137366
167,/title/tt5165368/,Amazing Stories,"Atlanta, Georgia, USA",,"Atlanta, Georgia, United States of America",33.7490987,-84.3901849
168,/title/tt0829150/,Dracula Untold,"Northern Ireland, UK",,"Northern Ireland, United Kingdom",54.6294982,-6.7654416
169,/title/tt0829150/,Dracula Untold,"Black Mountain, Belfast, County Antrim, Northern Ireland, UK",(battle scenes)                        ,"Black Mountain, Lisburn, County Antrim, Northern Ireland, BT11 8BU, United Kingdom",54.5888958,-6.0206539
170,/title/tt0829150/,Dracula Untold,"Divis Mountain, Belfast, County Antrim, Northern Ireland, UK",(battle scenes)                        ,"Divis, Belfast, County Antrim, Northern Ireland, BT11 8EF, United Kingdom",54.6114529,-6.0181027
171,/title/tt0829150/,Dracula Untold,"Roe Valley Country Park, County Londonderry, Northern Ireland, UK",,"Roe Valley Country Park, Dogleap Road, Carran, Limavady, County Londonderry, Northern Ireland, United Kingdom",55.02137745,-6.9318133721920745
172,/title/tt0829150/,Dracula Untold,"McArthur Hall, Methodist College Belfast, Belfast, County Antrim, Northern Ireland, UK",(Castle interior)                        ,,,
173,/title/tt0322330/,Freaky Friday,"Dorris Place Elementary School - 2225 Dorris Place, Los Angeles, California, USA",,,,
174,/title/tt0322330/,Freaky Friday,"Argyle Hotel - 8358 Sunset Blvd., West Hollywood, California, USA",,,,
175,/title/tt0322330/,Freaky Friday,"Palisades High School - 15777 Bowdoin Street, Pacific Palisades, Los Angeles, California, USA",,,,
176,/title/tt0322330/,Freaky Friday,"Pacific Palisades, Los Angeles, California, USA",,"Pacific Palisades, Los Angeles, Los Angeles County, California, United States of America",34.0480643,-118.5264706
177,/title/tt0259324/,Ghost Rider,"Southbank Footbridge, Southbank, Melbourne, Victoria, Australia",,,,
178,/title/tt0259324/,Ghost Rider,"Melbourne General Cemetary, Carlton, Melbourne, Victoria, Australia",,,,
179,/title/tt0259324/,Ghost Rider,"Central City Studios, Melbourne, Victoria, Australia",(studio)                        ,,,
180,/title/tt0259324/,Ghost Rider,"Docklands Stadium, Docklands, Melbourne, Victoria, Australia",(stadium)                        ,"Marvel Stadium, Bourke Street Footbridge, Docklands, Melbourne, City of Melbourne, Victoria, 3000, Australia",-37.816529,144.94751697668812
181,/title/tt0259324/,Ghost Rider,"Victoria, Australia",,"Victoria, Australia",-36.5986096,144.6780052
182,/title/tt0259324/,Ghost Rider,"Flagstaff Underground Station, Melbourne, Victoria, Australia",,,,
183,/title/tt0259324/,Ghost Rider,"Southbank, Melbourne, Victoria, Australia",,"Southbank, Melbourne, City of Melbourne, Victoria, 3000, Australia",-37.8253618,144.9640203
184,/title/tt0259324/,Ghost Rider,"Docklands, Melbourne, Victoria, Australia",,"Docklands, Melbourne, City of Melbourne, Victoria, 3000, Australia",-37.8175423,144.9394923
185,/title/tt0259324/,Ghost Rider,"Carlton, Melbourne, Victoria, Australia",,"Carlton, Melbourne, City of Melbourne, Victoria, 3000, Australia",-37.8004228,144.9684343
186,/title/tt0274761/,Halloweentown II: Kalabar's Revenge,"Fantasy Gardens, Richmond, British Columbia, Canada",,"Shellmont Gardens (u/c), East Richmond, Richmond, Metro Vancouver Regional District, British Columbia, Canada",49.13586265,-123.08823604149119
187,/title/tt0274761/,Halloweentown II: Kalabar's Revenge,"Vancouver, British Columbia, Canada",,"Vancouver, Metro Vancouver Regional District, British Columbia, Canada",49.2608724,-123.1139529
188,/title/tt6317068/,Final Space,"New York City, New York, USA",(on location)                        ,"New York, United States of America",40.7127281,-74.0060152
189,/title/tt0146316/,Lara Croft: Tomb Raider,"Angkor Wat, Siem Reap, Cambodia",,"អង្គរវត្ត, Sandstone Cause Way, ក្រុងសៀមរាប, ខេត្តសៀមរាប, Cambodia",13.41249965,103.86656937305514
190,/title/tt0146316/,Lara Croft: Tomb Raider,"Natural History Museum, South Kensington, London, England, UK",(interiors: Lara's home/base)                        ,"Natural History Museum, Queen's Gate, Brompton, Royal Borough of Kensington and Chelsea, London, Greater London, England, SW7 5QL, United Kingdom",51.4955742,-0.1790756
191,/title/tt0146316/,Lara Croft: Tomb Raider,"Leadenhall Market, Lime Street, Broadgate, London, England, UK",,,,
192,/title/tt0146316/,Lara Croft: Tomb Raider,"Windsor Great Park, Windsor, Berkshire, England, UK",,,,
193,/title/tt0146316/,Lara Croft: Tomb Raider,"Kulen Falls, Phnom Kulen National Park, Cambodia",(waterfall jump)                        ,,,
194,/title/tt0146316/,Lara Croft: Tomb Raider,"Hatfield House, Hatfield, Hertfordshire, England, UK",,"Hatfield House, The Stable Yard, Hatfield, Welwyn Hatfield, Hertfordshire, East of England, England, AL9 5NF, United Kingdom",51.7605139,-0.20879851305478084
195,/title/tt0146316/,Lara Croft: Tomb Raider,"Pinewood Studios, Iver Heath, Buckinghamshire, England, UK",(studio)                        ,"Pinewood Studios, Pinewood Green, Iver, Iver Heath, Buckinghamshire, South East, England, SL0 0QJ, United Kingdom",51.54831515,-0.5346765566753087
196,/title/tt0146316/,Lara Croft: Tomb Raider,"Trinity Square, London, England, UK",(Externals)                        ,"Trinity Square, Mill Hill, London Borough of Barnet, London, Greater London, England, United Kingdom",51.6038134,-0.2423962340489056
197,/title/tt0097758/,Little Monsters,"Wilmington, North Carolina, USA",,"Wilmington, New Hanover County, North Carolina, United States of America",34.2257282,-77.9447107
198,/title/tt0097758/,Little Monsters,USA,,United States,39.7837304,-100.4458825
199,/title/tt0097758/,Little Monsters,"Wilmington National Cemetery - 2011 Market Street, Wilmington, North Carolina, USA",(Eric dares Brian)                        ,,,
200,/title/tt0097758/,Little Monsters,"1703 Princess Street, Wilmington, North Carolina, USA",(Todd's house)                        ,"1703, Princess Street, Princess Place, Wilmington, New Hanover County, North Carolina, 28405, United States of America",34.23828008163265,-77.92758146938775
201,/title/tt0097758/,Little Monsters,"Stage 4, Screen Gems Studios - 1223 North 23rd Street, Wilmington, North Carolina, USA",(Stevenson house interiors; monsters attempting to scare baby)                        ,,,
202,/title/tt0097758/,Little Monsters,"Forest Hills Global Elementary - 602 Colonial Drive, Wilmington, North Carolina, USA",(school)                        ,,,
203,/title/tt0097758/,Little Monsters,"Roanoke Cement Factory - 6411 Ideal Cement Road, Castle Hayne, North Carolina, USA",(The Underworld)                        ,,,
204,/title/tt0097758/,Little Monsters,"Boston, Massachusetts, USA",,"Boston, Suffolk County, Massachusetts, United States of America",42.3602534,-71.0582912
205,/title/tt1528071/,Horns,"Vancouver, British Columbia, Canada",,"Vancouver, Metro Vancouver Regional District, British Columbia, Canada",49.2608724,-123.1139529
206,/title/tt1528071/,Horns,"32786 Lougheed Hwy, Mission, British Columbia, Canada",(Eve's Diner Scenes)                        ,"Lougheed Highway, Silverdale, Mission, British Columbia, V4S 1H7, Canada",49.1639786,-122.4061005
207,/title/tt1528071/,Horns,Canada,,Canada,61.0666922,-107.9917071
208,/title/tt5117876/,Descendants 2,"British Columbia, Canada",,"British Columbia, Canada",55.001251,-125.002441
209,/title/tt0411477/,Hellboy II: The Golden Army,"Budapest, Hungary",,"Budapest, Közép-Magyarország, 1011, Magyarország",47.4983815,19.0404707
210,/title/tt0411477/,Hellboy II: The Golden Army,"Tárnok, Pest, Budapest, Hungary",(goblin market)                        ,"Tárnok, Érdi járás, Pest megye, Közép-Magyarország, 2461, Magyarország",47.3668787,18.8660065
211,/title/tt0411477/,Hellboy II: The Golden Army,"Giant's Causeway, County Antrim, Northern Ireland, UK",(aerial photography of Giant's Causeway)                        ,"Giant's Causeway, Causeway Coastal Way, Ardihannon, Bushmills, County Antrim, Northern Ireland, BT57 8SU, United Kingdom",55.24082145,-6.5116386404807
212,/title/tt0411477/,Hellboy II: The Golden Army,"London, England, UK",,"London, Greater London, England, United Kingdom",51.5073219,-0.1276474
213,/title/tt0106064/,Mighty Morphin Power Rangers,"Brandeis-Bardin Institute - 1101 Pepper Tree Lane, Simi Valley, California, USA","(Command Center, exteriors)                        ",,,
214,/title/tt0106064/,Mighty Morphin Power Rangers,"Placerita Canyon Natural Area - 19152 Placerita Canyon Road, Newhall, California, USA",(Angel Grove Park)                        ,,,
215,/title/tt0106064/,Mighty Morphin Power Rangers,"Castaic Lake, Castaic Lake State Recreation Area, California, USA",(Angel Grove Lake)                        ,,,
216,/title/tt0106064/,Mighty Morphin Power Rangers,"Kenneth Hahn State Recreational Area - 4100 S. La Cienega Blvd., Ladera Heights, Los Angeles, California, USA",(Angel Grove Park)                        ,,,
217,/title/tt0106064/,Mighty Morphin Power Rangers,"Culver City, California, USA",,"Culver City, Los Angeles County, California, United States of America",34.0211224,-118.3964665
218,/title/tt0106064/,Mighty Morphin Power Rangers,"Simi Valley, California, USA","(Command Center, exteriors)                        ","Simi Valley, Ventura County, California, United States of America",34.2694474,-118.781482
219,/title/tt0058815/,I Dream of Jeannie,"Dryden Flight Research Center, Edwards Air Force Base, California, USA",(offices)                        ,,,
220,/title/tt0058815/,I Dream of Jeannie,"Columbia/Warner Bros. Ranch - 411 North Hollywood Way, Burbank, California, USA",,,,
221,/title/tt1397514/,Journey 2: The Mysterious Island,"Kualoa Ranch - 49560 Kamehameha Highway, Ka'a'awa, O'ahu, Hawaii, USA",,,,
222,/title/tt1397514/,Journey 2: The Mysterious Island,"North Carolina Film Studios, Wilmington, North Carolina, USA",,,,
223,/title/tt1490017/,De Lego Film,"Fox Studios, Moore Park, Sydney, New South Wales, Australia",,"Fox Studios Australia, Moore Park, Sydney, Council of the City of Sydney, New South Wales, 2021, Australia",-33.890960899999996,151.22750517838074
224,/title/tt1490017/,De Lego Film,"Boston, Massachusetts, USA",,"Boston, Suffolk County, Massachusetts, United States of America",42.3602534,-71.0582912
225,/title/tt0442933/,Beowulf,"Culver Studios - 9336 W. Washington Blvd., Culver City, California, USA",(studio)                        ,,,
226,/title/tt0467421/,Twitches,"Casa Loma, 1 Austin Terrace, Toronto, Ontario, Canada",(Coventry)                        ,"Casa Loma, 1, Austin Terrace, Toronto—St. Paul's, Old Toronto, Toronto, Peel, Golden Horseshoe, Ontario, M5R 1X9, Canada",43.6781015,-79.409415775
227,/title/tt0120889/,What Dreams May Come,"Angel Falls, Canaima National Park, Estado Bolívar, Venezuela",,,,
228,/title/tt0120889/,What Dreams May Come,"Blackfeet Indian Reservation, Montana, USA",,,,
229,/title/tt0120889/,What Dreams May Come,"San Francisco, California, USA",,"San Francisco, San Francisco City and County, California, United States of America",37.7790262,-122.4199061
230,/title/tt0120889/,What Dreams May Come,"St. Vincent's Church, San Rafael, California, USA",(church scenes)                        ,,,
231,/title/tt0120889/,What Dreams May Come,"Mare Island, Vallejo, California, USA",(stage)                        ,"Mare Island, Vallejo, Solano County, California, 94592, United States of America",38.0954755,-122.2724704
232,/title/tt0120889/,What Dreams May Come,"Filoli Estate - 86 Cañada Road, Woodside, California, USA",,"Filoli Estate, 86, Cañada Road, Highlands, San Mateo County, California, 94062, United States of America",37.469806250000005,-122.31060788438967
233,/title/tt0120889/,What Dreams May Come,"Oakland, California, USA",(Church scenes)                        ,"Oakland, Alameda County, California, United States of America",37.8044557,-122.2713563
234,/title/tt0050976/,Det sjunde inseglet,"Hovs Hallar - Naturreservat, Skåne län, Sweden",(Opening beach scene and ending scene)                        ,,,
235,/title/tt0050976/,Det sjunde inseglet,"Skytteholm, Solna, Stockholms län, Sweden",,,,
236,/title/tt0050976/,Det sjunde inseglet,"Solna, Stockholms län, Sweden",,"Solna kommun, Stockholms län, Svealand, Sverige",59.361367,18.0013693
237,/title/tt0050976/,Det sjunde inseglet,"Östanå, Österåker, Stockholms län, Sweden",,"Östanå, Österåkers kommun, Stockholms län, Svealand, 18495, Sverige",59.5566354,18.5782564
238,/title/tt0116683/,James and the Giant Peach,"San Francisco, California, USA",,"San Francisco, San Francisco City and County, California, United States of America",37.7790262,-122.4199061
239,/title/tt5807606/,Death Stranding,Iceland,(real locations)                        ,Ísland,64.9841821,-18.1059013
240,/title/tt1528100/,Exodus: Gods and Kings,"Fuerteventura, Canary Islands, Spain",(Exodus)                        ,"Fuerteventura, Antigua, Las Palmas, Canarias, España",28.40037685,-14.004869713542156
241,/title/tt1528100/,Exodus: Gods and Kings,"Ouarzazate, Morocco",,"Ouarzazate ⵡⴰⵔⵣⴰⵣⴰⵜ ورزازات, Pachalik d'Ouarzazate, Province de Ouarzazate ⵍⵉⵇⵍⵉⵎ ⵏ ⵡⴰⵔⵣⴰⵣⴰⵜ إقليم ورززات, Drâa-Tafilalet ⴷⴰⵔⵄⴰ-ⵜⴰⴼⵉⵍⴰⵍⵜ درعة تافيلالت, 45005, Maroc",30.920193,-6.910923
242,/title/tt1528100/,Exodus: Gods and Kings,"Pechina, Almería, Andalucía, Spain",,"Pechina, Almería, Andalucía, España",36.916512,-2.4402474
243,/title/tt1528100/,Exodus: Gods and Kings,"Andalucía, Spain",,"Andalucía, España",37.3399964,-4.5811614
244,/title/tt1528100/,Exodus: Gods and Kings,UK,,United Kingdom,54.7023545,-3.2765753
245,/title/tt1528100/,Exodus: Gods and Kings,"El Chorrillo, Pechina, Almeria, Andalucia, Spain",,,,
246,/title/tt1528100/,Exodus: Gods and Kings,"Desierto de Tabernas, Almería, Andalucía, Spain",,"Paraje Natural del Desierto de Tabernas, Gérgal, Almería, Andalucía, España",37.0675509,-2.5294695521144464
247,/title/tt8992946/,Cargo,Malaysia,(on location)                        ,Malaysia,4.5693754,102.2656823
248,/title/tt0100260/,Nightbreed,"Bragg Creek, Alberta, Canada",,"Bragg Creek, Kananaskis Improvement District, Alberta, Canada",50.9498883,-114.6834261
249,/title/tt0100260/,Nightbreed,"Drumheller, Alberta, Canada",,"Drumheller, Town of Drumheller, Alberta, T0J 0Y0, Canada",51.4662795,-112.7046642
250,/title/tt0100260/,Nightbreed,"Backlot, Pinewood Studios, Iver Heath, Buckinghamshire, England, UK",(Necropolis)                        ,,,
251,/title/tt0100260/,Nightbreed,"Producer's Office, Pinewood Studios, Iver Heath, Buckinghamshire, England, UK",(office of Sheriff Eigerman)                        ,,,
252,/title/tt0100260/,Nightbreed,"Pinewood Studios, Iver Heath, Buckinghamshire, England, UK",(studio)                        ,"Pinewood Studios, Pinewood Green, Iver, Iver Heath, Buckinghamshire, South East, England, SL0 0QJ, United Kingdom",51.54831515,-0.5346765566753087
253,/title/tt0100260/,Nightbreed,"Wexham Park Hospital, Slough, Berkshire, UK",,,,
254,/title/tt0120655/,Dogma,"St. Peter and Paul Catholic Church - Larimer Avenue, Pittsburgh, Pennsylvania, USA",(church at the end of the movie)                        ,,,
255,/title/tt0120655/,Dogma,"Carnegie Mellon University - 5000 Forbes Avenue, Pittsburgh, Pennsylvania, USA",,"Carnegie Mellon University, 5000, Forbes Avenue, Squirrel Hill North, Pittsburgh, Allegheny County, Pennsylvania, 15213, United States of America",40.4441619,-79.942728259225
256,/title/tt0120655/,Dogma,"600 Grant Street, Pittsburgh, Pennsylvania, USA",,"U.S. Steel Tower, 600, Grant Street, Downtown, Pittsburgh, Allegheny County, Pennsylvania, 15219, United States of America",40.441377200000005,-79.99475645200744
257,/title/tt0120655/,Dogma,"Pinnacle Studios, Trafford, Pennsylvania, USA",(studio)                        ,,,
258,/title/tt0120655/,Dogma,"Asbury Park, New Jersey, USA",,"Asbury Park, New Jersey, United States of America",40.2203907,-74.0120817
259,/title/tt0120655/,Dogma,"Red Bank, New Jersey, USA",,"Red Bank, New Jersey, United States of America",40.3470543,-74.0643065
260,/title/tt0120655/,Dogma,"Pennsylvania, USA",,"Pennsylvania, United States of America",40.9699889,-77.7278831
261,/title/tt0120655/,Dogma,"New Jersey, USA",,"New Jersey, United States of America",40.0757384,-74.4041622
262,/title/tt0120655/,Dogma,USA,,United States,39.7837304,-100.4458825
263,/title/tt4206804/,The Frankenstein Chronicles,"Armagh, County Armagh, Northern Ireland, UK",,"Armagh, County Armagh, Northern Ireland, BT61 7DJ, United Kingdom",54.3481977,-6.6540432
264,/title/tt4206804/,The Frankenstein Chronicles,"Ballywater Park, County Down, Northern Ireland, UK",,,,
265,/title/tt4206804/,The Frankenstein Chronicles,"Ulster Folk and Transport Museum - 153 Bangor Road, Holywood, County Down, Northern Ireland, UK",,"Ulster Folk & Transport Museum, Bangor Road, Craigavad, Holywood, County Down, Northern Ireland, BT18 0EU, United Kingdom",54.654137899999995,-5.801582218054342
266,/title/tt4206804/,The Frankenstein Chronicles,"Shane's Castle, County Antrim, Northern Ireland, UK",,"Shane's Castle, Castle Road, Shanes's Castle, Antrim, County Antrim, Northern Ireland, BT41 4LZ, United Kingdom",54.7274716,-6.2678393075051275
267,/title/tt4206804/,The Frankenstein Chronicles,"Campbell College, Belfast, Northern Ireland, UK",,"Campbell College, Wandsworth Road, Ballycloghan, Dundonald, County Down, Northern Ireland, BT4 2ND, United Kingdom",54.59948145,-5.848945665973484
268,/title/tt4206804/,The Frankenstein Chronicles,"Myra Castle, Downpatrick, County Down, Northern Ireland, UK",,,,
269,/title/tt2963254/,Salem,"Shreveport, Louisiana, USA",,"Shreveport, Caddo Parish, Louisiana, United States of America",32.5221828,-93.7651944
270,/title/tt0357277/,Elektra,"Shannon Falls, British Columbia, Canada",,"Shannon Falls, Area D (Elaho/Garibaldi), Squamish-Lillooet Regional District, British Columbia, V8B 0A6, Canada",49.6702548,-123.1565922
271,/title/tt0357277/,Elektra,"North Vancouver, British Columbia, Canada",,"North Vancouver, Metro Vancouver Regional District, British Columbia, V7M 1H9, Canada",49.3207133,-123.0737831
272,/title/tt0357277/,Elektra,"Capilano River Regional Park, North Vancouver, British Columbia, Canada",,"Capilano River Regional Park, Capilano, District of North Vancouver, Metro Vancouver Regional District, British Columbia, Canada",49.3483843,-123.11546111285233
273,/title/tt0357277/,Elektra,"Lion's Gate Studios, North Vancouver, British Columbia, Canada",,,,
274,/title/tt0357277/,Elektra,"North Shore Studios, North Vancouver, British Columbia, Canada",,,,
275,/title/tt0357277/,Elektra,"Downtown, Los Angeles, California, USA",,"Downtown, Los Angeles, Los Angeles County, California, United States of America",34.0428494,-118.2476732
276,/title/tt0357277/,Elektra,"California, USA",,"California, United States of America",36.7014631,-118.7559974
277,/title/tt0385752/,The Golden Compass,"Bergen, Hordaland, Norway",,,,
278,/title/tt0385752/,The Golden Compass,"Toronto, Ontario, Canada",,"Toronto, Peel, Golden Horseshoe, Ontario, Canada",43.6534817,-79.3839347
279,/title/tt0385752/,The Golden Compass,"Budapest, Hungary",,"Budapest, Közép-Magyarország, 1011, Magyarország",47.4983815,19.0404707
280,/title/tt0385752/,The Golden Compass,"Christ Church College, St Aldate's, Oxford, Oxfordshire, England, UK",,,,
281,/title/tt0385752/,The Golden Compass,"Bourne Woods, Farnham, Surrey, England, UK",,,,
282,/title/tt0385752/,The Golden Compass,"Bodleian Library, Broad Street, Oxford, Oxfordshire, England, UK",,"Weston Library, Broad Street, St Ebbes, City Centre, Oxford, Oxfordshire, South East, England, OX1 3SP, United Kingdom",51.7550536,-1.2551059831608038
283,/title/tt0385752/,The Golden Compass,"Exeter College, Turl Street, Oxford, Oxfordshire, England, UK",,"Exeter College, Turl Street, St Ebbes, City Centre, Oxford, Oxfordshire, South East, England, OX1 3AX, United Kingdom",51.75387705,-1.2558060815640777
284,/title/tt0385752/,The Golden Compass,"Radcliffe Square, Oxford, Oxfordshire, England, UK",,"Radcliffe Square, St Ebbes, City Centre, Oxford, Oxfordshire, South East, England, OX1 4AJ, United Kingdom",51.7531656,-1.2542706
285,/title/tt0385752/,The Golden Compass,Hungary,,Magyarország,47.1817585,19.5060937
286,/title/tt0385752/,The Golden Compass,Switzerland,,Schweiz/Suisse/Svizzera/Svizra,46.7985624,8.2319736
287,/title/tt0385752/,The Golden Compass,"Chatham Historic Dockyard, Chatham, Kent, England, UK",(Trollesund)                        ,,,
288,/title/tt0385752/,The Golden Compass,"Grindelwald, Kanton Bern, Switzerland",(action sequences)                        ,"Grindelwald, Verwaltungskreis Interlaken-Oberhasli, Verwaltungsregion Oberland, Bern/Berne, 3818, Switzerland",46.6242733,8.0367462
289,/title/tt0385752/,The Golden Compass,"Old Royal Naval College, Greenwich, London, England, UK",(82ASK)                        ,"Old Royal Naval College, Park Row, East Greenwich, Royal Borough of Greenwich, London, Greater London, England, SE10 9NL, United Kingdom",51.4829661,-0.006257671681354558
290,/title/tt0385752/,The Golden Compass,"Pitt-Rivers Museum, Parks Road, Oxford, Oxfordshire, England, UK",,"Pitt Rivers Museum, 3, Parks Road, City Centre, Oxford, Oxfordshire, South East, England, OX1 3PP, United Kingdom",51.75875945,-1.2550636261836865
291,/title/tt0385752/,The Golden Compass,"Shepperton Studios, Shepperton, Surrey, England, UK",(studio)                        ,,,
292,/title/tt1714915/,Only Lovers Left Alive,"Hamburg, Germany",(rock club)                        ,"Hamburg, Deutschland",53.5437641,10.0099133
293,/title/tt1714915/,Only Lovers Left Alive,"Detroit, Michigan, USA",,"Detroit, Wayne County, Michigan, United States of America",42.3315509,-83.0466403
294,/title/tt1714915/,Only Lovers Left Alive,"Cologne, North Rhine-Westphalia, Germany",(studio)                        ,"Köln, Regierungsbezirk Köln, Nordrhein-Westfalen, Deutschland",50.938361,6.959974
295,/title/tt1714915/,Only Lovers Left Alive,"MMC Studios, Cologne, North Rhine-Westphalia, Germany",(studio) (apartment interiors) (as MMC Independent Studios Cologne)                        ,"MMC Cologne, 1, Am Coloneum, Am Butzweilerhof, Ossendorf, Ehrenfeld, Köln, Nordrhein-Westfalen, 50829, Deutschland",50.9875138,6.8963165
296,/title/tt1714915/,Only Lovers Left Alive,Germany,"(Leichlingen, Germany)                        ",Deutschland,51.0834196,10.4234469
297,/title/tt0101889/,The Fisher King,"Grand Central Station, Manhattan, New York City, New York, USA",,"Grand Central Terminal, 89, East 42nd Street, Midtown East, Manhattan Community Board 5, Manhattan, New York County, New York, 10017, United States of America",40.752701200000004,-73.97724987363358
298,/title/tt0101889/,The Fisher King,"Hunter College High School, Madison Avenue, Manhattan, New York City, New York, USA",(Exterior of Holy grail castle)                        ,,,
299,/title/tt0101889/,The Fisher King,"Plaza Hotel - 750 Fifth Avenue, Manhattan, New York City, New York, USA",(child hands Jack the Pinocchio doll)                        ,,,
300,/title/tt0101889/,The Fisher King,"Pacific Electric Building, Los Angeles, California, USA",,,,
301,/title/tt0101889/,The Fisher King,"Sherman Monument, Grand Army Plaza, Fifth Avenue, New York City, New York, USA",(drunken Jack talking to Pinocchio doll)                        ,,,
302,/title/tt0101889/,The Fisher King,"Central Park, Manhattan, New York City, New York, USA",,"Central Park, Manhattan, New York County, New York, United States of America",40.7827725,-73.9653627406542
303,/title/tt0101889/,The Fisher King,"Eaglevale Bridge - 2 W. 77th Street, Central Park, Manhattan, New York City, New York, USA",(Parry & Jack help a homeless cabaret singer.)                        ,,,
304,/title/tt0101889/,The Fisher King,"330 Park Avenue South, Manhattan, New York City, New York, USA",(Parry is sitting atop a car as Jack finds him.)                        ,"330, Park Avenue South, Flatiron District, Manhattan Community Board 5, Manhattan, New York County, New York, 10010, United States of America",40.7411247,-73.9859135
305,/title/tt0083630/,The Beastmaster,"Simi Valley, California, USA",,"Simi Valley, Ventura County, California, United States of America",34.2694474,-118.781482
306,/title/tt0083630/,The Beastmaster,"Valley of Fire State Park - Route 169, Overton, Nevada, USA",,,,
307,/title/tt0120789/,Pleasantville,"Petaluma, California, USA",(Scenes filmed at Petaluma Blvd and Western Ave.)                        ,"Petaluma, Sonoma County, California, United States of America",38.270022,-122.60612241304348
308,/title/tt0120789/,Pleasantville,"Sacramento, California, USA",(town flyover)                        ,"Sacramento, Sacramento County, California, United States of America",38.5815719,-121.4943996
309,/title/tt0120789/,Pleasantville,"John Burroughs Middle School - 600 S. McCaddon Place, Los Angeles, California, USA",,,,
310,/title/tt0120789/,Pleasantville,"Glendale, California, USA",,"Glendale, Los Angeles County, California, United States of America",34.1469416,-118.2478471
311,/title/tt0120789/,Pleasantville,"Malibu, California, USA",,"Malibu, Los Angeles County, California, 90265-4797, United States of America",34.035591,-118.689423
312,/title/tt0120789/,Pleasantville,"Pasadena, California, USA",,"Pasadena, Los Angeles County, California, United States of America",34.1476452,-118.1444779
313,/title/tt0013442/,Nosferatu,"Orava Castle, Oravsky Podzámok, Slovakia",,"Oravský hrad, Nádvorie predhradia I., Oravský Podzámok, okres Dolný Kubín, Žilinský kraj, Stredné Slovensko, 02741, Slovensko",49.2618771,19.358753
314,/title/tt0013442/,Nosferatu,"Salzspeicher, Lübeck, Schleswig-Holstein, Germany",(Graf Orlok's house in Wisborg)                        ,,,
315,/title/tt0013442/,Nosferatu,Slovakia,,Slovensko,48.7411522,19.4528646
316,/title/tt0013442/,Nosferatu,Germany,,Deutschland,51.0834196,10.4234469
317,/title/tt0013442/,Nosferatu,"Oravsky Podzámok, Slovakia",,"Oravský Podzámok, okres Dolný Kubín, Žilinský kraj, Stredné Slovensko, 027 41, Slovensko",49.2610972,19.3570525
318,/title/tt0013442/,Nosferatu,"Lauenburg, Schleswig-Holstein, Germany",,"Lauenburg/Elbe, Herzogtum Lauenburg, Schleswig-Holstein, 21481, Deutschland",53.3789803,10.5513889
319,/title/tt0013442/,Nosferatu,"Schleswig-Holstein, Germany",,"Schleswig-Holstein, Deutschland",54.1853998,9.8220089
320,/title/tt0013442/,Nosferatu,"Uppsala University, Uppsala, Uppsala län, Sweden",(stock footage)                        ,,,
321,/title/tt0013442/,Nosferatu,"Orava Castle, Oravsky Podzámok, Slovakia",(Castle)                        ,"Oravský hrad, Nádvorie predhradia I., Oravský Podzámok, okres Dolný Kubín, Žilinský kraj, Stredné Slovensko, 02741, Slovensko",49.2618771,19.358753
322,/title/tt0106912/,Fire in the Sky,"Oakland, Oregon, USA",,"Oakland, Douglas County, Oregon, United States of America",43.4219834,-123.2984487
323,/title/tt0106912/,Fire in the Sky,"Sutherlin, Oregon, USA",,"Sutherlin, Douglas County, Oregon, 97479, United States of America",43.3896628,-123.3123598
324,/title/tt0319343/,Elf,"Vancouver, British Columbia, Canada",,"Vancouver, Metro Vancouver Regional District, British Columbia, Canada",49.2608724,-123.1139529
325,/title/tt0319343/,Elf,"Rockefeller Center, Manhattan, New York City, New York, USA",(Christmas tree)                        ,"Rockefeller Center, 45, Rockefeller Plaza, Midtown, Manhattan Community Board 5, Manhattan, New York County, New York, 10111, United States of America",40.75925755,-73.97995686116377
326,/title/tt0319343/,Elf,"Macy's Flagship, 151 W 34th Street, Manhattan, New York City, New York, USA",(Gimbels interior)                        ,,,
327,/title/tt0319343/,Elf,"Central Park, Manhattan, New York City, New York, USA",,"Central Park, Manhattan, New York County, New York, United States of America",40.7827725,-73.9653627406542
328,/title/tt0319343/,Elf,"Textile Building, 295 Fifth Avenue, Manhattan, New York City, New York, USA",(Gimbels exterior)                        ,,,
329,/title/tt4680182/,Colossal,"Seoul, South Korea",,"서울, 대한민국",37.5666791,126.9782914
330,/title/tt4680182/,Colossal,"Portage Park, 5147 204 Street, Langley, British Columbia, Canada",(children's playground scenes)                        ,,,
331,/title/tt4680182/,Colossal,"Gastown, Vancouver, British Columbia, Canada",(New York City scenes)                        ,"Gastown, Downtown, Vancouver, Metro Vancouver Regional District, British Columbia, V6B 1A1, Canada",49.2836567,-123.1062358
332,/title/tt4680182/,Colossal,"The Caddyshack - Maple Ridge, British Columbia, Canada",(Exterior of Oscars Bar)                        ,,,
333,/title/tt0387575/,Seed of Chucky,"Los Angeles Center Studios - 450 S. Bixel Street, Downtown, Los Angeles, California, USA",(shot where ambulance pulls up to hospital at 71 mins.)                        ,,,
334,/title/tt0387575/,Seed of Chucky,Romania,,România,45.9852129,24.6859225
335,/title/tt0387575/,Seed of Chucky,USA,,United States,39.7837304,-100.4458825
336,/title/tt0387575/,Seed of Chucky,"Bucharest, Romania",,"Municipiul București, România",44.4361414,26.1027202
337,/title/tt7736496/,Jingle Jangle: A Christmas Journey,"Elm Hill, Norwich, England, UK",(High street exterior)                        ,"Elm Hill, Heigham Grove, Norwich, Norfolk, East of England, England, NR3 1HN, United Kingdom",52.6310924,1.2966388
338,/title/tt1121096/,Seventh Son,"Vancouver, British Columbia, Canada",,"Vancouver, Metro Vancouver Regional District, British Columbia, Canada",49.2608724,-123.1139529
339,/title/tt1121096/,Seventh Son,"Kananaskis Country, Alberta, Canada",,"Kananaskis Country Golf Course, Kananaskis Trail, Kananaskis Village, Kananaskis Improvement District, Alberta, Canada",50.90414855,-115.1464755019835
340,/title/tt1121096/,Seventh Son,"Hollywood, Los Angeles, California, USA",,"Hollywood, Los Angeles, Los Angeles County, California, 90028-8127, United States of America",34.0980031,-118.329523
341,Code,Show Name,Location,Scene,"Location, Tucker County, West Virginia, United States of America",39.2138905,-79.6371124
342,/title/tt1054606/,The Imaginarium of Doctor Parnassus,"Vancouver Public Library, 360 West Georgia Street, Vancouver, British Columbia, Canada",,"Vancouver Public Library, 350, West Georgia Street, Downtown, Vancouver, Metro Vancouver Regional District, British Columbia, V6B 6B1, Canada",49.27965895,-123.11561399015199
343,/title/tt1054606/,The Imaginarium of Doctor Parnassus,"Gastown, Vancouver, British Columbia, Canada",,"Gastown, Downtown, Vancouver, Metro Vancouver Regional District, British Columbia, V6B 1A1, Canada",49.2836567,-123.1062358
344,/title/tt1054606/,The Imaginarium of Doctor Parnassus,"The Bridge Studios, Burnaby, British Columbia, Canada",(studio)                        ,"Bridge Studios, Burnaby, Metro Vancouver Regional District, British Columbia, Canada",49.2629905,-123.0205448788792
345,/title/tt1054606/,The Imaginarium of Doctor Parnassus,"St Paul's Cathedral, St Paul's Churchyard, City of London, England, UK",,,,
346,/title/tt1054606/,The Imaginarium of Doctor Parnassus,"Borough Market, Borough, London, England, UK",,"Borough Market, Winchester Walk, Borough, Southwark, London Borough of Southwark, London, Greater London, England, SE1 9AQ, United Kingdom",51.50558625,-0.090487028540277
347,/title/tt1054606/,The Imaginarium of Doctor Parnassus,"Clerkenwell, London, England, UK",,"Clerkenwell, London Borough of Islington, London, Greater London, England, EC1R 0EA, United Kingdom",51.5237268,-0.1055555
348,/title/tt1054606/,The Imaginarium of Doctor Parnassus,"London, England, UK",,"London, Greater London, England, United Kingdom",51.5073219,-0.1276474
349,/title/tt0083767/,Creepshow,"361 Willow Hedge Dr, Monroeville, Pennsylvania, USA","(house in ""Prologue"" / ""Epilogue"" - exterior shots)                        ","361, Willow Hedge Drive, Garden City, Monroeville, Allegheny County, Pennsylvania, 15146, United States of America",40.45358328481402,-79.77182236267042
350,/title/tt0083767/,Creepshow,"600 Squaw Run Rd E, Fox Chapel, Pittsburgh, Pennsylvania, USA","(Grantham Estate - interiors, exteriors, cemetery in ""Father's Day"")                        ",,,
351,/title/tt0083767/,Creepshow,"Margaret Morrison Carnegie Hall, Carnegie Mellon University - 5000 Forbes Avenue, Pittsburgh, Pennsylvania, USA","(Amberson Hall in ""The Crate"")                        ",,,
352,/title/tt0083767/,Creepshow,"Gymnasium, Penn Hall Academy, Monroeville, Pennsylvania, USA",(interiors)                        ,,,
353,/title/tt0083767/,Creepshow,"Ocean County, New Jersey, USA",,"Ocean County, New Jersey, United States of America",39.977818,-74.3319287
354,/title/tt0083767/,Creepshow,"Penn Hall, Penn Hall Academy, Monroeville, Pennsylvania, USA","(laboratory in ""The Crate"", interiors - ""They're Creeping Up On You!"")                        ",,,
355,/title/tt0083767/,Creepshow,"Philadelphia, Pennsylvania, USA",,"Philadelphia, Philadelphia County, Pennsylvania, United States of America",39.9527237,-75.1635262
356,/title/tt10313176/,Nancy Drew,"Vancouver, British Columbia, Canada",,"Vancouver, Metro Vancouver Regional District, British Columbia, Canada",49.2608724,-123.1139529
357,/title/tt10313176/,Nancy Drew,"Horseshoe Bay, West Vancouver, British Columbia, Canada",,"Horseshoe Bay, West Vancouver, Metro Vancouver Regional District, British Columbia, V7W 3H5, Canada",49.3744409,-123.2739191
358,/title/tt10313176/,Nancy Drew,"Cecil Green Park House - 6251 Cecil Green Park Road, Vancouver, British Columbia, Canada",(Episode 5)                        ,"Cecil Green Park House, Cecil Green Park Road, University of British Columbia, Electoral Area A, Metro Vancouver Regional District, British Columbia, V6T 1Z2, Canada",49.27137675,-123.25770394938536
359,/title/tt0443543/,The Illusionist,"Konopiste Palace, Benesov, Czech Republic",(as the Crown Prince's castle)                        ,,,
360,/title/tt0443543/,The Illusionist,"Cesky Krumlov, Czech Republic",(the young Eisenheim's home)                        ,"Český Krumlov, okres Český Krumlov, Jihočeský kraj, Jihozápad, Česká republika",48.810678,14.3149994
361,/title/tt0443543/,The Illusionist,"Prague Castle, Hradcany, Prague, Czech Republic",,"Pražský hrad, Hradčany, Praha, okres Hlavní město Praha, Hlavní město Praha, Praha, 11900, Česká republika",50.0904894,14.3995583
362,/title/tt0443543/,The Illusionist,Czech Republic,,Česko,49.8167003,15.4749544
363,/title/tt0486576/,Fantastic 4: Rise of the Silver Surfer,"Burnaby, British Columbia, Canada",,"Burnaby, Metro Vancouver Regional District, British Columbia, Canada",49.2433804,-122.9725459
364,/title/tt0486576/,Fantastic 4: Rise of the Silver Surfer,"Pemberton, British Columbia, Canada",(Village of Pemberton)                        ,"Pemberton, Squamish-Lillooet Regional District, British Columbia, V0N 2L1, Canada",50.3203804,-122.8080783
365,/title/tt0486576/,Fantastic 4: Rise of the Silver Surfer,"Los Angeles, California, USA",,"Los Angeles, Los Angeles County, California, United States of America",34.0536909,-118.2427666
366,/title/tt0486576/,Fantastic 4: Rise of the Silver Surfer,"Vancouver, British Columbia, Canada",,"Vancouver, Metro Vancouver Regional District, British Columbia, Canada",49.2608724,-123.1139529
367,/title/tt0486576/,Fantastic 4: Rise of the Silver Surfer,"London, England, UK",(2nd Unit)                        ,"London, Greater London, England, United Kingdom",51.5073219,-0.1276474
368,/title/tt0486576/,Fantastic 4: Rise of the Silver Surfer,"Oriental Pearl Tower, Shanghai, China",,"东方明珠电视塔, 1, 世纪大道, 上海市, 2000080, China 中国",31.24194635,121.49526041661909
369,/title/tt0486576/,Fantastic 4: Rise of the Silver Surfer,"Shanghai, China",,"上海市, 黄浦区, China 中国",31.2322758,121.4692071
370,/title/tt0078239/,Sgt. Pepper's Lonely Hearts Club Band,"San Francisco, California, USA",(Tower Records at Columbus & Bay)                        ,"San Francisco, San Francisco City and County, California, United States of America",37.7790262,-122.4199061
371,/title/tt0078239/,Sgt. Pepper's Lonely Hearts Club Band,"Los Angeles, California, USA",,"Los Angeles, Los Angeles County, California, United States of America",34.0536909,-118.2427666
372,/title/tt0078239/,Sgt. Pepper's Lonely Hearts Club Band,"Universal Studios - 100 Universal City Plaza, Universal City, California, USA",(studio)                        ,,,
373,/title/tt0445922/,Across the Universe,"Winnipeg, Manitoba, Canada",(location)                        ,"Winnipeg, Winnipeg (city), Manitoba, Canada",49.8955367,-97.1384584
374,/title/tt0445922/,Across the Universe,"Fort Perch Rock, Wirral, Merseyside, England, UK",(the lighthouse)                        ,,,
375,/title/tt0445922/,Across the Universe,"ABC No Rio, 156 Rivington Street, New York City, New York, USA",(Cafe Huh? Exterior)                        ,"ABC No RIo, 156, Rivington Street, Lower East Side, Manhattan Community Board 3, Manhattan, New York County, New York, 10002, United States of America",40.7192813,-73.9853944
376,/title/tt0445922/,Across the Universe,"Katz's Delicatessen - 205 East Houston Street, East Village, Manhattan, New York City, New York, USA",(location)                        ,,,
377,/title/tt0445922/,Across the Universe,"Princeton University, Princeton, New Jersey, USA",(location)                        ,"Art Museum, Elm Drive, Princeton, Mercer County, New Jersey, 08544, United States of America",40.346995,-74.65763484228626
378,/title/tt0445922/,Across the Universe,"New York City, New York, USA",(location)                        ,"New York, United States of America",40.7127281,-74.0060152
379,/title/tt0445922/,Across the Universe,"Yonkers, New York, USA",(location)                        ,"Yonkers, Westchester County, New York, United States of America",40.9312099,-73.8987469
380,/title/tt0445922/,Across the Universe,"Steiner Studios - 15 Washington Avenue, Brooklyn Navy Yard, Brooklyn, New York City, New York, USA",(studio)                        ,,,
381,/title/tt0302640/,The Hot Chick,"Montebello, California, USA",,"Montebello, Los Angeles County, California, 90640, United States of America",34.0159398,-118.111975
382,/title/tt0302640/,The Hot Chick,"The Huntington Library, Art Collections, and Botanical Gardens - 1151 Oxford Rd, San Marino, California, USA",,,,
383,/title/tt0302640/,The Hot Chick,"Santa Clarita, California, USA",,"Santa Clarita, Los Angeles County, California, United States of America",34.3916641,-118.542586
384,/title/tt0302640/,The Hot Chick,"332 Lorraine Blvd, Los Angeles, California, USA",(Jessica's house)                        ,"332, Lorraine Boulevard, Windsor Square, Los Angeles, Los Angeles County, California, 90020, United States of America",34.068315,-118.31987804081632
385,/title/tt0302640/,The Hot Chick,"Los Angeles, California, USA",,"Los Angeles, Los Angeles County, California, United States of America",34.0536909,-118.2427666
386,/title/tt2119543/,The House with a Clock in Its Walls,"Greenville Street, Newnan, Georgia, USA",,"Greenville Street Park, Newnan, Coweta, Georgia, United States of America",33.3714476,-84.80028395714145
387,/title/tt2119543/,The House with a Clock in Its Walls,"Champ's Clock Shop - 3834 King Drive Douglasville, Georgia, USA",(Special Clock Sound Recording)                        ,,,
388,/title/tt2119543/,The House with a Clock in Its Walls,"Atlanta, Georgia, USA",,"Atlanta, Georgia, United States of America",33.7490987,-84.3901849
389,/title/tt2120120/,Pixels,"Toronto, Ontario, Canada",,"Toronto, Peel, Golden Horseshoe, Ontario, Canada",43.6534817,-79.3839347
390,/title/tt2120120/,Pixels,"Revival 629, 629 Eastern Avenue, Toronto, Ontario, Canada",,,,
391,/title/tt2120120/,Pixels,"900 Bay Street, Toronto, Ontario, Canada","(Ludlow, Eddie, and Lady Lisa run up the front steps during the final battle)                        ","Mowat Block, 900, Bay Street, Toronto Centre, Old Toronto, Toronto, Peel, Golden Horseshoe, Ontario, M5S 1Z6, Canada",43.6631944,-79.38733603719238
392,/title/tt2120120/,Pixels,"Princess Margaret School, Toronto, Ontario, Canada",(President's classroom visit) (choir kids seen on TV during ball)                        ,"Princess Margaret, Etobicoke, Toronto, Peel, Golden Horseshoe, Ontario, M9B 6H6, Canada",43.6728194,-79.5550377
393,/title/tt2120120/,Pixels,"George Brown College Waterfront Campus, Toronto, Ontario, Canada",(Where Eddie drives into the water in Pac Man sequence)                        ,"George Brown College - Waterfront Campus, 51, Dockside Drive, Spadina—Fort York, Old Toronto, Toronto, Peel, Golden Horseshoe, Ontario, M5A 3Y5, Canada",43.644143,-79.36564054138904
394,/title/tt2120120/,Pixels,"Rouge Park, Scarborough, Toronto, Ontario, Canada",(Centipede battle)                        ,"Rouge Park, Scarborough, Toronto, Peel, Golden Horseshoe, Ontario, M1B 5X3, Canada",43.8045003,-79.1580323
395,/title/tt2120120/,Pixels,"Victoria Park, Cobourg, Ontario, Canada",(Young Brenner and Young Cooper cycle through park)                        ,"Victoria Park, Coverdale, Cobourg, Northumberland County, Central Ontario, Ontario, Canada",43.95883945,-78.16185032522773
396,/title/tt2120120/,Pixels,"Scotland Yard, 56 The Esplanade, Toronto, Ontario, Canada",(bar where they celebrate after defeating Centipede)                        ,"Scotland Yard, The Esplanade, Spadina—Fort York, Old Toronto, Toronto, Peel, Golden Horseshoe, Ontario, M5E 1A7, Canada",43.6470473,-79.3740872
397,/title/tt2120120/,Pixels,"33 Delisle Avenue, Toronto, Ontario, Canada",(Apartment building where Brenner catches up to Centipede)                        ,"33, Delisle Avenue, Toronto—St. Paul's, Old Toronto, Toronto, Peel, Golden Horseshoe, Ontario, M4T 2S9, Canada",43.68838635,-79.39652148173937
398,/title/tt2120120/,Pixels,"Laplante Street, Toronto, Ontario, Canada","(Final part of Pac Man sequence, where Pac Man gets the final power pellet)                        ",,,
399,/title/tt2120120/,Pixels,"Four Seasons Centre for the Performing Arts, Toronto, Ontario, Canada","(Brenner, Cooper, and Violet run past on the way to the mothership. It is also in the background when they are reacting to Max Headroom.)                        ","Four Seasons Centre for the Performing Arts, 145, Queen Street West, Spadina—Fort York, Old Toronto, Toronto, Peel, Golden Horseshoe, Ontario, M5H, Canada",43.65059655,-79.38553674786671
400,/title/tt2120120/,Pixels,"Canada Life Building, Toronto, Ontario, Canada",(Explodes near beginning of DC battle)                        ,"Canada Life, 330, University Avenue, Spadina—Fort York, Old Toronto, Toronto, Peel, Golden Horseshoe, Ontario, M5H, Canada",43.65167769999999,-79.3876147149821
401,/title/tt2120120/,Pixels,"Huron Street, Toronto, Ontario, Canada",(The school bus where Ludlow battles ninjas is on Huron just north of Russell)                        ,"Huron Street, University—Rosedale, Old Toronto, Toronto, Peel, Golden Horseshoe, Ontario, M5T 1H1, Canada",43.6542672,-79.3965199
402,/title/tt2120120/,Pixels,"Ontario Legislature Building, Queen's Park, Toronto, Ontario, Canada","(Seen in background of two different Frogger scenes in DC battle, with camera looking north on University Ave)                        ",,,
403,/title/tt2120120/,Pixels,"University of Toronto, Toronto, Ontario, Canada",(several scenes from battle in DC)                        ,"University of Toronto, King's College Circle, University—Rosedale, Old Toronto, Toronto, Peel, Golden Horseshoe, Ontario, M5S 1A1, Canada",43.663461999999996,-79.39775965337452
404,/title/tt2120120/,Pixels,"Yorkville, Toronto, Ontario, Canada","(scenes where Pac Man chases Ludlow, on Bay St, from Yorkville to Cumberland)                        ","Yorkville, Old Toronto, Toronto, Peel, Golden Horseshoe, Ontario, M5R 1C1, Canada",43.6713861,-79.3901677
405,/title/tt2120120/,Pixels,"Novotel, 45 The Esplanade, Toronto, Ontario, Canada",(Brenner gets in to his truck after meeting Cooper at the Potomac Grill)                        ,"Novotel, 45, The Esplanade, Spadina—Fort York, Old Toronto, Toronto, Peel, Golden Horseshoe, Ontario, M5E 1A7, Canada",43.646654,-79.37411907725917
406,/title/tt2120120/,Pixels,"Petuxent Instatution, Jessup, Maryland, USA","(exteriors, prison where Eddie Plant is before the demand scans the parked cars are employee/visitor cars for the prison and the parked cop cars next to the gate are real MD state trooper cars.)                        ",,,
407,/title/tt1854564/,Percy Jackson: Sea of Monsters,"Six Flags New Orleans - Six Flags Pkwy, New Orleans, Louisiana, USA",(Circeland)                        ,,,
408,/title/tt1854564/,Percy Jackson: Sea of Monsters,"Robert Burnaby Park, East Burnaby, British Columbia, Canada","(village, forest and colosseum scenes)                        ","Robert Burnaby Park, Burnaby, Metro Vancouver Regional District, British Columbia, Canada",49.2324656,-122.93275672411377
409,/title/tt1854564/,Percy Jackson: Sea of Monsters,"Belcarra Regional Park, Burrard Inlet, Vancouver, British Columbia, Canada",,,,
410,/title/tt1854564/,Percy Jackson: Sea of Monsters,Canada,,Canada,61.0666922,-107.9917071
411,/title/tt1854564/,Percy Jackson: Sea of Monsters,"Vancouver, British Columbia, Canada",,"Vancouver, Metro Vancouver Regional District, British Columbia, Canada",49.2608724,-123.1139529
412,/title/tt1854564/,Percy Jackson: Sea of Monsters,"British Columbia, Canada",,"British Columbia, Canada",55.001251,-125.002441
413,/title/tt1854564/,Percy Jackson: Sea of Monsters,"6741 224th Street, Langley, British Columbia, Canada",,,,
414,/title/tt0256380/,Shallow Hal,"Charlotte, North Carolina, USA",,"Charlotte, Mecklenburg County, North Carolina, United States of America",35.2272,-80.843083
415,/title/tt0256380/,Shallow Hal,"Concord, North Carolina, USA",(Hal's Apartment)                        ,"Concord, Cabarrus County, North Carolina, United States of America",35.4093772,-80.5797416
416,/title/tt0256380/,Shallow Hal,"The Capital Grill- Charlotte, North Carolina, USA",,,,
417,/title/tt0256380/,Shallow Hal,"Los Angeles, California, USA",,"Los Angeles, Los Angeles County, California, United States of America",34.0536909,-118.2427666
418,/title/tt0207201/,What Women Want,"Dresden Room Restaurant - 1760 N. Vermont Avenue, Los Feliz, Los Angeles, California, USA",(Back Door Piano Lounge)                        ,,,
419,/title/tt0207201/,What Women Want,"Drake Hotel - 140 E. Walton Pl., Near North Side, Chicago, Illinois, USA",,"Drake Hotel, 140, East Walton Place, Near North Side, Chicago, Cook County, Illinois, 60611, United States of America",41.900403999999995,-87.62340144999999
420,/title/tt0207201/,What Women Want,"Culver Studios - 9336 W. Washington Blvd., Culver City, California, USA",(studio)                        ,,,
421,/title/tt0207201/,What Women Want,"Chicago, Illinois, USA",,"Chicago, Cook County, Illinois, United States of America",41.8755616,-87.6244212
422,/title/tt0207201/,What Women Want,"Long Beach, California, USA",,"Long Beach, Los Angeles County, California, United States of America",33.7690164,-118.1916048
423,/title/tt0207201/,What Women Want,"University of Southern California, Los Angeles, California, USA",,"University of Southern California, Flower Street, University Park, Los Angeles, Los Angeles County, California, 90089-0871, United States of America",34.0218833,-118.28586726915088
424,/title/tt0093493/,Mannequin,"Wanamaker's Department Store - 1313 Chestnut Street, Philadelphia, Pennsylvania, USA",(Prince and Company department store)                        ,,,
425,/title/tt0093493/,Mannequin,"Philadelphia, Pennsylvania, USA",,"Philadelphia, Philadelphia County, Pennsylvania, United States of America",39.9527237,-75.1635262
426,/title/tt0093493/,Mannequin,"Cumberland County, Pennsylvania, USA",,"Cumberland, Pennsylvania, 17081, United States of America",40.1541581,-77.2803933
427,/title/tt5607714/,Teströl és lélekröl,"Bükk National Park, Hungary",(exterior scenes)                        ,"Bükki Nemzeti Park, Borostyán vendégház, Répáshuta, Miskolci járás, Borsod-Abaúj-Zemplén megye, Észak-Magyarország, Alföld és Észak, 3559, Magyarország",48.0359447,20.531530934689712
428,/title/tt5607714/,Teströl és lélekröl,Hungary,,Magyarország,47.1817585,19.5060937
429,/title/tt0963966/,The Sorcerer's Apprentice,"5th Ave & W 11th St, New York City, New York, USA",,,,
430,/title/tt0963966/,The Sorcerer's Apprentice,"Times Square, New York City, New York, USA",(filmed some second unit car scenes)                        ,"Times Square, West 45th Street, Times Square, Manhattan Community Board 5, Times Square, New York County, New York, 10036, United States of America",40.757280550000004,-73.98585503545917
431,/title/tt0963966/,The Sorcerer's Apprentice,"Bryant Park, Manhattan, New York City, New York, USA",,"Bryant Park, 6th Avenue, Theater District, Manhattan Community Board 5, Manhattan, New York County, New York, 10018, United States of America",40.75375085,-73.98353680295259
432,/title/tt0963966/,The Sorcerer's Apprentice,"Steiner Studios - 15 Washington Avenue, Brooklyn Navy Yard, Brooklyn, New York City, New York, USA",,,,
433,/title/tt0963966/,The Sorcerer's Apprentice,USA,,United States,39.7837304,-100.4458825
434,/title/tt0963966/,The Sorcerer's Apprentice,"New York, USA",,"New York, United States of America",40.7127281,-74.0060152
435,/title/tt0088161/,Splash,"Nassau, New Providence Island, Bahamas",,"Nassau, Sidney Poitier Bridge, New Providence, 242, Bahamas",25.0769738,-77.3237203
436,/title/tt0088161/,Splash,"Los Angeles, California, USA",,"Los Angeles, Los Angeles County, California, United States of America",34.0536909,-118.2427666
437,/title/tt0088161/,Splash,"New York City, New York, USA",,"New York, United States of America",40.7127281,-74.0060152
438,/title/tt4820370/,Channel Zero,"Selkirk, Manitoba, Canada",(Season 1)                        ,"Selkirk, Winnipeg (city), Manitoba, Canada",50.146986,-96.880188
439,/title/tt4820370/,Channel Zero,"Winnipeg, Manitoba, Canada",(Season 3)                        ,"Winnipeg, Winnipeg (city), Manitoba, Canada",49.8955367,-97.1384584
440,/title/tt1623205/,Oz the Great and Powerful,"Michigan Motion Picture Studios, 1999 Centerpoint Parkway, Pontiac, Michigan USA",,,,
441,/title/tt0312098/,Birds of Prey,"Los Angeles, California, USA",,"Los Angeles, Los Angeles County, California, United States of America",34.0536909,-118.2427666
442,/title/tt0312098/,Birds of Prey,"Columbia/Warner Bros. Ranch - 411 North Hollywood Way, Burbank, California, USA",(sound stages)                        ,,,
443,/title/tt1072748/,Winchester,"Winchester Mystery House - 525 S. Winchester Boulevard, San Jose, California, USA",,"Winchester Mystery House, 525, South Winchester Boulevard, Buena Vista, San Jose, Santa Clara County, California, 95128, United States of America",37.3183011,-121.95106318225339
444,/title/tt1072748/,Winchester,"Melbourne, Victoria, Australia",,"Melbourne, City of Melbourne, Victoria, 3000, Australia",-37.8142176,144.9631608
445,/title/tt1072748/,Winchester,"Docklands Studios Melbourne - 476 Docklands Drive, Waterfront City, Docklands, Melbourne, Victoria, Australia",,,,
446,/title/tt1072748/,Winchester,"Labassa, 2 Manor Grove, Caulfield North, Melbourne, Victoria, Australia",,,,
447,/title/tt0401855/,Underworld: Evolution,"Budapest, Hungary",,"Budapest, Közép-Magyarország, 1011, Magyarország",47.4983815,19.0404707
448,/title/tt0401855/,Underworld: Evolution,"Vancouver, British Columbia, Canada",,"Vancouver, Metro Vancouver Regional District, British Columbia, Canada",49.2608724,-123.1139529
449,/title/tt0401855/,Underworld: Evolution,"Vancouver Film Studios, Vancouver, British Columbia, Canada",,"Vancouver Film Studios, Renfrew-Collingwood, Vancouver, Metro Vancouver Regional District, British Columbia, Canada",49.2612189,-123.02658531247799
450,/title/tt0491603/,H2O: Just Add Water,"1 Marina Crescent, Hollywell, Queensland, Australia",(Juicenet Cafe/Rikki's)                        ,"Marina Crescent, Hollywell, Gold Coast City, Queensland, 4216, Australia",-27.9020447,153.4038124
451,/title/tt0491603/,H2O: Just Add Water,"Somerset College - 34 Clover Hill Dr, Mudgeeraba, Queensland, Australia",(high school)                        ,,,
452,/title/tt0491603/,H2O: Just Add Water,"Village Roadshow Studios, Oxenford, Queensland, Australia",,"Village Roadshow Studios, Entertainment Road, Oxenford, Gold Coast City, Queensland, 4210, Australia",-27.910527700000003,153.3118145855983
453,/title/tt0119528/,Liar Liar,"Los Angeles City Hall - 200 North Spring Street, Downtown, Los Angeles, California, USA",,"Los Angeles City Hall, 200, North Spring Street, Civic Center, Downtown, Los Angeles, Los Angeles County, California, 90012, United States of America",34.0537767,-118.2428987
454,/title/tt0119528/,Liar Liar,"Los Angeles, California, USA",,"Los Angeles, Los Angeles County, California, United States of America",34.0536909,-118.2427666
455,/title/tt0119528/,Liar Liar,"Universal Studios - 100 Universal City Plaza, Universal City, California, USA",(studio)                        ,,,
456,/title/tt0119528/,Liar Liar,"Alhambra, California, USA",,"Alhambra, Los Angeles County, California, United States of America",34.093042,-118.12706
457,/title/tt0119528/,Liar Liar,"Pasadena, California, USA",,"Pasadena, Los Angeles County, California, United States of America",34.1476452,-118.1444779
458,/title/tt3487382/,Forever,"Hanover Square, Manhattan, New York City, New York, USA",(street scenes)                        ,"Hanover Square, Manhattan, New York County, New York, United States of America",40.70482895000001,-74.009222314373
459,/title/tt0185431/,Little Nicky,"New York City, New York, USA",,"New York, United States of America",40.7127281,-74.0060152
460,/title/tt0185431/,Little Nicky,"Los Angeles, California, USA",,"Los Angeles, Los Angeles County, California, United States of America",34.0536909,-118.2427666
461,/title/tt0138510/,Idle Hands,"Los Angeles, California, USA",,"Los Angeles, Los Angeles County, California, United States of America",34.0536909,-118.2427666
462,/title/tt0138510/,Idle Hands,"Sony Pictures Studios - 10202 W. Washington Blvd., Culver City, California, USA",(studio)                        ,,,
463,/title/tt0138510/,Idle Hands,"589 East Jackson Street, Pasadena, California, USA",(Molly's house)                        ,"589, East Jackson Street, Orange Heights, Pasadena, Los Angeles County, California, 91104, United States of America",34.163881245614036,-118.13836068421053
464,/title/tt0138510/,Idle Hands,"1025 North Madison Avenue, Pasadena, California, USA",(Pnub's house)                        ,"1025, North Madison Avenue, Orange Heights, Pasadena, Los Angeles County, California, 91104, United States of America",34.16349126530612,-118.13864673469388
465,/title/tt0138510/,Idle Hands,"Santa Clarita, California, USA",,"Santa Clarita, Los Angeles County, California, United States of America",34.3916641,-118.542586
466,/title/tt2452244/,Isn't It Romantic,"101 Park Avenue, Manhattan, New York City, New York, USA","(""Express Yourself"" musical number)                        ","101 Park Avenue, 101, Park Avenue, Murray Hill, Manhattan Community Board 5, Manhattan, New York County, New York, 10016, United States of America",40.7508354,-73.97760948434279
467,/title/tt1921064/,Pompeii,"Pompeii, Naples, Campania, Italy",(some exteriors)                        ,,,
468,/title/tt0373074/,Kung fu,"Shanghai, China",,"上海市, 黄浦区, China 中国",31.2322758,121.4692071
469,/title/tt2388771/,Mowgli,"Durban, South Africa",,"Durban, eThekwini Metropolitan Municipality, KwaZulu-Natal, 4057, South Africa",-29.861825,31.009909
470,/title/tt0107254/,Jason Goes to Hell: The Final Friday,"24035 Eagle Mountain Street West Hills, California, USA",(Jason Voorhees 's House)                        ,,,
471,/title/tt0107254/,Jason Goes to Hell: The Final Friday,USA,,United States,39.7837304,-100.4458825
472,/title/tt0107254/,Jason Goes to Hell: The Final Friday,"Thousand Oaks, California, USA",(Diner)                        ,"Thousand Oaks, Ventura County, California, United States of America",34.17142715,-118.91058772974445
473,/title/tt1270761/,Don't Be Afraid of the Dark,"Mount Macedon, Victoria, Australia",,"Mount Macedon, Shire of Macedon Ranges, Victoria, 3440, Australia",-37.3875384,144.5757825
474,/title/tt1270761/,Don't Be Afraid of the Dark,"Central City Studios, Melbourne, Victoria, Australia",(studio)                        ,,,
475,/title/tt3513498/,De Lego Film 2,"Fox Studios, Moore Park, Sydney, New South Wales, Australia",,"Fox Studios Australia, Moore Park, Sydney, Council of the City of Sydney, New South Wales, 2021, Australia",-33.890960899999996,151.22750517838074
476,/title/tt3513498/,De Lego Film 2,"Boston, Massachusetts, USA",,"Boston, Suffolk County, Massachusetts, United States of America",42.3602534,-71.0582912
477,/title/tt0780622/,Teeth,"Austin, Texas, USA",,"Austin, Travis County, Texas, United States of America",30.2711286,-97.7436995
478,/title/tt0780622/,Teeth,USA,,United States,39.7837304,-100.4458825
479,/title/tt1686821/,Vampire Academy,"Pinewood Studios, Iver Heath, Buckinghamshire, England, UK",,"Pinewood Studios, Pinewood Green, Iver, Iver Heath, Buckinghamshire, South East, England, SL0 0QJ, United Kingdom",51.54831515,-0.5346765566753087
480,/title/tt1686821/,Vampire Academy,"University College London, Gower Street, Bloomsbury, London, England, UK",(Witness)                        ,"University College London, University Street, Somers Town, London Borough of Camden, London, Greater London, England, WC1E 6DE, United Kingdom",51.52412645,-0.13293023735954784
481,/title/tt1686821/,Vampire Academy,"Brent Cross Shopping Centre, Hendon, London, England, UK",(shopping scene)                        ,"Brent Cross Shopping Centre, Hendon Way, Brent Cross, London Borough of Barnet, London, Greater London, England, NW4 3RB, United Kingdom",51.5764561,-0.22343784482304344
482,/title/tt1686821/,Vampire Academy,"The Charterhouse, Charterhouse Square, London, England, UK",(The Charterhouse)                        ,"The Charterhouse, Charterhouse Square, Farringdon, Clerkenwell, London Borough of Islington, London, Greater London, England, EC1M 6AX, United Kingdom",51.5214637,-0.0997845
483,/title/tt1686821/,Vampire Academy,USA,,United States,39.7837304,-100.4458825
484,/title/tt1098327/,Dragonball Evolution,"Sierra de Organos, Sombrerete, Zacatecas, Mexico",(location)                        ,"La sierra de órganos, Parque Nacional Sierra De Organos, San Francisco De Los Lauredes, San Francisco de Órganos, Sombrerete, Zacatecas, México",23.7427186,-103.7863931
485,/title/tt1098327/,Dragonball Evolution,"Churubusco Studios, Mexico City, Distrito Federal, Mexico",,,,
486,/title/tt1098327/,Dragonball Evolution,"Instituto de Cultura del Estado de Durango, Durango, Mexico",,,,
487,/title/tt1098327/,Dragonball Evolution,"Las Dunas De Bilbao, Torreón, Coahuila, Mexico",(desert)                        ,,,
488,/title/tt1098327/,Dragonball Evolution,"Mexiquillo, Durango, Mexico",,"Mexiquillo, Tenochtitlan, Las Polleras, Durango, Municipio de Durango, Durango, 34234, México",24.0753052,-104.587052
489,/title/tt1098327/,Dragonball Evolution,"Palenque, Chiapas, Mexico",,"Palenque, Chiapas, 29960, México",17.45316095,-91.81212307179698
490,/title/tt1098327/,Dragonball Evolution,"Racho Marley, Durango, Mexico",,,,
491,/title/tt1098327/,Dragonball Evolution,"Santa Fe, Mexico City, Distrito Federal, Mexico",(Paozu City)                        ,"La santa Fé, Calle Secretaría del Tabajo, Venustiano Carranza, Ciudad de México, 15730, México",19.416173,-99.0838984
492,/title/tt1098327/,Dragonball Evolution,"Victoria de Durango, Durango, Mexico",,"Durango, Municipio de Durango, Durango, México",24.022008,-104.6547415
493,/title/tt0120524/,Wishmaster,"Wilmington, Los Angeles, California, USA",,"Wilmington, Los Angeles, Los Angeles County, California, 90744-4522, United States of America",33.7800164,-118.2625095
494,/title/tt1302011/,Kung Fu Panda 2,"Glendale, California, USA",,"Glendale, Los Angeles County, California, United States of America",34.1469416,-118.2478471
495,/title/tt1302011/,Kung Fu Panda 2,"Chicago Illinois, USA",(interiors)                        ,"Chicago, Cook County, Illinois, United States of America",41.8755616,-87.6244212
496,/title/tt0092239/,The Worst Witch,"St. Michael's College, Tenbury Wells, Worcestershire, England, UK",,"St. Michaels- College, Oldwood Road, Tenbury, Malvern Hills, Worcestershire, England, WR15 8TB, United Kingdom",52.2882373,-2.6127534
497,/title/tt5994364/,Sseulsseulhago Chalranhashin: Dokkaebi,"Québec, Québec, Canada",,"Québec, Québec (Agglomération), Capitale-Nationale, Québec, Canada",46.8259601,-71.2352226
498,/title/tt5994364/,Sseulsseulhago Chalranhashin: Dokkaebi,"Château Frontenac, Québec City, Québec, Canada",,"Château Frontenac, 1, Rue des Carrières, Vieux-Québec–Cap-Blanc–Colline-Parlementaire, Cap-Blanc, La Cité-Limoilou, Québec, Québec (Agglomération), Capitale-Nationale, Québec, G1R 4P5, Canada",46.8119589,-71.2051747
499,/title/tt2647586/,Resurrection,"Norcross, Georgia, USA",,"Norcross, Gwinnett County, Georgia, 30071, United States of America",33.9412127,-84.2135309
500,/title/tt2647586/,Resurrection,"Atlanta, Georgia, USA",,"Atlanta, Georgia, United States of America",33.7490987,-84.3901849
501,/title/tt2647586/,Resurrection,"EUE/Screen Gems Studios Atlanta, 175 Lakewood Way, Atlanta, Georgia, USA",,,,
502,Code,Show Name,Location,Scene,"Location, Tucker County, West Virginia, United States of America",39.2138905,-79.6371124
503,/title/tt1942683/,The Amazing World of Gumball,"Abraham Lincoln High School - 2162 24th Avenue, San Francisco, California, USA",(backgrounds)                        ,"Abraham Lincoln High School, 2162, 24th Avenue, Saint Francis Wood, San Francisco, San Francisco City and County, California, 94116, United States of America",37.74635735,-122.48023859774644
504,/title/tt1942683/,The Amazing World of Gumball,"1026 York Street, Vallejo, California, USA",(Watterson's family house)                        ,"1026, York Street, South Vallejo, Vallejo, Solano County, California, 94590, United States of America",38.10006475510204,-122.24617663265306
505,/title/tt0115243/,Lexx,"Berlin, Germany",,"Berlin, 10117, Deutschland",52.5170365,13.3888599
506,/title/tt0115243/,Lexx,"Bangkok, Thailand",,"กรุงเทพมหานคร, เขตพระนคร, กรุงเทพมหานคร, 10200, ประเทศไทย",13.7542529,100.493087
507,/title/tt0081534/,Somewhere in Time,"Grand Hotel, 1 Grand Ave, Mackinac Island, Michigan, USA",(Hotel Richard Collier checks into)                        ,"Grand Hotel, 286, Cadotte Avenue, Four Corners, Fort Holmes, Mackinac Island, Mackinac County, Michigan, 49757, United States of America",45.8510193,-84.6261612893266
508,/title/tt0081534/,Somewhere in Time,"Chicago, Illinois, USA",,"Chicago, Cook County, Illinois, United States of America",41.8755616,-87.6244212
509,/title/tt2094262/,Da Vinci's Demons,"Margam Castle, Margam, Neath Port Talbot, Wales, UK",(Medici Palace)                        ,"Margam Castle, Ffordd Castell Margam Castle Way, Margam, Coed Hirwaun, Neath Port Talbot, Cymru / Wales, SA13 2TG, United Kingdom",51.562776850000006,-3.7251419632381833
510,/title/tt2094262/,Da Vinci's Demons,"Swansea, Wales, UK",,"Swansea, Cymru / Wales, SA1 3BN, United Kingdom",51.6195955,-3.9459248
511,/title/tt2094262/,Da Vinci's Demons,"Neath, Neath Port Talbot, Wales, UK",,"Neath, Maes Yr Haf Road, Neath, Neath Port Talbot, Cymru / Wales, SA11 1DA, United Kingdom",51.6621839,-3.8070189
512,/title/tt0119099/,Fallen,"Philadelphia, Pennsylvania, USA",,"Philadelphia, Philadelphia County, Pennsylvania, United States of America",39.9527237,-75.1635262
513,/title/tt0119099/,Fallen,"Bear Mountain Bridge, New York, USA",,"Bear Mountain Bridge, Cortlandt, Westchester County, New York, 10972, United States of America",41.31991135,-73.98183540540523
514,/title/tt0119099/,Fallen,"Holmesburg Prison - 8215 Torresdale Avenue, Philadelphia, Pennsylvania, USA",,,,
515,/title/tt0119099/,Fallen,"Culver Studios - 9336 W. Washington Blvd., Culver City, California, USA",(Los Angeles Unit)                        ,,,
516,/title/tt0091223/,House,"329 Melrose Ave, Monrovia, California, USA",,"329, Melrose Avenue, Monrovia, Los Angeles County, California, 91016, United States of America",34.15798850168476,-118.00685611830528
517,/title/tt0091223/,House,"Los Angeles, California, USA",,"Los Angeles, Los Angeles County, California, United States of America",34.0536909,-118.2427666
518,/title/tt0085811/,Krull,"Lanzarote, Canary Islands, Spain",,"Lanzarote, Teguise, Las Palmas, Canarias, España",29.03970805,-13.636291608604138
519,/title/tt0085811/,Krull,"Black Park Country Park, Wexham, Buckinghamshire, England, UK",,,,
520,/title/tt0085811/,Krull,"Campo Imperatore, L'Aquila, Abruzzo, Italy",,"Campo Imperatore, L'Aquila, Abruzzo, Italia",42.4430453,13.5587238
521,/title/tt0844471/,Cloudy with a Chance of Meatballs,"New York City, New York, USA",,"New York, United States of America",40.7127281,-74.0060152
522,/title/tt0424095/,Flushed Away,"England, UK",,"England, United Kingdom",52.7954791,-0.5402402866174321
523,/title/tt0424095/,Flushed Away,"New York City, New York, USA",,"New York, United States of America",40.7127281,-74.0060152
524,/title/tt0092319/,Beauty and the Beast,"Walt Disney's Golden Oak Ranch - 19802 Placerita Canyon Road, Newhall, California, USA",,,,
525,/title/tt1429449/,Lost Girl,"Hamilton, Ontario, Canada",,"Hamilton, Golden Horseshoe, Ontario, L8P 0B3, Canada",43.2560802,-79.8728583
526,/title/tt3874544/,The Boss Baby,"Glendale, California, USA",(DreamWorks Animation)                        ,"Glendale, Los Angeles County, California, United States of America",34.1469416,-118.2478471
527,/title/tt0307453/,Shark Tale,"Los Angeles, California, USA",,"Los Angeles, Los Angeles County, California, United States of America",34.0536909,-118.2427666
528,/title/tt3579018/,Emerald City,"Park Guell, Gracia, Barcelona, Catalonia, Spain",(Emerald City)                        ,"Park Güell, Carrer de Larrard, la Salut, Gràcia, Barcelona, Barcelonès, Catalunya, 08001, España",41.41409935,2.152438630991657
529,/title/tt3579018/,Emerald City,"Réal Alcazar, Seville, Spain",(Filming 10-11 December 2015)                        ,"real alcazar, Patio de Banderas, Santa Cruz, Casco Antiguo, Sevilla, Andalucía, 41004, España",37.3840154,-5.9911316
530,/title/tt3579018/,Emerald City,Spain,,España,39.3262345,-4.8380649
531,/title/tt3579018/,Emerald City,"Plitvice Lakes National Park, Croatia",,"Nacionalni park Plitvička jezera, Ličko-senjska županija, 53231, Hrvatska",44.85230125,15.590348985343969
532,/title/tt3579018/,Emerald City,"Almería, Andalucía, Spain",,"Almería, Andalucía, España",36.8414197,-2.4628135
533,/title/tt11228748/,The King: Youngwonui Gunjoo,"Gwanghwamun Square, Seoul, South Korea",(Lee Gon and Tae Eul's first meeting)                        ,"광화문광장, 종로구, 사직동, 대한민국",37.572834,126.97700931637783
534,/title/tt11228748/,The King: Youngwonui Gunjoo,"Misari Regatta, Hanam City, Gyeonggi Province, South Korea",(The rowing competition scene)                        ,,,
535,/title/tt11228748/,The King: Youngwonui Gunjoo,"Ahopsan Bamboo forest, Busan, South Korea",(the bamboo forest)                        ,,,
536,/title/tt11228748/,The King: Youngwonui Gunjoo,"Woljeonggyo Bridge, Gyeongju, South Korea",(Kingdom of Corea palace scenes)                        ,"월정교, 월성동, 경상북도, 38164, 대한민국",35.8295669,129.218142
537,/title/tt11228748/,The King: Youngwonui Gunjoo,"Sono Felice Vivaldi Park Equestrian Club, Damyeong Resort, Gangwon-do, South Korea",(horse riding and stable scenes)                        ,,,
538,/title/tt11228748/,The King: Youngwonui Gunjoo,"Dadaepo Beach, Busan, South Korea",(hprse riding scenes)                        ,"다대포해수욕장, 지하 692, 다대로, 사하구, 부산, 49506, 대한민국",35.0480653,128.9662119
539,/title/tt0834001/,Underworld: Rise of the Lycans,"Auckland, New Zealand",,"Auckland, 1010, New Zealand",-36.852095,174.7631803
540,/title/tt0834001/,Underworld: Rise of the Lycans,"Penrose, Auckland, New Zealand",(studio)                        ,"Penrose, Auckland, 1061, New Zealand",-36.9111443,174.8147813
541,/title/tt0980970/,The Chronicles of Narnia: The Voyage of the Dawn Treader,"Whakaari/White Island, New Zealand",,"Whakaari / White Island, Bay of Plenty, New Zealand",-37.5200619,177.18140864051364
542,/title/tt0980970/,The Chronicles of Narnia: The Voyage of the Dawn Treader,"Yatala, Queensland, Australia",,"Yatala, Gold Coast City, Queensland, Australia",-27.7352654,153.2252177
543,/title/tt0980970/,The Chronicles of Narnia: The Voyage of the Dawn Treader,"Mount Tamborine, Queensland, Australia",,"Mount Tamborine, Scenic Rim Regional, Queensland, 4272, Australia",-27.9684035,153.1967792
544,/title/tt0980970/,The Chronicles of Narnia: The Voyage of the Dawn Treader,"Village Roadshow Studios, Oxenford, Queensland, Australia",,"Village Roadshow Studios, Entertainment Road, Oxenford, Gold Coast City, Queensland, 4210, Australia",-27.910527700000003,153.3118145855983
545,/title/tt0416236/,De Spiderwick kronieken,"Montréal, Québec, Canada",,"Montréal, Agglomération de Montréal, Montréal (06), Québec, Canada",45.4972159,-73.6103642
546,/title/tt0074074/,Wonder Woman,"City Hall - 1 Manchester Blvd., Inglewood, California, USA",(shots of IADC building)                        ,,,
547,/title/tt0074074/,Wonder Woman,"Warner Brothers Burbank Studios - 4000 Warner Boulevard, Burbank, California, USA",(studio)                        ,,,
548,/title/tt0081353/,Popeye,"Anchor Bay, Malta",,"Il-Prajjet, 115, Iċ-Ċirkewwa, Il-Mellieħa, Tramuntana, MLH1106, Malta",35.959621600000006,14.339027931134574
549,/title/tt0081353/,Popeye,"Malta Film Facilities, Kalkara, Malta",(studio)                        ,,,
550,/title/tt0081353/,Popeye,Malta,,Malta,35.8885993,14.4476911
551,/title/tt0373051/,Journey to the Center of the Earth,Iceland,,Ísland,64.9841821,-18.1059013
552,/title/tt0373051/,Journey to the Center of the Earth,"Montréal, Québec, Canada",,"Montréal, Agglomération de Montréal, Montréal (06), Québec, Canada",45.4972159,-73.6103642
553,/title/tt0373051/,Journey to the Center of the Earth,"Winnipeg, Manitoba, Canada",(special edition only)                        ,"Winnipeg, Winnipeg (city), Manitoba, Canada",49.8955367,-97.1384584
554,/title/tt4954522/,Grave,"Université de Liège, Sart-Tilman, Liège, Wallonia, Belgium",(veterinary college)                        ,,,
555,/title/tt4954522/,Grave,Belgium,,België / Belgique / Belgien,50.6402809,4.6667145
556,/title/tt0413267/,Shrek the Third,"Los Angeles, California, USA",,"Los Angeles, Los Angeles County, California, United States of America",34.0536909,-118.2427666
557,/title/tt5523010/,The Nutcracker and the Four Realms,"South Kensington, London, England, UK",(Exterior shot)                        ,"South Kensington, Pelham Street, Hans Town, Brompton, Royal Borough of Kensington and Chelsea, London, Greater London, England, SW7 2NN, United Kingdom",51.4940494,-0.1730439
558,/title/tt5523010/,The Nutcracker and the Four Realms,"Minley Manor, Hampshire, England, UK",,"Minley Manor, Minley Road, Blackwater and Hawley, Hart, Hampshire, South East, England, GU17 9LP, United Kingdom",51.315499,-0.8212711786067328
559,/title/tt5523010/,The Nutcracker and the Four Realms,"Roger Moore Stage, Pinewood Studios, Iver Heath, Buckinghamshire, England, UK",,,,
560,/title/tt5523010/,The Nutcracker and the Four Realms,"A Stage, Shepperton Studios, Shepperton, Surrey, England, UK",,,,
561,/title/tt5523010/,The Nutcracker and the Four Realms,"J Stage, Shepperton Studios, Shepperton, Surrey, England, UK",,,,
562,/title/tt3691740/,The BFG,"Skye, Highland, Scotland, UK",,"Skye, Highland, Scotland, United Kingdom",57.363045,-6.301979224806201
563,/title/tt3691740/,The BFG,"Blenheim Palace, Woodstock, Oxfordshire, England, UK",,"Blenheim Palace, Grand Bridge, Blenheim, West Oxfordshire, Oxfordshire, South East, England, OX20 1PX, United Kingdom",51.841967249999996,-1.3625986224673587
564,/title/tt3691740/,The BFG,"New York City, New York, USA",(studio)                        ,"New York, United States of America",40.7127281,-74.0060152
565,/title/tt0111686/,Wes Craven's New Nightmare,"Gothic Avenue / San Fernando Mission Boulevard, USA",(Heather drives to Wes' house)                        ,,,
566,/title/tt0111686/,Wes Craven's New Nightmare,"Los Angeles, California, USA",,"Los Angeles, Los Angeles County, California, United States of America",34.0536909,-118.2427666
567,/title/tt0443649/,"10,000 BC","Queenstown, Otago, New Zealand",,"Queenstown, Queenstown-Lakes District, Otago, 9348, New Zealand",-45.0321923,168.661
568,/title/tt0443649/,"10,000 BC","Waiorau Snow Farm, Cadrona Valley, Wanaka, Otago, New Zealand",,,,
569,/title/tt0443649/,"10,000 BC","Wanaka, Otago, New Zealand",,"Wanaka, Queenstown-Lakes District, Otago, 9305, New Zealand",-44.6941691,169.1364637
570,/title/tt0443649/,"10,000 BC","Spitzkoppe Mountains, Erongo, Namibia",,,,
571,/title/tt0443649/,"10,000 BC","Namib Desert, Namibia",,"Namib Desert Lodge, Hardap Region, Namibia",-24.1165286,15.9045939
572,/title/tt0413895/,Charlotte's Web,"Attwood, Melbourne, Victoria, Australia",,,,
