,Code,Show Name,Location,Scene,geocodedLocation,latitude,longitude
0,/title/tt0091225/,,"Petaluma, California, USA","(Petaluma River is used for almost all waterway scenes, with takeoff from Western Avenue)","Petaluma, Sonoma County, California, United States of America",38.270022,-122.60612241304348
1,/title/tt0091225/,,"California Academy of Sciences, Concourse Drive, Golden Gate Park, San Francisco, California, USA","(Howard is pulled up the CAS steps, then through the African Hall)",,,
2,/title/tt0091225/,,"Fireman's Fund Building - 777 San Marin Drive, Novato, California, USA",(Ultralight lands in the fountain; building poses as Dynatechnics),,,
3,/title/tt0091225/,,"Nicasio, California, USA",,"Nicasio, Marin County, California, 94946, United States of America",38.0615885,-122.6985975
4,/title/tt0091225/,,"Rio Vista, California, USA",(Ultralight takes off downtown and flies towards the Sacramento River),"Rio Vista, Solano County, California, 94571, United States of America",38.1557502,-121.6913439
5,/title/tt0091225/,,"Rancho Seco Nuclear Generating Station, Herald, California, USA",(Appears as the Cuyahoga nuclear plant),,,
6,/title/tt0091225/,,"11th Street, San Francisco, California, USA","(Howard gets off the bus on 11th at Natoma, and sees the TV display in a corner store)","11th Street, Civic Center, San Francisco, San Francisco City and County, California, 94102, United States of America",37.774615,-122.4174891
7,/title/tt0091225/,,"Richmond, California, USA",(Joe Roma's Cajun/Sushi Café; interior),"Richmond, Contra Costa County, California, United States of America",37.9357576,-122.3477486
8,/title/tt2531344/,,"Blackhall Studios, Atlanta, Georgia, USA",,,,
9,/title/tt4034354/,,"Los Angeles, California, USA",,"Los Angeles, Los Angeles County, California, United States of America",34.0536909,-118.2427666
10,/title/tt0094889/,,"Toronto, Ontario, Canada",,"Toronto, Golden Horseshoe, Ontario, Canada",43.6534817,-79.3839347
11,/title/tt0094889/,,"Jackson Avenue and 50th Avenue, Queens, New York City, New York, USA",(Pats Place),"Jackson Avenue, Queens, Queens County, New York, 11101, United States of America",40.7452732,-73.9470423
12,/title/tt0094889/,,"Sandals Royal Plantation, Ocho Rios, St. Ann, Jamaica",,"Sandals Royal Plantation, Main Street, Buckfield, New Hope, Ocho Rios, Saint Ann, Middlesex County, JM19, Jamaika",18.411290649999998,-77.08332941150303
13,/title/tt0094889/,,"Don Jail, Toronto, Ontario, Canada",(as The Cell Block bar),"The Don Jail, Jack Layton Way, Toronto—Danforth, Old Toronto, Toronto, Golden Horseshoe, Ontario, M4M 2B5, Canada",43.6660711,-79.3530364
14,/title/tt0094889/,,"Medical Sciences Building, University of Toronto, Toronto, Ontario, Canada",(class Brian attends),,,
15,/title/tt0094889/,,"The Water Club, New York City, New York, USA",(Doug and Kerry Coughlin's nightclub/Doug's suicide at the pier),"The Water Club, 500, FDR Drive, Kips Bay, Manhattan Community Board 6, Manhattan, New York County, New York, 10016, United States of America",40.74035795,-73.97235357766965
16,/title/tt0094889/,,"St John's Norway Cemetary, Toronto, Ontario, Canada",(funeral scene),,,
17,/title/tt0094889/,,"Jamaican Inn, Ocho Rios, St. Ann, Jamaica",,,,
18,/title/tt0094889/,,"Los Angeles, California, USA",,"Los Angeles, Los Angeles County, California, United States of America",34.0536909,-118.2427666
19,/title/tt0094889/,,"New York, USA",,"New York, United States of America",40.7127281,-74.0060152
20,/title/tt0094889/,,"199 Chambers St, New York City, New York, USA",(Basketball court),"199, Chambers Street, Tribeca, Manhattan Community Board 1, Manhattan, New York County, New York, 10013, United States of America",40.7172487,-74.0121804
21,/title/tt2103188/,,"Hollywood, Los Angeles, California, USA",(Vinewood),"Hollywood, Los Angeles, Los Angeles County, California, 90028-8127, United States of America",34.0980031,-118.329523
22,/title/tt2103188/,,"Fargo, North Dakota, USA",(Ludendorff),"Fargo, Cass County, North Dakota, United States of America",46.877229,-96.789821
23,/title/tt0083564/,,"West Long Branch, New Jersey, USA",,"West Long Branch, New Jersey, 07764, United States of America",40.2903891,-74.0176381
24,/title/tt0083564/,,"Berkshires, Massachusetts, USA",,"Berkshires at Windsor Gardens, Winslows, Norwood, Norfolk County, Massachusetts, United States of America",42.17308365,-71.22174497147411
25,/title/tt0083564/,,"Hennesy Street, Warner Brothers Burbank Studios - 4000 Warner Boulevard, Burbank, California, USA",(Orphanage exteriors),,,
26,/title/tt0083564/,,"Stage 15, Warner Brothers Burbank Studios - 4000 Warner Boulevard, Burbank, California, USA",,,,
27,/title/tt0083564/,,"Stage 18, Warner Brothers Burbank Studios - 4000 Warner Boulevard, Burbank, California, USA",,,,
28,/title/tt0083564/,,"New York City, New York, USA",,"New York, United States of America",40.7127281,-74.0060152
29,/title/tt0083564/,,"Stage 12, Warner Brothers Burbank Studios - 4000 Warner Boulevard, Burbank, California, USA",,,,
30,/title/tt0386588/,,"City Hall Park, Manhattan, New York City, New York, USA",,"City Hall Park, Manhattan, New York County, New York, 10000, United States of America",40.712857549999995,-74.00587000024501
31,/title/tt0386588/,,"Hook & Ladder Company #8 - 14 North Moore Street, Manhattan, New York City, New York, USA",,,,
32,/title/tt0386588/,,"New York, USA",,"New York, United States of America",40.7127281,-74.0060152
33,/title/tt0386588/,,"New York City, New York, USA",,"New York, United States of America",40.7127281,-74.0060152
34,/title/tt0386588/,,"U.S. Customs House, New York City, New York, USA",(behind Sara and she and Hitch talk on the phone),,,
35,/title/tt0386588/,,"Columbia University - Broadway & 116th Street, Manhattan, New York City, New York, USA",,,,
36,/title/tt0386588/,,"Old Westbury Gardens - 71 Old Westbury Road, Old Westbury, Long Island, New York, USA",,,,
37,/title/tt0103484/,,"Old Town Bar and Restaurant, 45 E. 18th Street in Flatiron District, Manhattan, New York City, New York, USA",(exterior scenes of Riff's Restaurant),,,
38,/title/tt0099329/,,"Milford Mill Park & Swim Club - 3900 Milford Mill Rd, Windsor Mill, Maryland, USA",(Turkey Point),,,
39,/title/tt0099329/,,"Sykesville, Maryland, USA",,"Sykesville, Carroll County, Maryland, United States of America",39.365992,-76.9688737
40,/title/tt0099329/,,"Walt Disney's Golden Oak Ranch - 19802 Placerita Canyon Road, Newhall, California, USA",,,,
41,/title/tt0099329/,,"Maryland, USA",,"Maryland, United States of America",39.5162234,-76.9382069
42,/title/tt0099329/,,"Turkey Point Swim Club, Baltimore, Maryland, USA",,,,
43,/title/tt0099329/,,"Windsor Mill, Maryland, USA",,"Windsor Mill, Hollifield, Milford Mill, Baltimore County, Maryland, 21244, United States of America",39.3328839,-76.7594179
44,/title/tt0099329/,,USA,,United States,39.7837304,-100.4458825
45,/title/tt0389860/,,"Brooklyn Bridge, New York City, New York, USA",,"Brooklyn Bridge, Dover Street, Financial District, Manhattan Community Board 1, Manhattan, New York County, New York, 10038, United States of America",40.70569125,-73.9963578678543
46,/title/tt0389860/,,"Glendale, California, USA",,"Glendale, Los Angeles County, California, United States of America",34.1469416,-118.2478471
47,/title/tt0389860/,,"Shaver Lake, California, USA",,"Shaver Lake, Fresno County, California, 93664, United States of America",37.09684,-119.32025832557329
48,/title/tt0389860/,,"Long Beach, California, USA",,"Long Beach, Los Angeles County, California, United States of America",33.7690164,-118.1916048
49,/title/tt0389860/,,"Royce Hall - 340 Royce Drive, UCLA, Westwood, Los Angeles, California, USA",,,,
50,/title/tt0119190/,,"Maui, Hawaii, USA",,"Maui, Maui County, Hawaii, United States of America",20.802956799999997,-156.31068331602177
51,/title/tt0119190/,,"San Francisco-Oakland Bay Bridge, San Francisco Bay, California, USA",,"San Francisco – Oakland Bay Bridge, Yerba Buena Island, San Francisco, San Francisco City and County, California, 94017, United States of America",37.7885108,-122.3882669
52,/title/tt0119190/,,"Neiman Marcus Union Square Store - 150 Stockton Street, San Francisco, California, USA",,"Neiman Marcus, 150, Stockton Street, Union Square, San Francisco, San Francisco City and County, California, 94104, United States of America",37.78736295,-122.40591860801061
53,/title/tt0119190/,,"Middle Fork American River, California, USA",(Lyle Van de Groot pursuing Ursula from a raft),"Middle Fork American River, Placer County, California, 95604, United States of America",39.0360248,-120.6527849
54,/title/tt0119190/,,"First Bank - 550 Montgomery Street, San Francisco, California, USA",(as Stanhope Bank),,,
55,/title/tt0119190/,,"The Tamalpais Building, San Francisco, California, USA",,,,
56,/title/tt0170016/,,"Stage 31, Universal Studios - 100 Universal City Plaza, Universal City, California, USA",,,,
57,/title/tt0170016/,,"Stage 27, Universal Studios - 100 Universal City Plaza, Universal City, California, USA",,,,
58,/title/tt0170016/,,"Stage 29, Universal Studios - 100 Universal City Plaza, Universal City, California, USA",,,,
59,/title/tt1193138/,,"St. Louis, Missouri, USA",,"Saint Louis, City of Saint Louis, Missouri, 63102-1102, United States of America",38.6264178,-90.1998378
60,/title/tt1193138/,,"Lambert International Airport - 10701 Lambert International Boulevard, St. Louis, Missouri, USA",,,,
61,/title/tt1193138/,,"Eppley Airfield - 4501 Abbott Drive, Omaha, Nebraska, USA",(interior: airport terminals/entrance),,,
62,/title/tt1193138/,,"Detroit, Michigan, USA",,"Detroit, Wayne County, Michigan, United States of America",42.3315509,-83.0466403
63,/title/tt1193138/,,"Las Vegas, Nevada, USA",,"Las Vegas, Clark County, Nevada, United States of America",36.1672559,-115.1485163
64,/title/tt1193138/,,"Miami, Florida, USA",,"Miami, Miami-Dade County, Florida, United States of America",25.7742658,-80.1936589
65,/title/tt1193138/,,"Nebraska, USA",,"Nebraska, United States of America",41.7370229,-99.5873816
66,/title/tt0460740/,,"England, UK",,"England, United Kingdom",52.7954791,-0.5402402866174321
67,/title/tt0460740/,,"London, England, UK",,"London, Greater London, England, United Kingdom",51.5073219,-0.1276474
68,/title/tt0472181/,,"Kaufman Astoria Studios - 3412 36th Street, Astoria, Queens, New York City, New York, USA",,,,
69,/title/tt0472181/,,"Astoria, Queens, New York City, New York, USA",,"Astoria, Queens County, New York, 11102, United States of America",40.7720145,-73.9302673
70,/title/tt0472181/,,"Manhattan, New York City, New York, USA",,"Manhattan, New York County, New York, United States of America",40.7896239,-73.9598939
71,/title/tt0472181/,,USA,,United States,39.7837304,-100.4458825
72,/title/tt6807662/,,"Kumeu Film Studios - 116 Access Road, Kumeu, Auckland, New Zealand",(studio),,,
73,/title/tt0075686/,,"Beekman Cinema - 1254 2nd Avenue, Manhattan, New York City, New York, USA",(Cinema showing Ingmar Bergman's Face to Face - Alvy waits for Annie and is recognised from television),,,
74,/title/tt0075686/,,"Filmways Studios - 246 East 127th Street, East Harlem, Manhattan, New York City, New York, USA",(studio),,,
75,/title/tt0075686/,,"Thalia Cinema - 250 West 95th Street, Upper West Side, Manhattan, New York City, New York, USA",(Alvy runs into Annie with date seeing The Sorrow and the Pity),,,
76,/title/tt0075686/,,"3rd Avenue, Bronx, New York City, New York, USA",(Steve's Famous Clam Bar),"3rd Avenue, The Bronx, Bronx County, New York, 10454-4606, United States of America",40.8093217,-73.929498
77,/title/tt0075686/,,"Central Park, Manhattan, New York City, New York, USA",(Park scene - Alvy and Annie mock passers-by),"Central Park, Manhattan, New York County, New York, United States of America",40.7827725,-73.9653627406542
78,/title/tt0075686/,,"New York Theater, New York City, New York, USA",(Theatre scene with Marshall McLuhan),,,
79,/title/tt0075686/,,"South Shore, Long Island, New York, USA","(Lobster scene, beach and beach house)",,,
80,/title/tt0075686/,,"Wall Street Tennis Club, Wall Street, Manhattan, New York City, New York, USA",(Sport Club),,,
81,/title/tt0075686/,,"Cajun Bistro - 8301 Sunset Blvd., West Hollywood, California, USA",(break-up lunch),,,
82,/title/tt0075686/,,"East 66th Street, Manhattan, New York City, New York, USA","(Alvy and Rob walking along 66th at 3rd avenue, Rob calls Alvy ""Max"")","East 66th Street, Lenox Hill, Manhattan Community Board 8, Manhattan, New York County, New York, 10021, United States of America",40.7666073,-73.9649892
83,/title/tt0075686/,,"5th Avenue, Manhattan, New York City, New York, USA",,"5th Avenue, East Harlem, Manhattan Community Board 11, Manhattan, New York County, New York, 10030, United States of America",40.8147478,-73.9361291
84,/title/tt0075686/,,"Brooklyn, New York City, New York, USA",,"Brooklyn, Kings County, New York, United States of America",40.6501038,-73.9495823
85,/title/tt0075686/,,"Palos Verdes Peninsula, California, USA",,"Palos Verdes Peninsula High School, Silver Spur Road, Rancho Palos Verdes, Los Angeles County, California, 90274, United States of America",33.77984925,-118.37219683021539
86,/title/tt0075686/,,"Surf Avenue, Coney Island, Brooklyn, New York City, New York, USA",,"Surf Avenue, Coney Island, Brooklyn, Kings County, New York, 11224, United States of America",40.5729134,-74.0002887
87,/title/tt0075686/,,"Upper West Side, Manhattan, New York City, New York, USA",,"Upper West Side, Manhattan Community Board 7, Manhattan, New York County, New York, United States of America",40.7870455,-73.9754163
88,/title/tt0075686/,,"California, USA",,"California, United States of America",36.7014631,-118.7559974
89,/title/tt0475394/,,"Stox Restaurant & Bakery - 9518 Imperial Hwy., Rockwell Defense Plant - Bellflower & Imperial Highway, Downey, California, USA",,,,
90,/title/tt0475394/,,"Stateline, South Lake Tahoe, USA",,"Stateline, South Lake Tahoe, Amador, California, 96151, United States of America",38.9582412,-119.9437919
91,/title/tt0475394/,,"Los Angeles, California, USA",,"Los Angeles, Los Angeles County, California, United States of America",34.0536909,-118.2427666
92,/title/tt0406375/,,"Los Angeles, California, USA",,"Los Angeles, Los Angeles County, California, United States of America",34.0536909,-118.2427666
93,/title/tt0406375/,,"Stage 30, Sony Pictures Studios - 10202 W. Washington Blvd., Culver City, California, USA",(Budwing house; interior),,,
94,/title/tt8050756/,,"Chicago Illinois, USA",(street scenes),"Chicago, Cook County, Illinois, United States of America",41.8755616,-87.6244212
95,/title/tt1714206/,,"Georgia, USA",,"Georgia, United States of America",32.3293809,-83.1137366
96,/title/tt0097428/,,"U.S. Customs House, New York City, New York, USA",(Manhattan Museum of Art),,,
97,/title/tt0097428/,,"Hook & Ladder Company #8 - 14 North Moore Street, Manhattan, New York City, New York, USA",(Ghostbusters headquarters exteriors),,,
98,/title/tt0097428/,,"Columbia University - Broadway & 116th Street, Manhattan, New York City, New York, USA",(Department of Parapsychology/Weaver Hall),,,
99,/title/tt0097428/,,"Washington Square Park, Greenwich Village, Manhattan, New York City, New York, USA",(Square Park),,,
100,/title/tt8404614/,,Uruguay,,Uruguay,-32.8755548,-56.0201525
101,/title/tt8404614/,,"Buenos Aires, Federal District, Argentina",,,,
102,/title/tt8404614/,,Italy,,Italia,42.6384261,12.674297
103,/title/tt0374536/,,"Sony Pictures Studios - 10202 W. Washington Blvd., Culver City, California, USA",(studio),,,
104,/title/tt0374536/,,"4427 Radford Ave, Los Angeles, California, USA",,"4427, Radford Avenue, Studio City, Valley Village, Los Angeles, Los Angeles County, California, 91607, United States of America",34.15090473469388,-118.39219406122449
105,/title/tt0374536/,,"Culver Studios - 9336 W. Washington Blvd., Culver City, California, USA",,,,
106,/title/tt0374536/,,"Studio City, Los Angeles, California, USA",,"Studio City, Los Angeles, Los Angeles County, California, 91604, United States of America",34.1483989,-118.3961877
107,/title/tt0374536/,,"Los Angeles, California, USA",,"Los Angeles, Los Angeles County, California, United States of America",34.0536909,-118.2427666
108,/title/tt0401445/,,"Cucuron, Vaucluse, France",(The pond square),"Cucuron, Apt, Vaucluse, Provence-Alpes-Côte d'Azur, France métropolitaine, 84160, France",43.7729328,5.4389442
109,/title/tt0401445/,,"Gordes, Vaucluse, France",,"Gordes, Apt, Vaucluse, Provence-Alpes-Côte d'Azur, France métropolitaine, 84220, France",43.9110641,5.2002043
110,/title/tt0401445/,,"Bonnieux, Vaucluse, France",,"Bonnieux, Apt, Vaucluse, Provence-Alpes-Côte d'Azur, France métropolitaine, 84480, France",43.8236191,5.3077869
111,/title/tt0401445/,,"Rail Station, Avignon, Vaucluse, France",,,,
112,/title/tt0401445/,,"Marseille Provence airport, Bouches-du-Rhône, France",,,,
113,/title/tt0401445/,,"Albion Riverside, Battersea, London, England, UK",(Max Skinner's London flat),"Albion Riverside, Battersea, London Borough of Wandsworth, London, Greater London, England, SW11 3BG, United Kingdom",51.4806379,-0.1697455
114,/title/tt0401445/,,"Bluebird Cafe, Kings Road, Chelsea, London, England, UK",,"Bluebird, King's Road, Lot's Village, Worlds End, Royal Borough of Kensington and Chelsea, London, Greater London, England, SW3 5UR, United Kingdom",51.4848456,-0.1753772
115,/title/tt0401445/,,"Piccadilly Circus, Piccadilly, London, England, UK",,"Piccadilly Circus, St. James's, Fitzrovia, City of Westminster, London, Greater London, England, SW1Y 4QE, United Kingdom",51.5098192,-0.1345484
116,/title/tt0401445/,,"London, England, UK",,"London, Greater London, England, United Kingdom",51.5073219,-0.1276474
117,/title/tt0401445/,,UK,,United Kingdom,54.7023545,-3.2765753
118,/title/tt0375063/,,"Buellton, California, USA",(location),"Buellton, Santa Barbara County, California, 93427, United States of America",34.6134727,-120.1936692
119,/title/tt0375063/,,"San Diego, California, USA",(location),"San Diego, San Diego County, California, United States of America",32.7174209,-117.1627714
120,/title/tt0375063/,,"Oxnard, California, USA",(location),"Oxnard, Ventura County, California, United States of America",34.1976308,-119.1803818
121,/title/tt0375063/,,"Montebello, California, USA",(End wedding sequence),"Montebello, Los Angeles County, California, 90640, United States of America",34.0159398,-118.111975
122,/title/tt0375063/,,"Hitching Post II, 406 East Highway 246, Buellton, California, USA",(Where Maya waits tables and where Miles recommends the ostrich steak),,,
123,/title/tt0375063/,,"Sanford Winery, 7250 Santa Rosa Road, Buellton, California, USA",(Miles teaches Jack the finer points of wine tasting),,,
124,/title/tt0375063/,,"Fess Parker Winery & Vineyard - 6200 Foxen Canyon Road, Los Olivos, California, USA",(Frass Canyon Winery where Miles attempts to drink the spit-bucket),,,
125,/title/tt0375063/,,"Los Angeles, California, USA",(location),"Los Angeles, Los Angeles County, California, United States of America",34.0536909,-118.2427666
126,/title/tt0375063/,,"Los Olivos, California, USA",(location),"Los Olivos, Santa Barbara County, California, 93441, United States of America",34.6677646,-120.114847
127,/title/tt0375063/,,"Foxen Winery, 7200 Foxen Canyon Road, Santa Maria, California, USA",(Miles and Jack cheekily fill up glasses),,,
128,/title/tt0375063/,,"AJ Spurs, 350 East Highway 246, Buellton, California, USA",(where married waitress Cammi works),,,
129,/title/tt0375063/,,"Firestone Winery, 5000 Zaca Station Road, Los Olivos, California, USA","(Miles, Jack, Stephanie and Maya sneak from a boring lecture)",,,
130,/title/tt0375063/,,"River Course at the Alisal, Alisal Guest Ranch, 150 Alisal Road, Solvang, California, USA",(Miles and Jack play golf),,,
131,/title/tt0070735/,,"LaSalle Street Station - 141 W. Van Buren Street, Downtown, Chicago, Illinois, USA",,,,
132,/title/tt0070735/,,"Castle Green Apartments - 99 S. Raymond, Pasadena, California, USA",,,,
133,/title/tt0070735/,,"Brownstone Street, Backlot, Universal Studios - 100 Universal City Plaza, Universal City, California, USA",,,,
134,/title/tt0070735/,,"Hugus Alley, Pasadena, California, USA",,"Hugus Alley, One Colorado, Pasadena, Los Angeles County, California, 91102, United States of America",34.1464835,-118.1521454
135,/title/tt0070735/,,"Biltmore Hotel - 506 S. Grand Avenue, Downtown, Los Angeles, California, USA",,,,
136,/title/tt0070735/,,"Stage 32, Universal Studios - 100 Universal City Plaza, Universal City, California, USA",,,,
137,/title/tt0070735/,,"Gold Ballroom, Biltmore Hotel - 506 S. Grand Avenue, Downtown, Los Angeles, California, USA",(upscale restaurant),,,
138,/title/tt0070735/,,"Winston St. & Werdin Pl., Downtown, Los Angeles, California, USA",,,,
139,/title/tt3289724/,,"British Columbia, Canada",,"British Columbia, Canada",55.001251,-125.002441
140,/title/tt3289724/,,Canada,,Canada,61.0666922,-107.9917071
141,/title/tt0089907/,,"Louisville, Kentucky, USA",(one exterior shot only),"Louisville, Jefferson County, Kentucky, United States of America",38.2542376,-85.759407
142,/title/tt0089907/,,"698 Moulton Avenue, Los Angeles, California, USA",(Uneeda Medical Supply),"698, Moulton Avenue, Lincoln Heights, Los Angeles, Los Angeles County, California, 90031, United States of America",34.0645988989899,-118.219486989899
143,/title/tt1528406/,,"New York City, New York, USA",,"New York, United States of America",40.7127281,-74.0060152
144,/title/tt6957966/,,"Toronto, Ontario, Canada",,"Toronto, Golden Horseshoe, Ontario, Canada",43.6534817,-79.3839347
145,/title/tt6957966/,,Canada,,Canada,61.0666922,-107.9917071
146,/title/tt0109831/,,"St. Bartholomew-the-Great, Clerkenwell, London, England, UK",(wedding 4),"St Bartholomew-The Great, Cloth Fair, Smithfield, City of London, Greater London, England, EC1A 7JQ, United Kingdom",51.518887649999996,-0.09956368486057732
147,/title/tt0109831/,,"National Film Theatre, South Bank Centre, South Bank, Lambeth, London, England, UK",(Where Carrie meets Charles brother),,,
148,/title/tt0109831/,,"Rotherfield Park, East Tisted, Alton, Hampshire, England, UK","(Reception, Wedding 3)",,,
149,/title/tt0109831/,,"Crown Hotel, High Street, Amersham, Buckinghamshire, England, UK","(The Boatman inn, Somerset - interior)","Crown Hotel, High Street, Old Amersham, Amersham, Buckinghamshire, South East, England, HP7 0DJ, United Kingdom",51.6663378,-0.6166186
150,/title/tt0109831/,,"Luton Hoo Estate, Luton, Bedfordshire, England, UK","(Reception, Wedding 2)",,,
151,/title/tt0109831/,,"St Michael's, Betchworth, Reigate, Surrey, England, UK",(Wedding 1),,,
152,/title/tt0109831/,,"Shepperton Studios, Shepperton, Surrey, England, UK",(studio),,,
153,/title/tt0108147/,,"Los Angeles, California, USA",,"Los Angeles, Los Angeles County, California, United States of America",34.0536909,-118.2427666
154,/title/tt0108147/,,"St. Peter & Paul Church - 666 Filbert Street, San Francisco, California, USA",,,,
155,/title/tt0108147/,,"Coit Tower, San Francisco, California, USA",,"Coit Tower, Telegraph Hill Boulevard, Telegraph Hill, San Francisco, San Francisco City and County, California, 94113, United States of America",37.80237905,-122.40583435461313
156,/title/tt0108147/,,"Maritime Museum Building - 201 Fort Mason, San Francisco, California, USA",,,,
157,/title/tt4463894/,,"Georgia, USA",,"Georgia, United States of America",32.3293809,-83.1137366
158,/title/tt4463894/,,USA,,United States,39.7837304,-100.4458825
159,/title/tt0212346/,,"San Antonio, Texas, USA",,"San Antonio, Bexar County, Texas, United States of America",29.4246002,-98.4951405
160,/title/tt0212346/,,"Omni Austin Hotel Southpark - 4140 Governors Row, Austin, Texas, USA",(pageant hotel),,,
161,/title/tt0212346/,,"New York City, New York, USA",,"New York, United States of America",40.7127281,-74.0060152
162,/title/tt0212346/,,"Austin Studios - 1901 E. 51st Street, Austin, Texas, USA",(studio),,,
163,/title/tt0212346/,,"Stage 4, Austin Studios - 1901 E. 51st Street, Austin, Texas, USA",(Sandra Bullock steps out in a skintight blue dress),,,
164,/title/tt0112346/,,"Washington, District of Columbia, USA",,"Washington, District of Columbia, 20230, United States of America",38.8949924,-77.0365581
165,/title/tt0112346/,,"Lake Tahoe, California, USA",(Snow at Camp David),"Lake Tahoe, California, 96140, United States of America",39.08854049999999,-120.05035277301698
166,/title/tt0112346/,,"Culver Studios - 9336 W. Washington Blvd., Culver City, California, USA",,,,
167,/title/tt0112346/,,"Sony Pictures Studios - 10202 W. Washington Blvd., Culver City, California, USA",,,,
168,/title/tt2277860/,,"Walt Disney Animation Studios - 2100 Riverside Drive, Burbank, California, USA",,,,
169,/title/tt0497465/,,"Oviedo, Asturias, Spain",,"Oviedo, Asturias / Asturies, España",43.3533424,-5.879514339526834
170,/title/tt0497465/,,"Barcelona Harbor, Barcelona, Catalonia, Spain",,,,
171,/title/tt0497465/,,"Avilés, Asturias, Spain",,"Avilés, Asturias / Asturies, España",43.5554436,-5.9222466
172,/title/tt0497465/,,"La Pedrera - 92 Passeig de Gràcia, Eixample, Barcelona, Catalonia, Spain",(When Vicky and Cristina explore Barcelona),"El Cafè de la Pedrera, 92, Passeig de Gràcia, la Dreta de l'Eixample, Eixample, Barcelona, Barcelonès, Catalunya, 08001, España",41.3952564,2.1615724
173,/title/tt0497465/,,"New York City, New York, USA",,"New York, United States of America",40.7127281,-74.0060152
174,/title/tt0118842/,,"Red Bank, New Jersey, USA",,"Red Bank, New Jersey, United States of America",40.3470543,-74.0643065
175,/title/tt0118842/,,"New Jersey, USA",,"New Jersey, United States of America",40.0757384,-74.4041622
176,/title/tt0118842/,,"Leonardo, New Jersey, USA",,"Leonardo, Henry Hudson Bike Trail, Leonardo, Middletown Township, Monmouth, New Jersey, 07737, United States of America",40.420418999999995,-74.06045445356699
177,/title/tt0118842/,,"Keansburg, New Jersey, USA",,"Keansburg, New Jersey, 07734, United States of America",40.4417743,-74.1298643
178,/title/tt0118842/,,USA,,United States,39.7837304,-100.4458825
179,/title/tt0815236/,,"Mellon Arena - 66 Mario Lemieux Place, Pittsburgh, Pennsylvania, USA",,,,
180,/title/tt0815236/,,"Pittsburgh, Pennsylvania, USA",,"Pittsburgh, Allegheny County, Pennsylvania, United States of America",40.4416941,-79.9900861
181,/title/tt0086425/,,"Brennan's Restaurant - 3300 Smith Street, Houston, Texas, USA",(lunch scene with Aurora and Garrett),"Brennan's, 3300, Smith Street, South Lawn, Houston, Harris County, Texas, 77006, United States of America",29.74308755,-95.3815172314203
182,/title/tt0086425/,,"Houston, Texas, USA",,"Houston, Harris County, Texas, United States of America",29.7589382,-95.3676974
183,/title/tt0086425/,,"Texas City, Texas, USA",,"Texas City, Galveston County, Texas, United States of America",29.396013,-94.9175485
184,/title/tt0086425/,,"Junction City, Kansas, USA",,"Junction City, Geary County, Kansas, United States of America",39.0286093,-96.8313978
185,/title/tt0086425/,,"River Oaks, Houston, Texas, USA",,"River Oaks, Lamar Terrace, Houston, Harris County, Texas, United States of America",29.7520887,-95.43787374349336
186,/title/tt0086425/,,"Lincoln, Nebraska, USA",,"Lincoln, Lancaster County, Nebraska, United States of America",40.8088861,-96.7077751
187,/title/tt0086425/,,"River Cafe, Brooklyn, New York, USA",(lunch with Patsy and her friends),"The River Café, 1, Water Street, DUMBO, Brooklyn, Kings County, New York, 11201, United States of America",40.7036769,-73.9948035
188,/title/tt4558376/,,"Fiss, Tirol, Austria",,"Gemeinde Fiss, Bezirk Landeck, Tirol, 6533, Österreich",47.0744963,10.58080828858249
189,/title/tt4558376/,,"Vienna, Austria",,"Wien, 1010, Österreich",48.2083537,16.3725042
190,/title/tt0816520/,,"Ogden, Utah, USA",,"Ogden, Weber County, Utah, United States of America",41.2230048,-111.9738429
191,/title/tt0461097/,,"Sullivan's Bay, New Zealand",,"Sullivans Bay, Ngārewa Drive, Rodney, Auckland, 0983, New Zealand",-36.5104986,174.7236057
192,/title/tt0461097/,,"Auckland, New Zealand",,"Auckland, 1010, New Zealand",-36.852095,174.7631803
193,/title/tt0461097/,,"Royal View Road, Te Atatu, Auckland, New Zealand",,"Royal View Road, Te Atatu South, Henderson-Massey, Auckland, 0610, New Zealand",-36.8570978,174.6461162
194,/title/tt0461097/,,"Te Atatu, Auckland, New Zealand",,"Te Atatu South, Henderson-Massey, Auckland, 0610, New Zealand",-36.8640014,174.6473552
195,/title/tt0461097/,,"Woodhill Forest, Woodhill, Auckland, New Zealand",,,,
196,/title/tt0095088/,,"Raleigh Studios - 5300 Melrose Avenue, Hollywood, Los Angeles, California, USA",,,,
197,/title/tt0095088/,,"Warner Brothers Burbank Studios - 4000 Warner Boulevard, Burbank, California, USA",(studio),,,
198,/title/tt0243155/,,"Globe Tavern, 8 Bedale Street, Borough, London, England, UK","(exterior, Bridget's flat)",,,
199,/title/tt0243155/,,"Momo Restaurant, 25-27 Heddon Street, London, England, UK",(Bridget gets advice from her friends),,,
200,/title/tt0243155/,,"Borough Market, Borough, London, England, UK",,"Borough Market, Winchester Walk, Borough, Southwark, London Borough of Southwark, London, Greater London, England, SE1 9AQ, United Kingdom",51.50558625,-0.090487028540277
201,/title/tt0243155/,,"Shere, Surrey, England, UK",(area outside Bridget's parents' house),"Shere, Surrey, South East, England, GU5 9HG, United Kingdom",51.2193911,-0.4644158
202,/title/tt0243155/,,"Tower Bridge, London, England, UK",,"Tower Bridge, Wapping, London Borough of Tower Hamlets, London, Greater London, England, SE1 2LY, United Kingdom",51.5054985,-0.0753581
203,/title/tt0243155/,,"Costwold Hills, England, UK",,,,
204,/title/tt0243155/,,"La Cantina, London, England, UK",,"La Cantina, High Street, Pound Place, Longlands, London Borough of Bexley, London, Greater London, England, DA14 6ED, United Kingdom",51.42639025,0.10318906576447973
205,/title/tt0243155/,,"Institute Of Contemporary Arts, Nash House, The Mall, St James's, London, England, UK",(Book launch),,,
206,/title/tt0243155/,,"Shad Thames, Southwark, London, England, UK",(Bridget and Daniel kiss),"Shad Thames, Butler's Wharf, Bermondsey, London Borough of Southwark, London, Greater London, England, SE1 2NJ, United Kingdom",51.5034781,-0.0737138
207,/title/tt0243155/,,"King's Cross, London, England, UK",,"London King's Cross, Euston Road, London Borough of Camden, London, Greater London, England, N1C 4AP, United Kingdom",51.5323954,-0.1230224
208,/title/tt0243155/,,"Piccadilly Circus, Piccadilly, London, England, UK",,"Piccadilly Circus, St. James's, Fitzrovia, City of Westminster, London, Greater London, England, SW1Y 4QE, United Kingdom",51.5098192,-0.1345484
209,/title/tt0243155/,,"St. Pancras Station, St. Pancras, London, England, UK",,"Boots, Pancras Road, London Borough of Camden, London, Greater London, England, N1C 4QL, United Kingdom",51.5327386,-0.1264236
210,/title/tt0243155/,,"Stoke Park House, Park Road, Stoke Poges, Buckinghamshire, England, UK",(Where Hugh Grant and Renee Zellweger spend a night),"Stoke Park, Park Road, Stoke Poges, Farnham Royal, Buckinghamshire, South East, England, SL2 3BB, United Kingdom",51.5352209,-0.6045578
211,/title/tt0243155/,,"Shepperton Studios, Shepperton, Surrey, England, UK",(studio),,,
212,/title/tt0243155/,,"Westminster, London, England, UK",,"Westminster, Millbank, City of Westminster, London, Greater London, England, SW1P 3JX, United Kingdom",51.5004439,-0.1265398
213,/title/tt0408839/,,"San Francisco, California, USA",,"San Francisco, San Francisco City and County, California, United States of America",37.7790262,-122.4199061
214,/title/tt0408839/,,"Santa Clarita, California, USA",,"Santa Clarita, Los Angeles County, California, United States of America",34.3916641,-118.542586
215,/title/tt0408839/,,"Santa Paula, California, USA",,"Santa Paula, Ventura County, California, United States of America",34.3541659,-119.0592705
216,/title/tt2042568/,,"Cafe Reggio, MacDougal Street, Manhattan, New York City, New York, USA",(Llewyn meeting Jean),,,
217,/title/tt2042568/,,"Caffe Vivaldi - 32 Jones Street, Greenwich Village, Manhattan, New York City, New York, USA",(Where Llewyn and Jean were talking when Llewyn saw the cat through the window on the sidewalk),,,
218,/title/tt2042568/,,"41st Drive Woodside Queens, New York City, New York, USA",(Llewyn's sister's house),"41st Drive, Queens, Queens County, New York, 11377, United States of America",40.744126,-73.906936
219,/title/tt2042568/,,"Washington Square Park, Greenwich Village, Manhattan, New York City, New York, USA",(Llewyn and Jean arguing),,,
220,/title/tt2042568/,,"New York City, New York, USA",,"New York, United States of America",40.7127281,-74.0060152
221,/title/tt2042568/,,"Riverhead, Long Island, New York, USA",(Road scenes),,,
222,/title/tt0107362/,,"RKO Twin Theatre, Times Square, Manhattan, New York City, New York, USA","(premiere of movie ""Jack Slater IV"")",,,
223,/title/tt0107362/,,"1st Street Viaduct, Los Angeles, California, USA",(car drives here after going off bridge),"1st St Viaduct, East 1st Street, Arts District, Downtown, Los Angeles, Los Angeles County, California, 90013, United States of America",34.0481941,-118.2323909
224,/title/tt0107362/,,"Times Square, Manhattan, New York City, New York, USA",,"Times Square, West 45th Street, Times Square, Manhattan Community Board 5, Times Square, New York County, New York, 10036, United States of America",40.757280550000004,-73.98585503545917
225,/title/tt0107362/,,"Angelina Street, Los Angeles, California, USA",(second cousin Frank's house),"Angelina Street, Echo Park, Los Angeles, Los Angeles County, California, 90026, United States of America",34.0648012,-118.2558393
226,/title/tt0107362/,,"Terrace Theatre - 300 E. Ocean Boulevard, Long Beach, California, USA",(Jack Slater IV Premiere InteriorTheater/ Lobby),,,
227,/title/tt0107362/,,"1103 Angelina Street, Los Angeles, California, USA",(second cousin Frank's house),"1103, Angelina Street, Echo Park, Los Angeles, Los Angeles County, California, 90012, United States of America",34.063086081632655,-118.25167063265306
228,/title/tt0107362/,,"Long Beach, California, USA",,"Long Beach, Los Angeles County, California, United States of America",33.7690164,-118.1916048
229,/title/tt0107362/,,"New York, USA",,"New York, United States of America",40.7127281,-74.0060152
230,/title/tt0107362/,,"Downtown, Los Angeles, California, USA",,"Downtown, Los Angeles, Los Angeles County, California, United States of America",34.0428494,-118.2476732
231,/title/tt0107362/,,"Malibu, California, USA",(Vivaldi's house),"Malibu, Los Angeles County, California, 90265-4797, United States of America",34.035591,-118.689423
232,/title/tt0107362/,,"Sony Pictures Studios - 10202 W. Washington Blvd., Culver City, California, USA",,,,
233,/title/tt0230030/,,"Richmond Theatre, The Green, Richmond, Surrey, England, UK",(Lincoln assasination scene),,,
234,/title/tt0230030/,,"St. Vincent Catholic Church - 621 W. Adams Blvd., Los Angeles, California, USA",,,,
235,/title/tt0230030/,,"Long Beach, California, USA",,"Long Beach, Los Angeles County, California, United States of America",33.7690164,-118.1916048
236,/title/tt0230030/,,"Stage 15, 20th Century Fox Studios - 10201 Pico Blvd., Century City, Los Angeles, California, USA",(studio),,,
237,/title/tt0230030/,,"The Forum - 3900 W. Manchester Boulevard, Inglewood, California, USA",,"The Forum, 3900, West Manchester Boulevard, Inglewood, Los Angeles County, California, 90305, United States of America",33.95822585,-118.34198075
238,/title/tt0230030/,,"Malibu, California, USA",,"Malibu, Los Angeles County, California, 90265-4797, United States of America",34.035591,-118.689423
239,/title/tt0395495/,,"Vancouver, British Columbia, Canada",,"Vancouver, Metro Vancouver Regional District, British Columbia, Canada",49.2608724,-123.1139529
240,/title/tt1666801/,,"Conyers, Georgia, USA",(studio),"Conyers, Rockdale County, Georgia, 30013-2028, United States of America",33.6676103,-84.0176904
241,/title/tt0117765/,,"Miami Seaquarium - 4400 Rickenbacker Causeway, Key Biscayne, Florida, USA",,"Miami Seaquarium, Rickenbacker Causeway, Brickell Hammock, Miami-Dade County, Florida, 33109, United States of America",25.7327778,-80.1672222
242,/title/tt0117765/,,"Clewiston, Florida, USA",,"Clewiston, Hendry County, Florida, United States of America",26.7542312,-80.9336753
243,/title/tt0117765/,,"Las Vegas, Nevada, USA",,"Las Vegas, Clark County, Nevada, United States of America",36.1672559,-115.1485163
244,/title/tt0117765/,,"Fort Lauderdale, Florida, USA",,"Fort Lauderdale, Broward County, Florida, United States of America",26.1223084,-80.1433786
245,/title/tt0117765/,,"Nevada, USA",,"Nevada, United States of America",39.5158825,-116.8537227
246,/title/tt0077089/,,"Paramount Studios - 5555 Melrose Avenue, Hollywood, Los Angeles, California, USA",,,,
247,/title/tt0318649/,,"Delta del Ebro, Tarragona, Catalonia, Spain",,"Delta Hotel, Carretera d'Amposta a Deltebre i Riumar, Deltebre, Baix Ebre, Catalunya, 43580, España",40.7210516,0.7477059
248,/title/tt0318649/,,"Hawley Lake, Hampshire, England, UK",,"Hawley Lake, Pinewood Park, The Crescent, Rushmoor, Hampshire, South East, England, GU14 9JT, United Kingdom",51.3117174,-0.7946205838764638
249,/title/tt0318649/,,Spain,,España,39.3262345,-4.8380649
250,/title/tt0318649/,,UK,,United Kingdom,54.7023545,-3.2765753
251,/title/tt1878870/,,"Guildford Park Secondary School, Surrey, British Columbia, Canada",,"Guildford Park Secondary School, 10707, 146 Street, Johnson Heights, Guildford, Surrey, Metro Vancouver Regional District, British Columbia, V3R 1V7, Canada",49.1970861,-122.81935187468275
252,/title/tt1878870/,,"Port Moody, British Columbia, Canada",,"Port Moody, Metro Vancouver Regional District, British Columbia, Canada",49.2822243,-122.8293424
253,/title/tt0196229/,,"Los Angeles, California, USA",,"Los Angeles, Los Angeles County, California, United States of America",34.0536909,-118.2427666
254,/title/tt0196229/,,"Yonkers, New York, USA",,"Yonkers, Westchester County, New York, United States of America",40.9312099,-73.8987469
255,/title/tt0196229/,,"New York City, New York, USA",,"New York, United States of America",40.7127281,-74.0060152
256,/title/tt0356470/,,"1272 E Calaveras St. Altadena, California, USA",(Sam's house),"1272, East Calaveras Street, Altadena, Los Angeles County, California, 91001, United States of America",34.18395470175439,-118.12430643859649
257,/title/tt0356470/,,"Monrovia, California, USA",(Monrovia High School),"Monrovia, Los Angeles County, California, United States of America",34.1483499,-118.0014517
258,/title/tt0356470/,,"The Huntington Library, Art Collections, and Botanical Gardens - 1151 Oxford Rd, San Marino, California, USA",(Halloween dance exteriors),,,
259,/title/tt0356470/,,"City Hall - 100 N. Garfield Avenue, Pasadena, California, USA",(Hal & Fiona's wedding),,,
260,/title/tt0356470/,,"Stage 22, Warner Brothers Burbank Studios - 4000 Warner Boulevard, Burbank, California, USA",,,,
261,/title/tt0331632/,,"Stanley Park, Vancouver, British Columbia, Canada",,"Stanley Park, Vancouver, Metro Vancouver Regional District, British Columbia, V6G, Canada",49.3019112,-123.14154052837662
262,/title/tt0331632/,,"Burnaby, British Columbia, Canada",,"Burnaby, Metro Vancouver Regional District, British Columbia, Canada",49.2433804,-122.9725459
263,/title/tt0331632/,,"Lion's Gate Studios, North Vancouver, British Columbia, Canada",,,,
264,/title/tt0331632/,,"Vancouver Club, Vancouver, British Columbia, Canada",,"The Vancouver Club, 915, West Hastings Street, Downtown, Vancouver, Metro Vancouver Regional District, British Columbia, V6C 1C6, Canada",49.286990849999995,-123.11562446229902
265,/title/tt0331632/,,Canada,,Canada,61.0666922,-107.9917071
266,/title/tt0066026/,,"Griffith Park - 4730 Crystal Springs Drive, Los Angeles, California, USA",(Football game),,,
267,/title/tt0066026/,,"Stage 18, 20th Century Fox Studios - 10201 Pico Blvd., Century City, Los Angeles, California, USA",(studio),,,
268,/title/tt0146882/,,"Green Mill - 4802 N. Broadway Avenue, Uptown, Chicago, Illinois, USA",,,,
269,/title/tt0146882/,,"Buck Town, Lincoln Square, Chicago, Illinois, USA",,,,
270,/title/tt0146882/,,"Lincoln Park, Lincoln Park, Chicago, Illinois, USA",,"Lincoln Park, Chicago, Cook County, Illinois, 60614, United States of America",41.9216992,-87.647832
271,/title/tt0146882/,,"Chicago, Illinois, USA",,"Chicago, Cook County, Illinois, United States of America",41.8755616,-87.6244212
272,/title/tt0146882/,,"Austin, Chicago, Illinois, USA",,"Austin, Chicago, Cook County, Illinois, United States of America",41.8878759,-87.7648508
273,/title/tt0146882/,,"Forest Glen, Chicago, Illinois, USA",,"Forest Glen, Chicago, Jefferson Township, Cook County, Illinois, 60646, United States of America",41.991751550000004,-87.75167396842738
274,/title/tt0146882/,,"3733 N Southport Ave, Chicago, Illinois, USA",(Movie theater),"Music Box Theatre, 3733, North Southport Avenue, Lake View, Lakeview, Chicago, Cook County, Illinois, 60613, United States of America",41.94967525,-87.66362154879796
275,/title/tt0146882/,,"Chicago Studio City - 5660 W. Taylor Street, Austin, Chicago, Illinois, USA",(studio),,,
276,/title/tt0146882/,,"Wicker Park, West Town, Chicago, Illinois, USA",,"Wicker Park, West Town, Chicago, Cook County, Illinois, United States of America",41.9080509,-87.67673838560032
277,/title/tt7043012/,,"California, USA",,"California, United States of America",36.7014631,-118.7559974
278,/title/tt0089393/,,"Hole in the Rock, Papago Park - 625 North Galvin Parkway, Phoenix, Arizona, USA",(caves),,,
279,/title/tt0089393/,,"Big Surf - 1500 N. McClintock Drive, Tempe, Arizona, USA",,"Big Surf, 1500, North McClintock Drive, Tempe, Maricopa County, Arizona, 85251, United States of America",33.44550905,-111.91163828017923
280,/title/tt0089393/,,"Scottsdale High School, Scottsdale, Arizona, USA",,"Scottsdale, North Airport Drive, Desert Wind II, Scottsdale, Maricopa County, Arizona, 86260, United States of America",33.621417750000006,-111.91606381195308
281,/title/tt0089393/,,"Phoenix, Arizona, USA",,"Phoenix, Maricopa County, Arizona, United States of America",33.4484367,-112.0741417
282,/title/tt0089393/,,"Arizona, USA",,"Arizona, United States of America",34.395342,-111.7632755
283,/title/tt0097958/,,"Blondie Street, Columbia/Warner Bros. Ranch - 411 North Hollywood Way, Burbank, California, USA",(studio) (exterior: Griswold home),,,
284,/title/tt0097958/,,"John Hancock Center - 875 N. Michigan Avenue, Near North Side, Chicago, Illinois, USA",(Frank Shirley's office),,,
285,/title/tt0097958/,,"Mattison Boyd Jones House - 727 West Kenneth Road, Glendale, California, USA",(exterior: Frank Shirley's house),,,
286,/title/tt0097958/,,"Stage 21, Warner Brothers Burbank Studios - 4000 Warner Boulevard, Burbank, California, USA",,,,
287,/title/tt0097958/,,"Stage 18, Warner Brothers Burbank Studios - 4000 Warner Boulevard, Burbank, California, USA",,,,
288,/title/tt0097958/,,"Hwy 9 North of Silverthorne, Colorado, USA",(highway road rage and logging truck scenes),,,
289,/title/tt0098878/,,"Easton, Washington, USA",,"Easton, Talbot County, Maryland, 21601, United States of America",38.7744952,-76.0763065
290,/title/tt0098878/,,"Washington, USA",,"Washington, District of Columbia, 20230, United States of America",38.8949924,-77.0365581
291,/title/tt0076729/,,"Main Street, Jonesboro, Georgia, USA",(where Bandit and Snowman load the beer),"Jonesboro, Clayton County, Georgia, 30250, United States of America",33.5215013,-84.3538128
292,/title/tt0076729/,,"West Palm Beach, Florida, USA",,"West Palm Beach, Palm Beach County, Florida, United States of America",26.7153425,-80.0533746
293,/title/tt0076729/,,"Macon Street and Highway 81, McDonough, Georgia, USA",(where Bandit hides behind a small brick building),,,
294,/title/tt0076729/,,"Griffith Park - 4730 Crystal Springs Drive, Los Angeles, California, USA",(opening credits),,,
295,/title/tt0076729/,,"Redan, Georgia, USA",,"Redan, DeKalb County, Georgia, 30088-3433, United States of America",33.7558824,-84.1655302
296,/title/tt0076729/,,"Phillips Rd and S. Stone Mountain Lithonia Rd, Lithonia, Georgia, USA",(The funeral procession),,,
297,/title/tt0076729/,,"Van Nuys Boulevard, Van Nuys, Los Angeles, California, USA",(opening credits boulevard night drive),"Van Nuys Boulevard, Van Nuys, Los Angeles, Los Angeles County, California, 91401-2649, United States of America",34.1948245,-118.4488129
298,/title/tt0076729/,,"Los Angeles, California, USA",(opening credits),"Los Angeles, Los Angeles County, California, United States of America",34.0536909,-118.2427666
299,/title/tt0076729/,,"11675 Foothill Boulevard, Lake View Terrace, Los Angeles, California, USA",(Smokey Roundup Red 22),"Foothill Boulevard, Lake View Terrace, Shadow Hills, Los Angeles, Los Angeles County, California, 91040-1737, United States of America",34.2742036,-118.3592888
300,/title/tt0076729/,,"Lakewood Fairgrounds, Atlanta, Georgia, USA",(Truck Roadeo scenes),"Lakewood Fairgrounds Lake Dam, Atlanta, Georgia, 30315, United States of America",33.7014282,-84.3900059
301,/title/tt0086659/,,"BBC Television Centre, Wood Lane, Shepherd's Bush, London, England, UK",(studio),,,
302,/title/tt0086659/,,"Denver Mill, Denver, England, UK",(location),"Denver, Sluice Road, Denver, King's Lynn and West Norfolk, Norfolk, East of England, England, PE38 0EG, United Kingdom",52.5821658,0.3562854
303,/title/tt0086659/,,"Railway bridge, Beeston, England, UK",(location),"The Middleton Railway, Hunslet Carr, Leeds, West Yorkshire, Yorkshire and the Humber, England, LS10 2JQ, United Kingdom",53.77373585,-1.5389984900034892
304,/title/tt0106611/,,"Montego Bay, Jamaica",,"Montego Bay, Saint James, Cornwall County, Jamaika",18.4724603,-77.9217357
305,/title/tt0106611/,,Jamaica,,"Jamaica, Spanish Town, Saint Catherine, Middlesex County, Jamaika",18.1152958,-77.1598454610168
306,/title/tt4687882/,,"Mitchell and Mackie Buildings, Milwaukee, Wisconsin, USA","(Daily Report dot Com July 15, 2016)",,,
307,/title/tt4687882/,,"Paris, France",(season 2),"Paris, Île-de-France, France métropolitaine, 75004, France",48.8566969,2.3514616
308,/title/tt0097136/,,"The Old Place - 29983 Mulholland Highway, Cornell, California, USA",,,,
309,/title/tt0312528/,,"Longleaf, Florida, USA",,"Longleaf, Whisper Dunes, Panama City Beach, Bay County, Florida, 32413, United States of America",30.279413,-85.910423
310,/title/tt0312528/,,"Los Angeles, California, USA",,"Los Angeles, Los Angeles County, California, United States of America",34.0536909,-118.2427666
311,/title/tt0312528/,,"Stage 27, Universal Studios - 100 Universal City Plaza, Universal City, California, USA",,,,
312,/title/tt0312528/,,"Stage 29, Universal Studios - 100 Universal City Plaza, Universal City, California, USA",,,,
313,/title/tt2404465/,,"Fairview-Riverside State Park, Louisiana, USA",,"Fairview Riverside State Park, Houltonville, St. Tammany Parish, Louisiana, 90447, United States of America",30.4107495,-90.1442451
314,/title/tt0083483/,,"Boston, Massachusetts, USA",,"Boston, Suffolk County, Massachusetts, United States of America",42.3602534,-71.0582912
315,/title/tt0083483/,,"Independence National Historical Park, Philadelphia, Pennsylvania, USA",(Dr. Craig's visit),"Independence National Historical Park, Society Hill, Philadelphia, Philadelphia County, Pennsylvania, United States of America",39.9505889,-75.15227113481293
316,/title/tt0118789/,,"Lackawanna, New York, USA",(bowling alley scenes),"Lackawanna, Erie County, New York, United States of America",42.81909025,-78.833717479075
317,/title/tt0118789/,,"Gowanda Correctional Facility, Gowanda, New York, USA",(prison scenes),,,
318,/title/tt0272338/,,"Claremont, California, USA",,"Claremont, Los Angeles County, California, United States of America",34.0966764,-117.7197785
319,/title/tt0272338/,,"Royal Hawaiian Hotel - 2259 Kalakava Avenue, Honolulu, O'ahu, Hawaii, USA",(interior) (poster),,,
320,/title/tt0272338/,,"San Fernando Valley, Los Angeles, California, USA",,"San Fernando Valley, Los Angeles, Los Angeles County, California, 91406-1232, United States of America",34.2148853,-118.4998204
321,/title/tt0272338/,,"Lombardi Apts. - 5633 Topanga Canyon Blvd., Woodland Hills, California, USA",(Barry running through apartment building),,,
322,/title/tt0272338/,,"California, USA",,"California, United States of America",36.7014631,-118.7559974
323,/title/tt0272338/,,USA,,United States,39.7837304,-100.4458825
324,/title/tt0272338/,,"Bank of the West - 19858 Ventura Boulevard, Woodland Hills, Los Angeles, California, USA",(Sanwa Bank),,,
325,/title/tt0272338/,,"Honolulu International Airport - 300 Rodgers Boulevard, Honolulu, O'ahu, Hawaii, USA",(Hawaii Airport),,,
326,/title/tt0272338/,,"North Hollywood, Los Angeles, California, USA",,"North Hollywood, Los Angeles, Los Angeles County, California, 91601-3121, United States of America",34.1729044,-118.3740371
327,/title/tt0272338/,,"Honolulu, O'ahu, Hawaii, USA",,,,
328,/title/tt0272338/,,"Waikiki Beach, Honolulu, O'ahu, Hawaii, USA",,,,
329,/title/tt1086772/,,"Sun City, South Africa",,"Sun City, Bojanala Platinum District Municipality, North West, South Africa",-25.344507,27.09404
330,/title/tt1086772/,,"Buford, Georgia, USA",(Dick's Sporting Goods in the Mall of GA),"Buford, Gwinnett County, Georgia, United States of America",34.1206564,-84.0043513
331,/title/tt1086772/,,"Lawrenceville, Georgia, USA","(Hooters in Lawrenceville, Georgia)","Lawrenceville, Gwinnett County, Georgia, United States of America",33.9562149,-83.9879625
332,/title/tt1366344/,,"Brooklyn, New York City, New York, USA",,"Brooklyn, Kings County, New York, United States of America",40.6501038,-73.9495823
333,/title/tt1366344/,,"The Bronx, New York City, New York, USA",(Noah's Dad's Jewelry Store),"The Bronx, Bronx County, New York, United States of America",40.8466508,-73.8785937
334,/title/tt0280707/,,"Ston Easton Park, Somerset, England, UK",(servants' quarters),"Ston Easton Park, High Street, Ston Easton, Mendip, Somerset, South West England, England, BA3 4DF, United Kingdom",51.284563399999996,-2.5388027531914923
335,/title/tt0280707/,,"Hall Barn, Beaconsfield, Buckinghamshire, England, UK",(Lady Trentham's home / lunch after the hunt scene),"Hall Barn, M40, Beaconsfield, Buckinghamshire, South East, England, HP9 2BF, United Kingdom",51.59397725,-0.6393289127827194
336,/title/tt0090555/,,"Kakadu National Park, Northern Territory, Australia",,"Kakadu National Park, Kakadu, West Arnhem Region, Northern Territory, 0886, Australia",-13.0487014,132.53628093942888
337,/title/tt0090555/,,"UDP Falls, Kakadu National Park, Northern Territory, Australia",,,,
338,/title/tt0090555/,,"Northern Territory, Australia",,"Northern Territory, Australia",-19.8516101,133.2303375
339,/title/tt0090555/,,"Sydney, New South Wales, Australia",,"Sydney, New South Wales, Australia",-33.8548157,151.2164539
340,/title/tt0090555/,,"Subway Station Exit, Manhattan Municipal Building, Cnr Chambers & Centre Streets, Manhattan, New York City, New York, USA","(""That's not a knife. This is a knife!"")",,,
341,/title/tt0090555/,,"5th Avenue, Manhattan, New York City, New York, USA",,"5th Avenue, East Harlem, Manhattan Community Board 11, Manhattan, New York County, New York, 10030, United States of America",40.8147478,-73.9361291
342,/title/tt0090555/,,"Columbus Circle Subway, Central Park, Manhattan, New York City, New York, USA",(finale),,,
343,/title/tt0090555/,,"Disused lower level platforms, 9th Avenue Subway Station, Brooklyn, New York City, New York, USA",,,,
344,/title/tt0090555/,,"Greenwich Village, Manhattan, New York City, New York, USA",,"Greenwich Village, 7th Avenue South, West Village, Manhattan Community Board 2, Manhattan, New York County, New York, 10014, United States of America",40.7335844,-74.0028172
345,/title/tt0090555/,,"Manhattan Municipal Building - 1 Centre Street, Manhattan, New York City, New York, USA",(muggers and big knife),,,
346,/title/tt0090555/,,"New York City, New York, USA",,"New York, United States of America",40.7127281,-74.0060152
347,/title/tt0090555/,,"Astor Place Hairstylists aka Astor Barber, New York City, New York, USA",(Crocodile Dundee goes to see why a crowd has gathered in front of a storefront),,,
348,/title/tt3172532/,,"Alameda, California, USA","(classroom scenes, Ricky's House scenes)","Alameda County, California, United States of America",37.6090291,-121.899142
349,/title/tt3172532/,,"Golden Gate Park, San Francisco, California, USA",,"Golden Gate Park, Richmond District, San Francisco, San Francisco City and County, California, 94118-4504, United States of America",37.769368099999994,-122.48218371117709
350,/title/tt1371150/,,"Suffern, New York, USA",(Good Samaritan Hospital),"Suffern, Town of Ramapo, Rockland County, New York, United States of America",41.1151372,-74.1493948
351,/title/tt1371150/,,"Bellmore, Long Island, New York, USA",(Newbridge Park skating rink),,,
352,/title/tt1371150/,,"Great Neck, Long Island, New York, USA",(Tennis store),"Great Neck, North Hempstead, Nassau County, New York, 11023, United States of America",40.8006567,-73.7284647
353,/title/tt10310140/,,"Rutland, Vermont, USA",(Filming location),"Rutland, Rutland County, Vermont, 05701, United States of America",43.6106237,-72.9726065
354,/title/tt0129290/,,"Biltmore Estate - 1 Approach Road, Asheville, North Carolina, USA",,,,
355,/title/tt0129290/,,"St. Helena, Napa Valley, California, USA",(Funeral Scene),"St. Helena, Napa County, California, 94574, United States of America",38.5052288,-122.4700424
356,/title/tt0129290/,,"Chapel Hill, North Carolina, USA",(Campus exteriors),"Chapel Hill, Orange County, North Carolina, United States of America",35.9131542,-79.05578
357,/title/tt0129290/,,"Point Richmond, California, USA",,"Point Richmond, Richmond, Contra Costa County, California, 94801, United States of America",37.9240915,-122.3891383
358,/title/tt0129290/,,"University of California, Berkeley, California, USA",(LeConte Hall),"Berkeley Art Museum - Pacific Film Archive, 2155, Center Street, Downtown Berkeley, Berkeley, Alameda County, California, 94704, United States of America",37.87094645,-122.26639872292523
359,/title/tt8145202/,,"Pacific Palisades, Los Angeles, California, USA",,"Pacific Palisades, Los Angeles, Los Angeles County, California, United States of America",34.0480643,-118.5264706
360,/title/tt8145202/,,"Simi Valley, California, USA",,"Simi Valley, Ventura County, California, United States of America",34.2694474,-118.781482
361,/title/tt8145202/,,"Felanitx, Mallorca, Balearic Islands, Spain",,"Carretera Felanitx-Portocolom, Portocolom, Felanitx, Migjorn, Illes Balears, 07670, España",39.4240746,3.2600566
362,/title/tt8145202/,,USA,,United States,39.7837304,-100.4458825
363,/title/tt1068680/,,"Griffith Observatory, 2800 E Observatory Rd, Los Angeles, California, USA",,"Griffith Observatory, 2800, East Observatory Road, Griffith Park, Los Angeles, Los Angeles County, California, 90027, United States of America",34.11821875,-118.30029332196601
364,/title/tt1068680/,,"Rose Bowl - 1001 Rose Bowl Drive, Pasadena, California, USA",,,,
365,/title/tt1068680/,,"Ontario International Airport - 2900 E. Airport Drive, Ontario, California, USA",(airport),,,
366,/title/tt1068680/,,"Echo Park, Los Angeles, California, USA",,"Echo Park, Los Angeles, Los Angeles County, California, United States of America",34.0779819,-118.2567824
367,/title/tt1068680/,,"Stage 29, Warner Brothers Burbank Studios - 4000 Warner Boulevard, Burbank, California, USA",,,,
368,/title/tt1453405/,,"Pixar Animation Studios - 1200 Park Avenue, Emeryville, California, USA",,"Pixar Animation Studios, 1200, Park Avenue, Longfellow, Emeryville, Alameda County, California, 94608, United States of America",37.832671399999995,-122.28369454930086
369,/title/tt3502172/,,"New York City, New York, USA",,"New York, United States of America",40.7127281,-74.0060152
370,/title/tt0146402/,,USA,,United States,39.7837304,-100.4458825
371,/title/tt0105417/,,"Nevada Club, Reno, Nevada, USA",(Casino where Whoopi Goldberg is performing),,,
372,/title/tt0105417/,,"Ambassador Hotel - 3400 Wilshire Boulevard, Los Angeles, California, USA",,,,
373,/title/tt0105417/,,"San Francisco, California, USA",,"San Francisco, San Francisco City and County, California, United States of America",37.7790262,-122.4199061
374,/title/tt0105417/,,"Club Cal Neva, Reno, Nevada, USA",(Casino visible outside Whoopi Goldberg's Apartment window),"Club Cal Neva, 38, East 2nd Street, Reno, Washoe County, Nevada, 89501, United States of America",39.5267762,-119.81255305847503
375,/title/tt0105417/,,"St. Paul's Methodist Church -1660 Grandview Avenue, Reno, Nevada, USA",,,,
376,/title/tt0105417/,,"Candlestick Park - 602 Jamestown Avenue, San Francisco, California, USA",,,,
377,/title/tt0105417/,,"Melander Architects, 1679 Church, San Francisco, California, USA",(Pawn Shop),,,
378,/title/tt0105417/,,"California, USA",,"California, United States of America",36.7014631,-118.7559974
379,/title/tt2823054/,,"Turtle Bay Resort - 57-091 Kamehameha Highway, Kahuku, O'ahu, Hawaii, USA",,,,
380,/title/tt2823054/,,"Kualoa Ranch, O'ahu, Hawaii, USA",,,,
381,/title/tt2823054/,,"Kualoa Ranch - 49560 Kamehameha Highway, Ka'a'awa, O'ahu, Hawaii, USA",,,,
382,/title/tt2823054/,,"Oahu, Hawaii, USA",,"Oʻahu, Mililani, Honolulu County, Hawaii, United States of America",21.48349555,-158.03640389298
383,/title/tt2823054/,,"O'ahu, Hawaii, USA",,"Oʻahu, Mililani, Honolulu County, Hawaii, United States of America",21.48349555,-158.03640389298
384,/title/tt2823054/,,"Kahuku, North Shore, O'ahu, Hawaii, USA",,,,
385,/title/tt2823054/,,"Kamehameha Highway, Lä'ie, O'ahu, Hawaii, USA",,,,
386,/title/tt2823054/,,"Honolulu, O'ahu, Hawaii, USA",,,,
387,/title/tt2823054/,,"Honolulu, Oahu, Hawaii, USA",,,,
388,/title/tt1598822/,,"New York City, New York, USA",,"New York, United States of America",40.7127281,-74.0060152
389,/title/tt1598822/,,"Alice Tully Hall, 1941 Broadway, Lincoln Center, Lincoln Center, Manhattan, New York City, New York, USA",(Morgan Stanley Lobby),,,
390,/title/tt1598822/,,"Queens Museum of Art, Flushing Meadows, Corona Park, Queens, New York City, New York, USA",(second unit exterior),,,
391,/title/tt1598822/,,"Silvercup Studios - 4222 22nd Street, Long Island City, Queens, New York City, New York, USA",(hospital scenes),"Silvercup Studios Main Lot, 42-22, 22nd Street, Queens, Queens County, New York, 11101, United States of America",40.7513513,-73.94424267969767
392,/title/tt0322330/,,"3rd Street Promenade, Santa Monica, California, USA",,"3rd Street Promenade, Third Street Promenade, Santa Monica, Los Angeles County, California, 90401, United States of America",34.0169981,-118.4976531
393,/title/tt0322330/,,"House of Blues - 8430 Sunset Blvd., West Hollywood, California, USA",,,,
394,/title/tt0322330/,,"Los Angeles, California, USA",,"Los Angeles, Los Angeles County, California, United States of America",34.0536909,-118.2427666
395,/title/tt0322330/,,"Santa Monica, California, USA",,"Santa Monica, Los Angeles County, California, United States of America",34.0250724,-118.4965129
396,/title/tt1987680/,,"Black Bass Hotel, Lumberville, Pennsylvania, USA",(on location),"Black Bass Hotel, 3774, River Road, Lumberville, Solebury Township, Bucks County, Pennsylvania, 18933, United States of America",40.4067711,-75.03759232008234
397,/title/tt1987680/,,"The Kimmel Center, Philadelphia, Pennsylvania, USA",(location),"Kimmel Center for the Performing Arts, 300, South Broad Street, Rittenhouse Square, Philadelphia, Philadelphia County, Pennsylvania, 19102, United States of America",39.9467456,-75.16573932624127
398,/title/tt1987680/,,"East Allegheny Avenue, Philadelphia, Pennsylvania, USA",(street scenes),"East Allegheny Avenue, Richmond, Philadelphia, Philadelphia County, Pennsylvania, 19134, United States of America",39.994266,-75.1114172
399,/title/tt1987680/,,"Center for Architecture and Design, Philadelphia, Pennsylvania, USA",(location),,,
400,/title/tt1987680/,,"1900 JFK Boulevard, Philadelphia, Pennsylvania, USA",(street scenes),"Penn Center House, 1900, John F. Kennedy Boulevard, Rittenhouse Square, Philadelphia, Philadelphia County, Pennsylvania, 19103, United States of America",39.9542563,-75.17205699582007
401,/title/tt0094137/,,"Central Park, Manhattan, New York City, New York, USA",,"Central Park, Manhattan, New York County, New York, United States of America",40.7827725,-73.9653627406542
402,/title/tt0094137/,,"Royal Alexandra Theatre, Toronto, Ontario, Canada",(Theatre where Jack is rehearsing),"Royal Alexandra Theatre, 260, King Street West, Spadina—Fort York, Old Toronto, Toronto, Golden Horseshoe, Ontario, M5H, Canada",43.6473883,-79.38758482307159
403,/title/tt2268016/,,"Savannah, Georgia, USA",(Savannah International Trade & Convention Center - Stripper Convention Interiors),"Savannah, Chatham County, Georgia, United States of America",32.0809263,-81.0911768
404,/title/tt2268016/,,"Darien, Georgia, USA",(Friendly Express #74 - Ritchie's mini-mart strip scene),"Darien, McIntosh County, Georgia, 31305, United States of America",31.3702255,-81.4339903
405,/title/tt2268016/,,"Savannah, Georgia, USA",(10 Whitaker Street) (downtown Tampa scenes),"Savannah, Chatham County, Georgia, United States of America",32.0809263,-81.0911768
406,/title/tt2268016/,,"Savannah, Georgia, USA",(Savannah Technical College) (hospital scene),"Savannah, Chatham County, Georgia, United States of America",32.0809263,-81.0911768
407,/title/tt0852713/,,"Royce Hall - 340 Royce Drive, UCLA, Westwood, Los Angeles, California, USA",,,,
408,/title/tt0852713/,,"The Pink Motel & Cadillac Jack's Diner, 9457 San Fernando Road, Sun Valley, California, USA",(photo shoot),,,
409,/title/tt0852713/,,"Los Angeles, California, USA",,"Los Angeles, Los Angeles County, California, United States of America",34.0536909,-118.2427666
410,/title/tt0852713/,,"Westwood, Los Angeles, California, USA",,"Westwood, Los Angeles, Los Angeles County, California, 90024-3990, United States of America",34.0561207,-118.4306347
411,/title/tt0852713/,,"California, USA",,"California, United States of America",36.7014631,-118.7559974
412,/title/tt3165612/,,USA,,United States,39.7837304,-100.4458825
413,/title/tt1255919/,,"Shepperton Studios, Studios Road, Shepperton, Surrey, England, UK",,,,
414,/title/tt0097758/,,"Burbank California, USA",,"Burbank, Los Angeles County, California, United States of America",34.1816482,-118.3258554
415,/title/tt0097758/,,"1519 Chestnut Street, Wilmington, North Carolina, USA",(Stevenson house),"1519, Chestnut Street, Princess Place, Wilmington, New Hanover County, North Carolina, 28401, United States of America",34.23920869387756,-77.92966061224489
416,/title/tt0097758/,,"109 N 15th Avenue, Wilmington, North Carolina, USA",(interior of kids houses where Maurice and Brian wreak havoc),,,
417,/title/tt0097758/,,"Screen Gems Studios - 1223 North 23rd Street, Wilmington, North Carolina, USA",(studio),,,
418,/title/tt0097758/,,"Stage 7, Screen Gems Studios - 1223 North 23rd Street, Wilmington, North Carolina, USA",(Boy's underworld room),,,
419,/title/tt0097758/,,"Winter Park Elementary School - 204 MacMillan Avenue, Wilmington, North Carolina, USA",(Ronny wonders who urinated in his apple juice),"Winter Park Elementary School, Macmillan Avenue, University Apartments, Winter Park, Wilmington, New Hanover County, North Carolina, 28403, United States of America",34.2115591,-77.8824855
420,/title/tt0097758/,,"Shell Island Resort Hotel - 2700 N. Lumina Avenue, Wrightsville Beach, North Carolina, USA",(Malibu),"Shell Island Resort, North Lumina Avenue, Shell Island, Wrightsville Beach, New Hanover County, North Carolina, 28480, United States of America",34.23579745,-77.77533696846677
421,/title/tt1950235/,,"Millbrook, Ontario, Canada",,"Millbrook, Peterborough County, Central Ontario, Ontario, L0A 1G0, Canada",44.1509783,-78.4474915
422,/title/tt1950235/,,"Ontario, Canada",,"Ontario, Canada",50.000678,-86.000977
423,/title/tt1950235/,,"Chicago Illinois, USA",(street scenes),"Chicago, Cook County, Illinois, United States of America",41.8755616,-87.6244212
424,/title/tt1528071/,,"Squamish, British Columbia, Canada",,"Squamish, Squamish-Lillooet Regional District, British Columbia, Canada",49.6980743,-123.1558612
425,/title/tt1528071/,,"Mission, British Columbia, Canada",,"Mission, British Columbia, Canada",49.1589351,-122.2835833
426,/title/tt1528071/,,"British Columbia, Canada",,"British Columbia, Canada",55.001251,-125.002441
427,/title/tt0095631/,,"Miami, Arizona, USA",,"Miami, Gila County, Arizona, 85539, United States of America",33.3994776,-110.87095
428,/title/tt0095631/,,"Cameron, Arizona, USA","(Channing, plane chase scene)","Cameron, Coconino County, Arizona, United States of America",35.8740383,-111.4119186
429,/title/tt0095631/,,"Casa Grande, Arizona, USA",,"Casa Grande, Pinal County, Arizona, United States of America",32.8795022,-111.7573521
430,/title/tt0095631/,,"Cottonwood, Arizona, USA",,"Cottonwood, Yavapai County, Arizona, 86326, United States of America",34.739489,-112.0097939
431,/title/tt0095631/,,"Globe, Arizona, USA",,"Globe, Gila County, Arizona, United States of America",33.3959623,-110.7871344
432,/title/tt0095631/,,"Sedona, Arizona, USA",,"Sedona, Coconino County, Arizona, United States of America",34.8679599,-111.7617165
433,/title/tt0095631/,,"Chicago, Illinois, USA",,"Chicago, Cook County, Illinois, United States of America",41.8755616,-87.6244212
434,/title/tt0095631/,,"Grand Central Station, Manhattan, New York City, New York, USA",,"Grand Central Terminal, 89, East 42nd Street, Midtown East, Manhattan Community Board 5, Manhattan, New York County, New York, 10017, United States of America",40.752701200000004,-73.97724987363358
435,/title/tt0095631/,,"McCarran International Airport - 5757 Wayne Newton Boulevard, Las Vegas, Nevada, USA",,,,
436,/title/tt0095631/,,"Los Angeles, California, USA",,"Los Angeles, Los Angeles County, California, United States of America",34.0536909,-118.2427666
437,/title/tt0095631/,,"Grand Central Market - 317 S. Broadway, Downtown, Los Angeles, California, USA",,"Grand Central Market, 315, South Broadway, Historic Core District, Downtown, Los Angeles, Los Angeles County, California, 90013, United States of America",34.050924949999995,-118.2489634996624
438,/title/tt0109445/,,"Postens Funeral Home - 59 East Lincoln Avenue, Atlantic Highlands, New Jersey, USA",(Undertaker),,,
439,/title/tt0109445/,,"RST Video - 60 Leonard Avenue, Leonardo, New Jersey, USA",(Video Store),,,
440,/title/tt0109445/,,"Atlantic Highlands, New Jersey, USA",,"Atlantic Highlands, New Jersey, 07716, United States of America",40.4078865,-74.034306
441,/title/tt0109445/,,"Middletown, New Jersey, USA",,"Middletown, Orchard Street, Middletown Township, Monmouth, New Jersey, 07748, United States of America",40.3898188,-74.1162152
442,/title/tt0109445/,,"New Jersey, USA",,"New Jersey, United States of America",40.0757384,-74.4041622
443,/title/tt0109707/,,"Hollywood Sign, Hollywood Hills, Los Angeles, California, USA",,"Hollywood Sign, Mount Lee Drive, Hollywood Hills, Los Angeles, Los Angeles County, California, 90068, United States of America",34.1340991,-118.3216523
444,/title/tt0109707/,,"Alverno High School - 200 North Michillinda Avenue, Sierra Madre, California, USA",,,,
445,/title/tt0109707/,,"Boardner's of Hollywood - 1652 North Cherokee Avenue, Hollywood, Los Angeles, California, USA",,,,
446,/title/tt0109707/,,"Eagle Rock, Los Angeles, California, USA",,"Eagle Rock, Los Angeles, Los Angeles County, California, United States of America",34.1366877,-118.2076796
447,/title/tt0109707/,,"Hollywood, Los Angeles, California, USA",,"Hollywood, Los Angeles, Los Angeles County, California, 90028-8127, United States of America",34.0980031,-118.329523
448,/title/tt0109707/,,"Los Angeles, California, USA",,"Los Angeles, Los Angeles County, California, United States of America",34.0536909,-118.2427666
449,/title/tt0109707/,,"Orpheum Theater - 842 South Broadway, Downtown, Los Angeles, California, USA",,,,
450,/title/tt0109707/,,"Torrance, California, USA",,"Torrance, Los Angeles County, California, United States of America",33.8358492,-118.3406288
451,/title/tt0109707/,,USA,,United States,39.7837304,-100.4458825
452,/title/tt5761496/,,"Los Angeles, California, USA",,"Los Angeles, Los Angeles County, California, United States of America",34.0536909,-118.2427666
453,/title/tt0817230/,,"The Original Los Angeles Flower Market - 754 Wall St, Los Angeles, California, USA",,,,
454,/title/tt0817230/,,"22432 Pacific Coast Hwy., Malibu, California, USA",(Sean Jackson's house on the beach),"22432, Pacific Coast Highway, Malibu Beach, Malibu, Los Angeles County, California, 90265, United States of America",34.03955690014416,-118.665898850841
455,/title/tt0817230/,,"Santa Monica, California, USA",,"Santa Monica, Los Angeles County, California, United States of America",34.0250724,-118.4965129
456,/title/tt0817230/,,"Venice, Los Angeles, California, USA",,"Venice, Los Angeles, Los Angeles County, California, United States of America",33.995044,-118.4668875
457,/title/tt0817230/,,"3100 Magnolia Blvd, Burbank, California, USA",(Sienna Bouquet),"Magnolia Boulevard, Burbank, Los Angeles County, California, 91502, United States of America",34.1783246,-118.3167308
458,/title/tt0817230/,,"Burbank, California, USA",,"Burbank, Los Angeles County, California, United States of America",34.1816482,-118.3258554
459,/title/tt0817230/,,"Malibu, California, USA",,"Malibu, Los Angeles County, California, 90265-4797, United States of America",34.035591,-118.689423
460,/title/tt0783234/,,"Cardiff, South Glamorgan, Wales, UK",,"Cardiff Bay Yacht Club, Chandlers Way, Penarth Marina, Penarth, Vale of Glamorgan, Cymru / Wales, CF64 1SP, United Kingdom",51.44749165,-3.1779477884271543
461,/title/tt0783234/,,"South Wales, Wales, UK",,"Newport (South Wales) County Court and Family Court, 5th Floor, Clarence Place, St Julians, Newport, Cymru / Wales, NP19 7AA, United Kingdom",51.5909537,-2.9924587
462,/title/tt1412386/,,"Royal Castle Kanota, Kanota Bagh, Jaipur, Rajasthan, India",(used as the Viceroy Club),,,
463,/title/tt1412386/,,"Stansted Airport, Essex, England, UK",,"Stansted Airport, Terminal Road South, Takeley, Uttlesford, Essex, East of England, England, CM22 6PL, United Kingdom",51.8899889,0.26150702197225434
464,/title/tt8526872/,,"Mount Hollywood Drive, Los Angeles, California, USA",(Cadillac car chase and explosion),"Mount Hollywood Drive, Griffith Park, Los Angeles, Los Angeles County, California, 90068, United States of America",34.1380076,-118.3050561
465,/title/tt8526872/,,"1949 Buckingham Road, Los Angeles, California, USA",(Dolemite's House - Exteriors),"1949, Buckingham Road, Mid-City, Los Angeles, Los Angeles County, California, 90016, United States of America",34.039320246231156,-118.33687883417086
466,/title/tt0058815/,,"Columbia/Sunset Gower Studios - 1438 N. Gower Street, Hollywood, Los Angeles, California, USA",,,,
467,/title/tt0084805/,,"Hurley Mountain Inn, Hurley, New York, USA",(bar scene),"Hurley Mountain Inn, 106, Old Route 209, Riverside Park, Hurley, Town of Hurley, Ulster County, New York, 12443, United States of America",41.9263933,-74.06761670901665
468,/title/tt0084805/,,"Russian Tea Room - 150 W. 57th Street, Manhattan, New York City, New York, USA",,"Russian Tea Room, 150, West 57th Street, Midtown, Manhattan Community Board 5, Manhattan, New York County, New York, 10019, United States of America",40.7650339,-73.9793005
469,/title/tt1583607/,,"Stage 19 - CBS Studio Center, 4024 Radford Avenue, Studio City, Los Angeles, California, USA",,,,
470,/title/tt0101587/,,"Durango, Colorado, USA",,"Durango, La Plata County, Colorado, United States of America",37.2713951,-107.8815978
471,/title/tt0101587/,,"Roosevelt Island Tram, Roosevelt Island, New York City, New York, USA",,,,
472,/title/tt0101587/,,"Abiquiu, New Mexico, USA",,"Abiquiu, Rio Arriba County, New Mexico, United States of America",36.2070977,-106.3186283
473,/title/tt0101587/,,"Plaza Blanca, Abiquiu, New Mexico, USA",,"Plaza Blanca, Abiquiu, Rio Arriba County, New Mexico, United States of America",36.232413,-106.3032286
474,/title/tt0101587/,,"Bradley International Terminal, Los Angeles International Airport - 1 World Way, Los Angeles, California, USA",,,,
475,/title/tt0101587/,,"Garson Studios, College of Santa Fe - 1600 Saint Michaels Drive, Santa Fe, New Mexico, USA","(studio) (filmed at) (as Garson Studios, Santa Fe, New Mexico)",,,
476,/title/tt0101587/,,"Culver Studios - 9336 W. Washington Blvd., Culver City, California, USA","(studio) (filmed at) (as Culver Studios, Culver City, California)",,,
477,/title/tt0101587/,,"Universal Studios - 100 Universal City Plaza, Universal City, California, USA","(studio) (filmed at) (as Universal Studios, Universal City, California)",,,
478,/title/tt1490017/,,"New York City, New York, USA",,"New York, United States of America",40.7127281,-74.0060152
479,/title/tt0075592/,,"Holt, Norfolk, England, UK",,"Holt, Norfolk, East of England, England, NR25 6BB, United Kingdom",52.9054382,1.0928322
480,/title/tt0075592/,,"Paris, France",,"Paris, Île-de-France, France métropolitaine, 75004, France",48.8566969,2.3514616
481,/title/tt5304992/,,"Yankee Stadium - E. 161st Street & River Avenue, Bronx, New York City, New York, USA",,,,
482,/title/tt0098384/,,"Natchitoches, Louisiana, USA",,"Natchitoches, Natchitoches Parish, Louisiana, United States of America",31.7606732,-93.0860209
483,/title/tt0098384/,,USA,,United States,39.7837304,-100.4458825
484,/title/tt0368975/,,"Los Angeles, California, USA",,"Los Angeles, Los Angeles County, California, United States of America",34.0536909,-118.2427666
485,/title/tt0108981/,,"BBC Television Centre, Wood Lane, Shepherd's Bush, London, England, UK",(Dibley Interiors),,,
486,/title/tt0467421/,,"Toronto, Ontario, Canada",,"Toronto, Golden Horseshoe, Ontario, Canada",43.6534817,-79.3839347
487,/title/tt0069602/,,"Higgin Brigg, Holmfirth, West Yorkshire, England, UK",(Sid's café),,,
488,/title/tt0069602/,,"The White Horse, Jackson Bridge, Holmfirth, West Yorkshire, England, UK",,,,
489,/title/tt0069602/,,"West Yorkshire, England, UK",,"West Yorkshire, Yorkshire and the Humber, England, United Kingdom",53.741427099999996,-1.7202003766777243
490,/title/tt2404311/,,"Orne, France",,"Orne, Normandie, France métropolitaine, 61500, France",48.57605325,0.04466171759588161
491,/title/tt2404311/,,"Le Sap, Orne, France",,"Le Sap, Mortagne-au-Perche, Orne, Normandie, France métropolitaine, 61470, France",48.8944143,0.3388971
492,/title/tt2404311/,,"L'Aigle, Orne, France",,"L'Aigle, Mortagne-au-Perche, Orne, Normandie, France métropolitaine, 61300, France",48.7651713,0.6278039
493,/title/tt1077258/,,"Austin, Texas, USA",,"Austin, Travis County, Texas, United States of America",30.2711286,-97.7436995
494,/title/tt1077258/,,"Texas, USA",,"Texas, United States of America",31.8160381,-99.5120986
495,/title/tt1077258/,,"Williamson County Texas, USA",(Historic Jail),"Williamson County, Texas, United States of America",30.6580927,-97.6041649
496,/title/tt0119303/,,"Evanston, Illinois, USA",(Normandy Place),"Evanston, Evanston Township, Cook County, Illinois, United States of America",42.0447388,-87.6930459
497,/title/tt0119303/,,"3025 Normandy Place, Evanston, Illinois, USA",(Mrs. Hess's house),"3025, Normandy Place, Evanston, Evanston Township, Cook County, Illinois, 60201, United States of America",42.0581076,-87.7188991
498,/title/tt0119303/,,"Haven Middle School - 2417 Prairie Avenue, Evanston, Illinois, USA",,"Haven Middle School, 2417, Prairie Avenue, Evanston, Evanston Township, Cook County, Illinois, 60201, United States of America",42.0616963,-87.6975594
499,/title/tt0119303/,,"Calumet River, South Deering, Chicago, Illinois, USA",,,,
500,/title/tt0119303/,,"4747 West Dempster Street, Skokie, Illinois, USA",(Illinois Federal Trust),"West Dempster Street, Skokie, Niles Township, Cook County, Illinois, 60077, United States of America",42.0408438,-87.759717
501,/title/tt0119303/,,"3450 W. Touhy Avenue, Skokie, Illinois, USA",,"West Touhy Avenue, Skokie, Niles Township, Cook County, Illinois, 60646, United States of America",42.0118648,-87.7530523
502,/title/tt0119303/,,"Chicago, Illinois, USA",,"Chicago, Cook County, Illinois, United States of America",41.8755616,-87.6244212
503,/title/tt5247022/,,"Queens, New York, USA","(Shades Bar, where Paterson goes every night for a beer)","Queens, Queens County, New York, United States of America",40.7498243,-73.7976337
504,/title/tt5247022/,,"Yonkers, New York, USA",(Paterson's house),"Yonkers, Westchester County, New York, United States of America",40.9312099,-73.8987469
505,/title/tt5247022/,,"Lou Costello Statue, Cianci Park, Ellison Street, Paterson, New Jersey, USA",(bus route),,,
506,/title/tt5247022/,,"Ward Street, Paterson, New Jersey, USA",(bus route),"Ward Street, Paterson, Passaic County, New Jersey, 07505, United States of America",40.914637,-74.1728491
507,/title/tt5247022/,,"New Jersey, USA",,"New Jersey, United States of America",40.0757384,-74.4041622
508,/title/tt5247022/,,"New York, USA",,"New York, United States of America",40.7127281,-74.0060152
509,/title/tt0107131/,,"Bend, Oregon, USA",,"Bend, Deschutes County, Oregon, United States of America",44.0581728,-121.3153096
510,/title/tt0107131/,,"Mount Hood National Forest, Oregon, USA",,"Mount Hood National Forest, Wasco County, Oregon, United States of America",45.20996475,-121.72323228913245
511,/title/tt0107131/,,"Eagle Cap Wilderness Area, Oregon, USA",,"Eagle Cap Wilderness, Oregon, United States of America",45.255534600000004,-117.52892288940511
512,/title/tt0107131/,,"Joseph, Oregon, USA",,"Joseph, Wallowa County, Oregon, 97846, United States of America",45.3519668,-117.2312366
513,/title/tt0107131/,,"Sahalie Falls, Oregon, USA",(Sassy goes over the waterfall),"Sahalie Falls, Linn County, Oregon, United States of America",44.3491297,-121.9971974
514,/title/tt0107131/,,"Wahclella Falls, Oregon, USA",(they find the little girl),"Wahclella Falls, Multnomah County, Oregon, 98639, United States of America",45.6181781,-121.9514053
515,/title/tt0107131/,,"Benham Falls, Oregon, USA",(Sassy caught in the rapids),"Benham Falls, Deschutes County, Oregon, 97708, United States of America",43.9391477,-121.4128871
516,/title/tt0107131/,,"Mount Howard, Oregon, USA","(""Where's the house?"" scene)","Mount Howard, Wallowa County, Oregon, United States of America",45.2609873,-117.178778
517,/title/tt0107131/,,"Smith Rock State Park, Oregon, USA",(introduction of the mountain lion),"Smith Rock State Park, 9241, Northeast Crooked River Drive, Deschutes County, Oregon, 97760, United States of America",44.3667321,-121.1416894279391
518,/title/tt0107131/,,"San Francisco, California, USA",(establishing shot of San Francisco),"San Francisco, San Francisco City and County, California, United States of America",37.7790262,-122.4199061
519,/title/tt0107131/,,"3501 N Michigan Avenue, Portland, Oregon, USA",(the family's temporary house),"3501, North Michigan Avenue, Mississippi, Boise, Portland, Multnomah County, Oregon, 97227, United States of America",45.5479818,-122.6769369
520,/title/tt0107131/,,"5402 SE 37th Avenue, Portland, Oregon, USA",(the family's house),"5402, Southeast 37th Avenue, Reed, Portland, Multnomah County, Oregon, 97202, United States of America",45.4835816,-122.62448302500111
521,/title/tt0107131/,,"Metropolitan Learning Center - 2033 NW Glisan Street, Portland, Oregon, USA",(interior of kids' school),"Metropolitan Learning Center, 2033, Northwest Glisan Street, Northwest District, Portland, Multnomah County, Oregon, 97209, United States of America",45.5266777,-122.6932342414811
522,/title/tt1958961/,,"Rio de Janeiro, Brazil",,"Rio de Janeiro, Região Geográfica Imediata do Rio de Janeiro, Região Metropolitana do Rio de Janeiro, Região Geográfica Intermediária do Rio de Janeiro, Rio de Janeiro, Região Sudeste, Brasil",-22.9110137,-43.2093727
523,/title/tt1958961/,,"Oslo, Norway",,"Oslo, 0026, Norge",59.9133301,10.7389701
524,/title/tt4380324/,,"Warkworth, New Zealand",(Town of Weld),"Warkworth, Auckland, 0910, New Zealand",-36.3984914,174.6642316
525,/title/tt4380324/,,"Sydney, New South Wales, Australia",,"Sydney, New South Wales, Australia",-33.8548157,151.2164539
526,/title/tt4380324/,,"11 Elizabeth St, Warkworth, New Zealand",(Weld Super Store),"11, Elizabeth Street, Hepburn Creek, Rodney, Auckland, 0910, New Zealand",-36.397456,174.661862
527,/title/tt4380324/,,"548 West Coast Road, Oratia, Auckland, New Zealand",(Weld Service Station),"West Coast Road, Oratia, Waitākere Ranges, Auckland, 0650, New Zealand",-36.9087314,174.6314584
528,/title/tt0114682/,,"Jersey City, New Jersey, USA",(Canton Restaurant),"Jersey City, Hudson County, New Jersey, United States of America",40.7281575,-74.0776417
529,/title/tt0114682/,,"Loma, Nebraska, USA",,"Loma, Butler County, Nebraska, United States of America",41.1280642,-96.9419724
530,/title/tt0114682/,,"Hooper, Nebraska, USA",,"Hooper, Dodge County, Nebraska, United States of America",41.611694,-96.5476704
531,/title/tt0114682/,,"Webster Hall, 125 E 11th St, New York City, New York, USA",,"Webster Hall, 125, East 11th Street, East Village, Manhattan Community Board 3, Manhattan, New York County, New York, 10003, United States of America",40.73176155,-73.98909451714579
532,/title/tt0114682/,,"Montclair, New Jersey, USA",,"Montclair, Essex County, New Jersey, United States of America",40.8164458,-74.2210643
533,/title/tt0114682/,,"Monument Valley, Utah, USA",,"Monument, Disera Boulevard, Magna, Salt Lake County, Utah, 84044, United States of America",40.7143227,-112.1045506
534,/title/tt0114682/,,"Silver Lake Country Club, Atlanta, Georgia, USA",,,,
535,/title/tt0114682/,,"Rt. 218, Highland Falls, New York, USA",,,,
536,/title/tt0114682/,,"West Point, New York, USA",,"West Point, Tiana Circle, Rampasture, Suffolk County, New York, 11946, United States of America",40.8512481,-72.5359869
537,/title/tt0114682/,,"New Jersey, USA",,"New Jersey, United States of America",40.0757384,-74.4041622
538,/title/tt0120891/,,"Pierce, Idaho, USA",,"Pierce, Idaho, 83546, United States of America",46.4910207,-115.7990289
539,/title/tt0120891/,,"Coal Mine Canyon, Tuba City, Arizona, USA",,,,
540,/title/tt0120891/,,"Santa Clarita, California, USA",,"Santa Clarita, Los Angeles County, California, United States of America",34.3916641,-118.542586
541,/title/tt0120891/,,"Lake Piru, California, USA",,"Lake Piru, Piru Canyon Road, Ventura County, California, 93040, United States of America",34.47274625,-118.7514072146488
542,/title/tt0120891/,,"Santa Fe, New Mexico, USA",,"Santa Fe, Santa Fe County, New Mexico, United States of America",35.6869996,-105.9377997
543,/title/tt0120891/,,"Amado, Arizona, USA",,"Amado, Amado Montoso Road, Amado, Santa Cruz County, Arizona, 85645, United States of America",31.685279,-111.06212842449665
544,/title/tt0120891/,,"Lake Balboa Park - 6300 Balboa Blvd, Van Nuys, California, USA",,,,
545,/title/tt0120891/,,"Cook Ranch, Galisteo, New Mexico, USA",,,,
546,/title/tt0120891/,,"Stage 19, Warner Brothers Burbank Studios - 4000 Warner Boulevard, Burbank, California, USA",,,,
547,/title/tt0120891/,,"Stage 21, Warner Brothers Burbank Studios - 4000 Warner Boulevard, Burbank, California, USA",,,,
548,/title/tt0120891/,,"Stage 23, Warner Brothers Burbank Studios - 4000 Warner Boulevard, Burbank, California, USA",,,,
549,/title/tt0120891/,,"Tucson Mountains, Arizona, USA",,,,
550,/title/tt0079470/,,"El Hadj, Tunisia",(ending scenes - landscape - crucifixion),"الحاج قاسم, معتمدية منزل شاكر, ولاية صفاقس, تونس",34.9100327,10.20944161543898
551,/title/tt0079470/,,"Kasbah of Sousse, Sousse, Tunisia",(walls of the city),"القصبة, نهج ابن رشيق, مدينة سوسة العتيقة, سوسة, المدينة, معتمدية سوسة المدينة, ولاية سوسة, 4000, تونس",35.8221915,10.635656698437078
552,/title/tt0079470/,,Tunisia,(Holy Land),تونس,33.8439408,9.400138
553,/title/tt0079470/,,"Sousse, Tunisia",,"سوسة, محمد معروف, معتمدية سوسة المدينة, ولاية سوسة, تونس",35.828829,10.640525
554,/title/tt0205000/,,"Los Angeles, California, USA",,"Los Angeles, Los Angeles County, California, United States of America",34.0536909,-118.2427666
555,/title/tt0205000/,,"1329 Carroll Avenue, Central Los Angeles, Los Angeles, California, USA",,"Charmed House, 1329, Carroll Avenue, Echo Park, Los Angeles, Los Angeles County, California, 90026, United States of America",34.0694,-118.2540868
556,/title/tt0205000/,,"Echo Park, Los Angeles, California, USA",,"Echo Park, Los Angeles, Los Angeles County, California, United States of America",34.0779819,-118.2567824
557,/title/tt0120655/,,"Pittsburgh International Airport, Pittsburgh, Pennsylvania, USA",(Listed as General Mitchell Airport in the movie),,,
558,/title/tt0120655/,,"Grand Concourse Restaurant - 100 W. Station Square Drive, Pittsburgh, Pennsylvania, USA",(restaurant),,,
559,/title/tt0120655/,,"Highlands, New Jersey, USA",(scene outside of the bar),"Highlands, New Jersey, 07732, United States of America",40.40372,-73.991527
560,/title/tt0120655/,,"New Kensington, Pennsylvania, USA",,"New Kensington, Westmoreland County, Pennsylvania, 15068, United States of America",40.5697893,-79.7647705
561,/title/tt0120655/,,"Pittsburgh, Pennsylvania, USA",,"Pittsburgh, Allegheny County, Pennsylvania, United States of America",40.4416941,-79.9900861
562,/title/tt0120655/,,"Franklin Inn Mexican Restaurant Franklin Park, Pittsburgh, Pennsylvania, USA",(Mexican Restaurant),,,
563,/title/tt0120655/,,"Los Angeles, California, USA",,"Los Angeles, Los Angeles County, California, United States of America",34.0536909,-118.2427666
564,/title/tt0120655/,,"Burger King - 3210 Banksville Rd, Pittsburgh, Pennsylvania, USA",(Mooby's Fast Food Restaurant),,,
565,/title/tt1634122/,,"Hawley Woods, Farnborough, Hampshire, England, UK",(cable car station),,,
566,/title/tt1634122/,,"Macau, China",,"澳門 Macau, China 中国",22.1757605,113.5514142
567,/title/tt1634122/,,France,,France,46.603354,1.8883335
568,/title/tt1634122/,,"Brocket Hall, Lemsford, Welwyn Garden City, Hertfordshire, England, UK",,"Brocket Hall, Ayot Green, Ayot St Peter, Welwyn Hatfield, Hertfordshire, East of England, England, AL6 9BA, United Kingdom",51.80276485,-0.24050912270270453
569,/title/tt0098554/,,"Evanston, Illinois, USA",,"Evanston, Evanston Township, Cook County, Illinois, United States of America",42.0447388,-87.6930459
570,/title/tt0098554/,,"New Trier High School - 385 Winnetka Avenue, Winnetka, Illinois, USA",,"New Trier High School, 385, Winnetka Avenue, Winnetka, New Trier Township, Cook County, Illinois, 60093, United States of America",42.09447385,-87.71987657766421
571,/title/tt0098554/,,"Northbrook, Illinois, USA",,"Northbrook, Cook County, Illinois, 60062, United States of America",42.12753095,-87.8318855309532
572,/title/tt0098554/,,"Chicago, Illinois, USA",,"Chicago, Cook County, Illinois, United States of America",41.8755616,-87.6244212
573,/title/tt0098554/,,"Winnetka, Illinois, USA",,"Winnetka, New Trier Township, Cook County, Illinois, 60043, United States of America",42.1080703,-87.7365286
574,/title/tt0098554/,,"Lake Geneva, Wisconsin, USA",,"Lake Geneva, Walworth County, Wisconsin, United States of America",42.5916836,-88.4334301
575,/title/tt0098554/,,"Winnetka Bank - Elm St. & Greenbay Rd., Winnetka, Illinois, USA",,,,
576,/title/tt0098554/,,"495 North Milwaukee Avenue, Chicago, Illinois, USA",(Pub scene),"Emmit's Irish Pub, 495, North Milwaukee Avenue, West Town, Chicago, Cook County, Illinois, 60654, United States of America",41.8910574,-87.6471083
577,/title/tt0098554/,,"Palace Bowl - 5242 W. 25th Street, Cicero, Illinois, USA",(Bowling alley scenes),,,
578,/title/tt0098554/,,"Lake Forest, Illinois, USA",,"Lake Forest, Illinois, 60045, United States of America",42.2586342,-87.840625
579,/title/tt0098554/,,USA,,United States,39.7837304,-100.4458825
580,/title/tt1714915/,,"Tangier, Morocco",,"Tanger ⵟⴰⵏⵊⴰ طنجة, pachalik de Tanger طنجة, Préfecture de Tanger-Assilah عمالة طنجة-أصيلة, Tanger-Tétouan-Al Hoceima ⵟⴰⵏⵊ-ⵟⵉⵜⴰⵡⵉⵏ-ⵍⵃⵓⵙⵉⵎⴰ طنجة تطوان الحسيمة, 90013, Maroc",35.777103,-5.803792
581,/title/tt1714915/,,"82 Alfred Street, Detroit, Michigan, USA",(Adam's mansion),"J.P. Donaldson House, 82, Alfred Street, Woodward East Historic District, Midtown, Detroit, Wayne County, Michigan, 48201, United States of America",42.343119650000006,-83.05323630391896
582,/title/tt1714915/,,"Michigan Theater - 238 Bagley Street, Detroit, Michigan, USA",(Abandoned theatre),,,
583,/title/tt1714915/,,Morocco,,Maroc / ⵍⵎⵖⵔⵉⴱ / المغرب,31.1728205,-7.3362482
584,/title/tt1714915/,,USA,,United States,39.7837304,-100.4458825
585,/title/tt0107977/,,"Rancho Maria - 25933 Sand Canyon Road, Santa Clarita, California, USA",(ranch location),,,
586,/title/tt0107977/,,"Santa Clarita, California, USA",,"Santa Clarita, Los Angeles County, California, United States of America",34.3916641,-118.542586
587,/title/tt0107653/,,"England, UK",,"England, United Kingdom",52.7954791,-0.5402402866174321
588,/title/tt0055662/,,"750 Bel Air Road, Bel Air, Los Angeles, California, USA",(exterior: Beverly Hillbillies mansion),"750, Bel Air Road, Bel Air, Bel-Air, Los Angeles, Los Angeles County, California, 90077, United States of America",34.08629876558014,-118.4430393874721
589,/title/tt0055662/,,"General Service Studios - 1040 N. Las Palmas, Hollywood, Los Angeles, California, USA",,,,
590,/title/tt0055662/,,"Los Angeles, California, USA",,"Los Angeles, Los Angeles County, California, United States of America",34.0536909,-118.2427666
591,/title/tt1116186/,,"Panorama City, Los Angeles, California, USA",,"Panorama City, Los Angeles, Los Angeles County, California, 91402, United States of America",34.2242902,-118.4453745
592,/title/tt0456554/,,"Los Angeles, California, USA",,"Los Angeles, Los Angeles County, California, United States of America",34.0536909,-118.2427666
593,/title/tt0116000/,,"Northfield, Minnesota, USA",,"Northfield, Rice County, Minnesota, United States of America",44.4582041,-93.161159
594,/title/tt0116000/,,"Blake School - 511 Kenwood Parkway, Minneapolis, Minnesota, USA",,,,
595,/title/tt0116000/,,"Carleton College - One North College Street, Northfield, Minnesota, USA",,,,
596,/title/tt0116000/,,"Columbia Arena 7011 University Ave NE Fridley, Minnesota, USA",(Eden Hall Academy Ice Rink),,,
597,/title/tt0116000/,,"Irvine Park, St. Paul, Minnesota, USA",,"Irvine Park, St. Paul, Ramsey County, Minnesota, United States of America",44.9408794,-93.10267909450408
598,/title/tt0116000/,,"Minnehaha Falls, Minneapolis, Minnesota, USA",,"Minnehaha Falls, Minneapolis, Hennepin County, Minnesota, 55417, United States of America",44.9153316,-93.210983
599,/title/tt0116000/,,"Summit Hill, St. Paul, Minnesota, USA",,,,
600,/title/tt0101889/,,"Manhattan Bridge, New York City, New York, USA",,"Manhattan Bridge, Cadman Plaza West, DUMBO, Brooklyn, Kings County, New York, 11201-1832, United States of America",40.7069799,-73.99046625873834
601,/title/tt0101889/,,"101 Park Avenue, Manhattan, New York City, New York, USA",,"101 Park Avenue, 101, Park Avenue, Murray Hill, Manhattan Community Board 5, Manhattan, New York County, New York, 10016, United States of America",40.7508354,-73.97760948434279
602,/title/tt0101889/,,"15 Ann Street, Manhattan, New York City, New York, USA",(Anne's video shop),"Pita Express, 15, Ann Street, Financial District, Manhattan Community Board 1, Manhattan, New York County, New York, 10038, United States of America",40.7109559,-74.0078671
603,/title/tt0101889/,,"Metropolitan Life Tower - 11 Madison Avenue, Manhattan, New York City, New York, USA",(building where Lydia works),"Met Life Tower, 1, Madison Avenue, Flatiron District, Manhattan Community Board 5, Manhattan, New York County, New York, 10010, United States of America",40.741269450000004,-73.9873572760992
604,/title/tt0101889/,,"Los Angeles, California, USA",,"Los Angeles, Los Angeles County, California, United States of America",34.0536909,-118.2427666
605,/title/tt0101889/,,"146 W. 57th Street, Manhattan, New York City, New York, USA",(Jack Lucas' apartment),"146, West 57th Street, Midtown, Manhattan Community Board 5, Manhattan, New York County, New York, 10019, United States of America",40.76481753061224,-73.97859028571429
606,/title/tt0101889/,,"294 Fifth Avenue, Manhattan, New York City, New York, USA",(Lydia is eating chinese food here as Parry watches.),,,
607,/title/tt0101889/,,"157 W. 80th Street, Manhattan, New York City, New York, USA",(Lydia's apartment),"157, West 80th Street, Upper West Side, Manhattan Community Board 7, Manhattan, New York County, New York, 10024, United States of America",40.7835932,-73.97669292354792
608,/title/tt0227538/,,"Travis Park - 301 E Travis Street, San Antonio, Texas, USA",(the robot kids steal the Third Brain),,,
609,/title/tt0227538/,,"Santiago, Chile",(flyover shot of San Diablo),"Santiago, Provincia de Santiago, Región Metropolitana de Santiago, Chile",-33.4377968,-70.6504451
610,/title/tt0227538/,,"Reñaca, Viña del Mar, Región de Valparaíso, Chile",,"Reñaca, Viña del Mar, Provincia de Valparaíso, Región de Valparaíso, 2510513, Chile",-32.9715335,-71.5437133
611,/title/tt0227538/,,"Texas, USA",,"Texas, United States of America",31.8160381,-99.5120986
612,/title/tt0227538/,,"Austin-Bergstrom International Airport - 3600 Presidential Boulevard, Austin, Texas, USA",(airport in the opening),"Austin-Bergstrom International Airport (AUS), Presidential Boulevard, Austin, Travis County, Texas, 78742, United States of America",30.202122250000002,-97.6681283281297
613,/title/tt0227538/,,"Villa Del Sol - 6638 Comanche Trail, Austin, Texas, USA",(wedding scene),,,
614,/title/tt0120789/,,"Valencia High School - 27801 Dickason Drive, Valencia, California, USA",,,,
615,/title/tt0120789/,,"Santa Clarita, California, USA",,"Santa Clarita, Los Angeles County, California, United States of America",34.3916641,-118.542586
616,/title/tt0120789/,,"Parking lot, Malibu Creek State Park - 1925 Las Virgenes Road, Calabasas, California, USA",,,,
617,/title/tt0120789/,,"Blondie Street, Columbia/Warner Bros. Ranch - 411 North Hollywood Way, Burbank, California, USA",,,,
618,/title/tt0120789/,,"Universal Studios - 100 Universal City Plaza, Universal City, California, USA",(studio),,,
619,/title/tt0088011/,,"Jalapa, Veracruz, Mexico",,"Xalapa, Boulevard San Cristóbal, La Loma, El Tanque, Xalapa, Veracruz de Ignacio de la Llave, 91060, México",19.5126856,-96.9041599
620,/title/tt0088011/,,"Mexico City, Distrito Federal, Mexico",,"México, Calle Benito Juárez, Unidad Habitacional Integración Latinoamericana, Naucalpan, 04350, México",19.337797000000002,-99.17851255290537
621,/title/tt0088011/,,"Veracruz, Veracruz, Mexico",,"Veracruz, Municipio de Veracruz, Veracruz de Ignacio de la Llave, 91910, México",19.1798858,-96.135648
622,/title/tt0088011/,,"Veracruz, Mexico",(San Juan de Ulua fortress),"Veracruz de Ignacio de la Llave, México",19.333333,-96.666667
623,/title/tt0088011/,,"Barraca Grande, Mexico",(mountain roads),"Barraca, Avenida Eugene Levy, Praia das Maçãs, Colares, Sintra, Lisboa, Grande Lisboa, Área Metropolitana de Lisboa, 2705-297, Portugal",38.8248947,-9.468311568112433
624,/title/tt0088011/,,"New York City, New York, USA",,"New York, United States of America",40.7127281,-74.0060152
625,/title/tt0088011/,,"Tonaya, Jalisco, Mexico",,"Tonaya, Jalisco, México",19.86681275,-103.91820085013313
626,/title/tt1216475/,,"Walt Disney Animation Studios - 2100 Riverside Drive, Burbank, California, USA",,,,
627,/title/tt0319343/,,"55 Central Park West, Manhattan, New York City, New York, USA",(exterior of Walter and family's apartment),"55, Central Park West, Upper West Side, Manhattan Community Board 7, Manhattan, New York County, New York, 10023, United States of America",40.77230885,-73.97909828720665
628,/title/tt0319343/,,"Lincoln Tunnel, New York City, New York, USA",,"Lincoln Tunnel, Hudson Yards, Manhattan Community Board 4, Manhattan, New York County, Weehawken, Hudson County, New Jersey, 100036, United States of America",40.7588352,-73.9999574
629,/title/tt0319343/,,"Bethesda Fountain, Central Park, Manhattan, New York City, New York, USA",,"Bethesda Fountain, Bethesda Terrace, Manhattan, New York County, New York, 10023-5104, United States of America",40.7743182,-73.9708319
630,/title/tt0319343/,,"Midtown, Manhattan, New York City, New York, USA",,"Midtown, Manhattan Community Board 5, Manhattan, New York County, New York, United States of America",40.7601085,-73.97816329087175
631,/title/tt0319343/,,"New York City, New York, USA",,"New York, United States of America",40.7127281,-74.0060152
632,/title/tt0095444/,,"Watsonville, California, USA",(town: Crescent Cove),"Watsonville, Santa Cruz County, California, United States of America",36.9092773,-121.7529071
633,/title/tt0095444/,,"65 & 75 & 85 Nielson St,Watsonville, California, USA",(Interior of the ship was filmed in at the time a Seagate Computer Electronic's Manufacturing Facility. Now it's owned by Watsonville Community Hospital in present time.),,,
634,/title/tt0095444/,,"2-26 East Lake Ave, Watsonville, California, USA",(Opening Scene in front of Goodwill Store),"East Lake Avenue, Colache Town, Watsonville, Santa Cruz County, California, 95019-3025, United States of America",36.9174345,-121.7504798
635,/title/tt0095444/,,"California, USA",,"California, United States of America",36.7014631,-118.7559974
636,/title/tt0095444/,,USA,,United States,39.7837304,-100.4458825
637,/title/tt4680182/,,"Vancouver, British Columbia, Canada",,"Vancouver, Metro Vancouver Regional District, British Columbia, Canada",49.2608724,-123.1139529
638,/title/tt4680182/,,"Glover Road, Fort Langley, British Columbia, Canada",(Gloria's family home),"Glover Road, Fort Langley, Township of Langley, Metro Vancouver Regional District, British Columbia, V3A 4M8, Canada",49.1612045,-122.5875455
639,/title/tt4680182/,,"Harbour Green Park, Vancouver, British Columbia, Canada",(entrance to Seoul subway station),"Harbour Green Park, Coal Harbour, Downtown, Vancouver, Metro Vancouver Regional District, British Columbia, Canada",49.290212249999996,-123.12187126367904
640,/title/tt0387575/,,"Castel Film Studios, Bucharest, Romania",,,,
641,/title/tt0387575/,,"Los Angeles, California, USA",,"Los Angeles, Los Angeles County, California, United States of America",34.0536909,-118.2427666
642,/title/tt0387575/,,"California, USA",,"California, United States of America",36.7014631,-118.7559974
643,/title/tt0091059/,,"615 Idlewyld Drive, Fort Lauderdale, Florida, USA","(The Freemans' house, 1978)","615, Idlewyld Drive, Nurmi Isles, Fort Lauderdale, Broward County, Florida, 33301, United States of America",26.11530724704172,-80.109657
644,/title/tt0091059/,,"Watson Island, Miami, Florida, USA",(Disc Dog tournament opening scene),"Watson Island, Miami, Miami-Dade County, Florida, United States of America",25.7844577,-80.17536952284951
645,/title/tt0091059/,,"Fort Lauderdale, Florida, USA",,"Fort Lauderdale, Broward County, Florida, United States of America",26.1223084,-80.1433786
646,/title/tt0091059/,,"Golden Gate Bridge, San Francisco, California, USA",(flying scene),"Golden Gate Bridge, Moore Road, Belvedere Island, Marin County, California, 94965, United States of America",37.8176155,-122.47831240371913
647,/title/tt5117428/,,"Nashville, Tennessee, USA",,"Nashville-Davidson, Davidson County, Tennessee, United States of America",36.1622296,-86.7743531
