,Code,Show Name,Location,Scene,geocodedLocation,latitude,longitude
0,/title/tt0077687/,,USA,,United States,39.7837304,-100.4458825
1,/title/tt4903242/,,"Atlanta, Georgia, USA",(season 1),"Atlanta, Georgia, United States of America",33.7490987,-84.3901849
2,/title/tt4903242/,,Puerto Rico,(episodes 2.11 and 2.12),"Puerto Rico, Orocovis, Puerto Rico, United States of America",18.2214149,-66.41328179513847
3,/title/tt0091129/,,"Chung King Court, Los Angeles, California, USA",(Tommy Tong's restaurant),"Chung King, Fairview Avenue, San Gabriel, Los Angeles County, California, 91776, United States of America",34.0897984,-118.0906267
4,/title/tt0091129/,,"Judd St, Pacoima, California, USA",(following the bikers to their safehouse),"Judd Street, Pacoima, Los Angeles, Los Angeles County, California, 91331-2536, United States of America",34.2704392,-118.4216884
5,/title/tt0091129/,,"Greystone Park & Mansion - 905 Loma Vista Drive, Beverly Hills, California, USA",,,,
6,/title/tt0091129/,,"Pink's Hot Dogs - 709 N. La Brea Blvd., Los Angeles, California, USA",(opening credits),,,
7,/title/tt0091129/,,"Los Angeles, California, USA",,"Los Angeles, Los Angeles County, California, United States of America",34.0536909,-118.2427666
8,/title/tt0313911/,,"School of Theology, University of British Columbia, Robson Square Campus - 800 Robson Street, Vancouver, British Columbia, Canada",(William Donovan Preparatory School),,,
9,/title/tt0313911/,,"Burnaby, British Columbia, Canada",,"Burnaby, Metro Vancouver Regional District, British Columbia, Canada",49.2433804,-122.9725459
10,/title/tt0313911/,,"Surrey, British Columbia, Canada",,"Surrey, Metro Vancouver Regional District, British Columbia, Canada",49.1913033,-122.8491439
11,/title/tt0313911/,,"Los Angeles, California, USA",,"Los Angeles, Los Angeles County, California, United States of America",34.0536909,-118.2427666
12,/title/tt0313911/,,"Industrial District, Seattle, Washington, USA","(second-unit helicopter shots) (coordinates for shot: 47°34'34.1""N, 122°19'36.6""W)",,,
13,/title/tt0313911/,,Canada,,Canada,61.0666922,-107.9917071
14,/title/tt0313911/,,"Service Station, Simon Fraser University - 8888 University Drive, Burnaby, British Columbia, Canada","(CIA recruitment center/Kamp Woody Gate) (coordinates: 49°16'50.4""N, 122°55'17.5""W)",,,
15,/title/tt0313911/,,"Chesterfield Avenue, North Vancouver, British Columbia, Canada",(Cody chases a woman's runaway car and saves a child) (in between 5th Street W and Carrie Gates Court),"Chesterfield Avenue, Upper Lonsdale, District of North Vancouver, Metro Vancouver Regional District, British Columbia, V7N 4N5, Canada",49.3388213,-123.0750417
16,/title/tt0313911/,,"NW Marine Drive and Tolmie Street, Vancouver, British Columbia, Canada",(Ronica gives Cody her car),,,
17,/title/tt0313911/,,"Britannia Beach Dock, Britannia Beach, British Columbia, Canada","(Rusty's Fly Fishing) (coordinates: 49°37'27.3""N, 123°12'26.5""W)",,,
18,/title/tt0329774/,,"Washington, District of Columbia, USA",,"Washington, District of Columbia, 20230, United States of America",38.8949924,-77.0365581
19,/title/tt0329774/,,"Los Angeles, California, USA",,"Los Angeles, Los Angeles County, California, United States of America",34.0536909,-118.2427666
20,/title/tt0402901/,,"Bucharest, Romania",,"Municipiul București, România",44.4361414,26.1027202
21,/title/tt0402901/,,"Zarnesti, Romania",,"Zărnești, Brașov, 505800, România",45.5594763,25.3154513
22,/title/tt0402901/,,"MediaPro Studios, Bucharest, Romania",,,,
23,/title/tt0402901/,,Mexico,,"Ciudad de México, 06060, México",19.4326296,-99.1331785
24,/title/tt0816436/,,"Darwin, Northern Territory, Australia",,"Darwin, City of Darwin, Northern Territory, 0800, Australia",-12.46044,130.8410469
25,/title/tt0816436/,,"Northern Territory, Australia",,"Northern Territory, Australia",-19.8516101,133.2303375
26,/title/tt0816436/,,"Oatley, New South Wales, Australia",,"Oatley, St George, Georges River Council, New South Wales, 2223, Australia",-33.9841882,151.0743856
27,/title/tt0076740/,,"Bisti-De-Na-Zin Wilderness, New Mexico, USA",(last truck breaking down),"Bisti/De-Na-Zin Wilderness, San Juan County, New Mexico, United States of America",36.3019149,-108.12185487797129
28,/title/tt0076740/,,"Zócalo, Veracruz, Veracruz, Mexico",(opening scene),"Zócalo, CENTRO, Centro, Municipio de Veracruz, Veracruz de Ignacio de la Llave, México",19.20021645,-96.13850131188718
29,/title/tt0076740/,,"Alto Gracia, Dominican Republic",,,,
30,/title/tt0076740/,,"Pré Catelan, Bois de Boulogne, Paris 16, Paris, France",(restaurant where Pascal commits suicide),,,
31,/title/tt0076740/,,"Angel Peak National Recreation Area, Bloomfield, New Mexico, USA",,,,
32,/title/tt0076740/,,"Veracruz, Veracruz, Mexico",,"Veracruz, Municipio de Veracruz, Veracruz de Ignacio de la Llave, 91910, México",19.1798858,-96.135648
33,/title/tt0076740/,,"La Bourse, Paris 2, Paris, France",(stock exchange),"Bourse, Place de la Bourse, Quartier Vivienne, Paris 2e Arrondissement, Paris, Île-de-France, France métropolitaine, 75002, France",48.8686296,2.3414739
34,/title/tt0076740/,,"Chambre de Commerce av Fiedland Paris, France",(Bourse Offices & corridor),,,
35,/title/tt0076740/,,USA,,United States,39.7837304,-100.4458825
36,/title/tt0067334/,,"Circuit des 24 Heures du Mans, Le Mans, Sarthe, France",,"Circuit des 24 Heures du Mans, Cité des Pins, Le Houx, Le Mans, Sarthe, Pays de la Loire, France métropolitaine, 72100, France",47.9579416,0.2128319
37,/title/tt1320291/,,"Port Lincoln, South Australia, Australia",(environs) (shark footage) (location: Neptune Islands),"City of Port Lincoln, South Australia, 5606, Australia",-34.7284175,135.8563199414681
38,/title/tt1320291/,,"Hervey Bay, Queensland, Australia",,"Hervey Bay, Fraser Coast Regional, Queensland, 4655, Australia",-25.2985784,152.8535216
39,/title/tt1320291/,,"Coast, South Australia, Australia",(shark footage) (location: Neptune Islands),"Copper Coast Council, South Australia, Australia",-33.9403987,137.73171829846203
40,/title/tt1320291/,,"Neptune Island, South Australia, Australia",(shark footage),,,
41,/title/tt1320291/,,"Neptune Islands Conservation Park, South Australia, Australia",(shark footage),"Neptune Islands Conservation Park, South Australia, Australia",-35.23105615,136.07023325913505
42,/title/tt1320291/,,"South Neptune Island, Neptune Islands, South Australia, Australia",(shark footage),,,
43,/title/tt1320291/,,"Lady Elliot Island, Queensland, Australia",(underwater swimming scenes),"Lady Elliot Island, Queensland, Australia",-24.113146,152.7150238579305
44,/title/tt1320291/,,"South Australia, Australia",(shark footage) (location: Neptune Islands),"South Australia, Australia",-30.5343665,135.6301212
45,/title/tt0116039/,,"Bossier City, Louisiana, USA",,"Bossier City, Bossier Parish, Louisiana, United States of America",32.5369356,-93.6952689
46,/title/tt0116039/,,"Isle of Capri Casino - 3033 Hilton Drive, Bossier City, Louisiana, USA",,,,
47,/title/tt0116039/,,"Maxim Hotel & Casino - 160 E. Flamingo Road, Las Vegas, Nevada, USA",,,,
48,/title/tt0116039/,,"Santa Monica Pier, Santa Monica, California, USA",,"Santa Monica Pier, Santa Monica, Los Angeles County, California, United States of America",34.00889605,-118.49740225045329
49,/title/tt0116039/,,"Shreveport, Louisiana, USA",,"Shreveport, Caddo Parish, Louisiana, United States of America",32.5221828,-93.7651944
50,/title/tt0105466/,,"Britannia Beach, British Columbia, Canada",,"Britannia Beach, Area D (Elaho/Garibaldi), Squamish-Lillooet Regional District, British Columbia, V0N 1J0, Canada",49.626392,-123.206005
51,/title/tt0105466/,,"Florence, Arizona, USA",,"Florence, Pinal County, Arizona, 85132, United States of America",33.0314508,-111.3873431
52,/title/tt0277941/,,"Clunes, Victoria, Australia",,"Clunes, Shire of Hepburn, Victoria, 3370, Australia",-37.287625,143.78029158071917
53,/title/tt0277941/,,"Ballarat, Victoria, Australia",(Melbourne),"Ballarat, City of Ballarat, Victoria, 3350, Australia",-37.5622632,143.8607215
54,/title/tt0277941/,,"Mount Rothwell, Little River, Victoria, Australia",,,,
55,/title/tt0277941/,,"Melbourne, Victoria, Australia",,"Melbourne, City of Melbourne, Victoria, 3000, Australia",-37.8142176,144.9631608
56,/title/tt0277941/,,"Broadford, Victoria, Australia",,"Broadford, Shire of Mitchell, Victoria, 3658, Australia",-37.2019939,145.0504004
57,/title/tt0367424/,,"Santa Monica, California, USA",,"Santa Monica, Los Angeles County, California, United States of America",34.0250724,-118.4965129
58,/title/tt0325703/,,"Snowdonia, Gwynedd, Wales, UK",(China),"Snowdonia National Park, Trawsfynydd, Gwynedd, Cymru / Wales, United Kingdom",52.9155626,-3.8326012926334223
59,/title/tt0325703/,,"Amboseli National Park, Kenya","(Hellsgate National Park, Kenya)","Amboseli National Park, Kajiado, Kenya",-2.6298084,37.22602053536994
60,/title/tt0325703/,,"Nantgwynant, Wales, U.K.",(Chinese village),"Nantgwynant, Gwynedd, Cymru / Wales, LL55 4NQ, United Kingdom",53.0402347,-4.0432231
61,/title/tt10060094/,,"Tullamore, County Offaly, Ireland",,"Tullamore, County Offaly, Leinster, Ireland",53.2743191,-7.4928384
62,/title/tt0083001/,,"Soledad Canyon, California, USA",,"Soledad Canyon Road, Honby, Canyon Country, Santa Clarita, Los Angeles County, California, 91350, United States of America",34.4216458,-118.4918603
63,/title/tt0064418/,,"Garrison Railway Station, Garrison, New York, USA",(Yonkers train station),"Garrison, 1, Upper Station Road, Garrison, Town of Philipstown, Putnam County, New York, 10524, United States of America",41.3809926,-73.9473575
64,/title/tt0064418/,,"Metro-North Station, Poughkeepsie, New York, USA",(New York City train station),,,
65,/title/tt0064418/,,"Backlot, 20th Century Fox Studios - 10201 Pico Blvd., Century City, Los Angeles, California, USA",(exteriors New York City scenes),,,
66,/title/tt0064418/,,"Golden Eagle Inn, Garrison, New York, USA",(grocery store of Horace Vandergelder),,,
67,/title/tt0064418/,,"Stage 14, 20th Century Fox Studios - 10201 Pico Blvd., Century City, Los Angeles, California, USA",(studio),,,
68,/title/tt0064418/,,"Stage 6, 20th Century Fox Studios - 10201 Pico Blvd., Century City, Los Angeles, California, USA",,,,
69,/title/tt0060018/,,"Yuma, Arizona, USA",,"Yuma, Yuma County, Arizona, 85364, United States of America",32.6926588,-114.6276157
70,/title/tt0060018/,,"Mojave Desert, Arizona, USA",,"Mojave Desert Information Center, Victory Drive, Parker Junction, Needles, San Bernardino County, California, 92363, United States of America",34.8184036,-114.6011118
71,/title/tt0060018/,,"Almería, Andalucía, Spain",,"Almería, Andalucía, España",36.8414197,-2.4628135
72,/title/tt0060018/,,"Parker, Arizona, USA",,"Parker, La Paz County, Arizona, United States of America",34.1498408,-114.2889608
73,/title/tt0060018/,,"California, USA",,"California, United States of America",36.7014631,-118.7559974
74,/title/tt0060018/,,"Cabo de Gata, Almería, Andalucía, Spain",,"Cabo de Gata, AL-3115, La Fabriquilla, Níjar, Almería, Andalucía, España",36.7210296,-2.1932327
75,/title/tt0060018/,,"Roquetas de Mar, Almería, Andalucía, Spain",,"Roquetas de Mar, Almería, Andalucía, España",36.7630203,-2.6115886
76,/title/tt0060018/,,"Mojácar, Almería, Andalucía, Spain",,"Mojácar, Almería, Andalucía, 04638, España",37.1402087,-1.8510071
77,/title/tt0184907/,,"Edmonton, Alberta, Canada",(studio) (exteriors: weather studio),"Edmonton, Alberta, Canada",53.535411,-113.507996
78,/title/tt0184907/,,"New York, USA",,"New York, United States of America",40.7127281,-74.0060152
79,/title/tt0184907/,,"Galaxie Diner, 1413 11 St SW, Calgary, Alberta, Canada",(diner),"Galaxie Diner, 1417-1419, 11 Street SW, 17th Ave Retail & Entertainment District, Lower Mount Royal, Calgary, Alberta, T2T 0B6, Canada",51.0395657,-114.0892774
80,/title/tt1073105/,,"Bourne Woods, Farnham, Surrey, England, UK",,,,
81,/title/tt1073105/,,"Ealing Studios, Ealing, London, England, UK",,"Ealing Studios, London Borough of Ealing, London, Greater London, England, United Kingdom",51.50903755,-0.30734058249777363
82,/title/tt0211181/,,"St. Pancras Station, St. Pancras, London, England, UK",,"Boots, Pancras Road, London Borough of Camden, London, Greater London, England, N1C 4QL, United Kingdom",51.5327386,-0.1264236
83,/title/tt0211181/,,France,,France,46.603354,1.8883335
84,/title/tt0211181/,,"London, England, UK",,"London, Greater London, England, United Kingdom",51.5073219,-0.1276474
85,/title/tt0211181/,,"Paris, France",,"Paris, Île-de-France, France métropolitaine, 75004, France",48.8566969,2.3514616
86,/title/tt0067976/,,"Duart Castle, Mull, Argyll and Bute, Scotland, UK",,"Duart Castle, Isle of Mull Railway, Craignure, Argyll and Bute, Scotland, PA65 6AZ, United Kingdom",56.4560965,-5.6551098357915475
87,/title/tt0067976/,,"Tobermory, Mull, Argyll and Bute, Scotland, UK",,,,
88,/title/tt0067976/,,"Scotland, UK",,"Scotland, United Kingdom",56.7861112,-4.1140518
89,/title/tt0494238/,,"Balestrino, Savona, Liguria, Italy",,"Balestrino, Savona, Liguria, 17020, Italia",44.12513,8.1715202
90,/title/tt0494238/,,"Entraque, Cuneo, Piedmont, Italy",,,,
91,/title/tt0494238/,,"Shepperton Studios, Shepperton, Surrey, England, UK",(studio),,,
92,/title/tt0494238/,,Italy,(second unit),Italia,42.6384261,12.674297
93,/title/tt0494238/,,"A Stage, Shepperton Studios, Shepperton, Surrey, England, UK",,,,
94,/title/tt0494238/,,"C Stage, Shepperton Studios, Shepperton, Surrey, England, UK",,,,
95,/title/tt0494238/,,"D Stage, Pinewood Studios, Iver Heath, Buckinghamshire, England, UK",,,,
96,/title/tt0494238/,,"F Stage, Shepperton Studios, Shepperton, Surrey, England, UK",,,,
97,/title/tt0494238/,,"K Stage, Shepperton Studios, Shepperton, Surrey, England, UK",,,,
98,/title/tt0494238/,,"W Stage, Shepperton Studios, Shepperton, Surrey, England, UK",,,,
99,/title/tt1093357/,,"Lenin Square, Moscow, Russia",,"Ленинская площадь, район Якиманка, Центральный административный округ, Москва, Центральный федеральный округ, Россия",55.73095585,37.60372358177441
100,/title/tt1093357/,,"GUM Department Store, Moscow, Russia",,"Государственный универсальный магазин (ГУМ), 3, Красная площадь, Китай-город, Тверской район, Центральный административный округ, Москва, Центральный федеральный округ, 109012, Россия",55.754693599999996,37.621455538022964
101,/title/tt1093357/,,"Moscow, Russia",,"Москва, Центральный административный округ, Москва, Центральный федеральный округ, Россия",55.7504461,37.6174943
102,/title/tt0383385/,,"Los Angeles, California, USA",(Los Santos),"Los Angeles, Los Angeles County, California, United States of America",34.0536909,-118.2427666
103,/title/tt0383385/,,"Las Vegas, Nevada, USA",(Las Venturas),"Las Vegas, Clark County, Nevada, United States of America",36.1672559,-115.1485163
104,/title/tt0102070/,,"Castello di San Leo, Rimini, Emilia-Romagna, Italy",(medieval castle),"Castello, 12, Piazza Dante Alighieri, Le Celle, San Leo, Unione di comuni Valmarecchia, Rimini, Emilia-Romagna, 47865, Italia",43.8964754,12.3431538
105,/title/tt0102070/,,"Emilia-Romagna, Italy",,"Emilia-Romagna, Italia",44.525696,11.039437
106,/title/tt0102070/,,"Hoboken, New Jersey, USA",(Five-Tone exteriors),"Hoboken, Hudson County, New Jersey, United States of America",40.7433066,-74.0323752
107,/title/tt0102070/,,"London, England, UK",,"London, Greater London, England, United Kingdom",51.5073219,-0.1276474
108,/title/tt0102070/,,"New York, USA",,"New York, United States of America",40.7127281,-74.0060152
109,/title/tt0102070/,,"Palazzo della Civiltà Italiana, E.U.R., Rome, Lazio, Italy",,"Palazzo della Civiltà del Lavoro, Quadrato della Concordia, Quartiere XXXII Europa, Roma, Roma Capitale, Lazio, Italia",41.836705300000006,12.465123903984251
110,/title/tt0102070/,,"Piazza Navona, Rome, Lazio, Italy",,"Piazza Navona, Via Agonale, Rione VI Parione, Municipio Roma I, Roma, Roma Capitale, Lazio, 00186, Italia",41.8989155,12.473118536497108
111,/title/tt0102070/,,"Rome, Lazio, Italy",,"Roma Capitale, Lazio, Italia",41.85223935,12.631036615953583
112,/title/tt0102070/,,Vatican City,,"Città del Vaticano, 00120, Città del Vaticano",41.9034912,12.4528349
113,/title/tt0102070/,,"Brooklyn Bridge, New York City, New York, USA",(chase),"Brooklyn Bridge, Dover Street, Financial District, Manhattan Community Board 1, Manhattan, New York County, New York, 10038, United States of America",40.70569125,-73.9963578678543
114,/title/tt0102070/,,"Piazza di Santa Maria in Trastevere, Rome, Lazio, Italy",,"Piazza di Santa Maria in Trastevere, Rione XIII Trastevere, Municipio Roma I, Roma, Roma Capitale, Lazio, 00153, Italia",41.8897479,12.4702163
115,/title/tt0102070/,,"Kennedy Blvd E, Weehawken, New Jersey, USA",(Driving scene leaving from prison.),,,
116,/title/tt0102070/,,"Cinecittà Studios, Cinecittà, Rome, Lazio, Italy",(studio),,,
117,/title/tt0102070/,,Italy,,Italia,42.6384261,12.674297
118,/title/tt0102070/,,UK,,United Kingdom,54.7023545,-3.2765753
119,/title/tt0477302/,,"New York, USA",,"New York, United States of America",40.7127281,-74.0060152
120,/title/tt0477302/,,"JC Studios, Brooklyn, New York City, New York, USA",(studio),,,
121,/title/tt0477302/,,USA,,United States,39.7837304,-100.4458825
122,/title/tt0318462/,,"Chuquicamata, Región de Antofagasta, Chile",,"Chuquicamata, Calama, Provincia de El Loa, Región de Antofagasta, Chile",-22.28686445,-68.90072993673614
123,/title/tt0318462/,,"Bariloche, Argentina",,"San Carlos de Bariloche, Municipio de San Carlos de Bariloche, Río Negro, 8400, Argentina",-41.1334421,-71.3098425
124,/title/tt0318462/,,Colombia,,Colombia,2.8894434,-73.783892
125,/title/tt0318462/,,"Temuco, Chile",,"Temuco, Provincia de Cautín, Región de la Araucanía, Chile",-38.7362611,-72.590546
126,/title/tt0318462/,,"Villa La Angostura, Neuquén, Argentina",,"Villa La Angostura, Departamento Los Lagos, Neuquén, Argentina",-40.7740917,-71.62500883800311
127,/title/tt0318462/,,"Buenos Aires, Federal District, Argentina",,,,
128,/title/tt0318462/,,"Havana, Cuba",,"La Habana, La Habana Vieja, Cuba",23.135305,-82.3589631
129,/title/tt0318462/,,"Machu Picchu, Peru",,"Ciudadela de Machu Picchu, Camino a Puente Inka, San Miguel, Machupicchu, Urubamba, Cusco, 08680, Peru",-13.16441865,-72.54476397431836
130,/title/tt0318462/,,Peru,,Perú,-6.8699697,-75.0458515
131,/title/tt0318462/,,Cuba,,Cuba,23.0131338,-80.8328748
132,/title/tt0318462/,,"Freire, Chile",,"Freire, Provincia de Cautín, Región de la Araucanía, Chile",-38.9514242,-72.6254333
133,/title/tt0318462/,,"Lautaro, Región de la Araucanía, Chile",,"Lautaro, Provincia de Cautín, Región de la Araucanía, 4860000, Chile",-38.534312,-72.4350504
134,/title/tt0087903/,,Morocco,(desert),Maroc / ⵍⵎⵖⵔⵉⴱ / المغرب,31.1728205,-7.3362482
135,/title/tt7025388/,,"St. Petersburg, Russia",(Locations in the colder parts of the city),"Санкт-Петербург, Центральный район, Санкт-Петербург, Северо-Западный федеральный округ, 190000, Россия",59.938732,30.316229
136,/title/tt3038708/,,"AED Studios, Lint, Flanders, Belgium","(studio) (AED Studios, Lint, Flanders, Belgium)","AED Studios, 38, Fabriekstraat, Lint, Antwerpen, Vlaanderen, 2547, België - Belgique - Belgien",51.13560855,4.477644126115031
137,/title/tt0265298/,,"Whittier, California, USA",,"Whittier, Los Angeles County, California, United States of America",33.9708782,-118.0308396
138,/title/tt0265298/,,"Monrovia, California, USA",,"Monrovia, Los Angeles County, California, United States of America",34.1483499,-118.0014517
139,/title/tt0265298/,,"Stage 1, Universal Studios - 100 Universal City Plaza, Universal City, California, USA",,,,
140,/title/tt0265298/,,"Glendale, California, USA",,"Glendale, Los Angeles County, California, United States of America",34.1469416,-118.2478471
141,/title/tt0265298/,,"Pasadena, California, USA",,"Pasadena, Los Angeles County, California, United States of America",34.1476452,-118.1444779
142,/title/tt1224378/,,"Sychrov State Castle, Liberec District, Liberec Region, Czech Republic",,,,
143,/title/tt0066516/,,"Pruhonice, Czech Republic",,"Průhonice, okres Praha-západ, Středočeský kraj, Střední Čechy, 25243, Česká republika",49.9952056,14.564819030506728
144,/title/tt0066516/,,"Kostelní Vydrí, Czech Republic",,"Kostelní Vydří, okres Jindřichův Hradec, Jihočeský kraj, Jihozápad, Česká republika",49.1060609,15.4216563
145,/title/tt0109890/,,"Prescott, Arizona, USA",,"Prescott, Yavapai County, Arizona, United States of America",34.5399962,-112.4687616
146,/title/tt0109890/,,"Hotel Del Sol - 200 East 3rd Street, Yuma, Arizona, USA",,,,
147,/title/tt0109890/,,"Flagstaff, Arizona, USA",,"Flagstaff, Coconino County, Arizona, United States of America",35.1987522,-111.6518229
148,/title/tt0109890/,,"Coolidge, Arizona, USA",,"Coolidge, Pinal County, Arizona, 85128, United States of America",32.977839,-111.517624
149,/title/tt0109890/,,"Arizona Biltmore Resort & Spa - 2400 E Missouri Avenue, Phoenix, Arizona, USA",,,,
150,/title/tt0109890/,,"Phoenix Greyhound Park - 3801 E. Washington Street, Phoenix, Arizona, USA",,,,
151,/title/tt0109890/,,"Phoenix, Arizona, USA",,"Phoenix, Maricopa County, Arizona, United States of America",33.4484367,-112.0741417
152,/title/tt0109890/,,USA,,United States,39.7837304,-100.4458825
153,/title/tt0096378/,,"Cuenca, Ecuador",,"Cuenca, Luis Cordero, Urbanización Del Molino del Arco, Virgen de las Nieves, El Sagrario, Cuenca, Azuay, 010150, Ecuador",-2.8970399,-79.0039477
154,/title/tt0096378/,,"32 Washington Place, Manhattan, New York City, New York, USA",(exterior of Department of Para-Normal Studies Testing Laboratory),"32, Washington Place, NoHo, Manhattan Community Board 2, NoHo Historic District, New York County, New York, 10003, United States of America",40.729817524999994,-73.9955877
155,/title/tt1613750/,,"Nu Boyana Film Studios, Sofia, Bulgaria",(New York exterior scenes),,,
156,/title/tt1613750/,,Maldives,,ދިވެހިރާއްޖެ,4.7064352,73.3287853
157,/title/tt1613750/,,"Khao Lak, Thailand",,"เขาหลัก, จังหวัดพังงา, ประเทศไทย",8.6125823,98.2392671
158,/title/tt1613750/,,Malta,,Malta,35.8885993,14.4476911
159,/title/tt1613750/,,"Phuket, Thailand",,"จังหวัดภูเก็ต, ประเทศไทย",7.9366015,98.3529292
160,/title/tt1613750/,,"Asker, Akershus, Norway",,,,
161,/title/tt1613750/,,"New York City, New York, USA",,"New York, United States of America",40.7127281,-74.0060152
162,/title/tt0129332/,,"Barrandov Studios, Prague, Czech Republic",(studio),,,
163,/title/tt0129332/,,"High Tatras, Slovakia",,"Vysoké Tatry, Cesta slobody, Starý Smokovec, Vysoké Tatry, okres Poprad, Prešovský kraj, Východné Slovensko, 06201, Slovensko",49.1403978,20.2231733
164,/title/tt0129332/,,Slovakia,,Slovensko,48.7411522,19.4528646
165,/title/tt0129332/,,Mexico,,"Ciudad de México, 06060, México",19.4326296,-99.1331785
166,/title/tt0037382/,,"Stage 28A, Warner Brothers Burbank Studios - 4000 Warner Boulevard, Burbank, California, USA",,,,
167,/title/tt0037382/,,"Balboa, Newport Beach, California, USA",,"Balboa, Newport Beach, Orange County, California, 92661, United States of America",33.6006761,-117.8971141
168,/title/tt2261331/,,"River Medway, Strood, Medway, Kent, England, UK",(Black Widow) (Submarine),,,
169,/title/tt2261331/,,"Copse Manor, Virginia Water, Surrey, UK",,,,
170,/title/tt2261331/,,Russia,,Россия,64.6863136,97.7453061
171,/title/tt2261331/,,Ukraine,,Україна,49.4871968,31.2718321
172,/title/tt5360952/,,"Vakarel, Bulgaria",(Bulgaria),"Вакарел, Ихтиман, Софийска, 2060, България",42.5560379,23.7113759
173,/title/tt0446809/,,"International Waters, Bering Sea",,,,
174,/title/tt0052948/,,"Edinburgh University, Edinburgh, Scotland, UK",,"University of Edinburgh, Forrest Road, Old Town, Edinburgh, City of Edinburgh, Scotland, EH1 2QN, United Kingdom",55.9441283,-3.1884063612377216
175,/title/tt0052948/,,"Lone Pine, California, USA",(Little Lake and Fossil Falls as Iceland),"Lone Pine, Inyo County, California, 93545, United States of America",36.583175999999995,-118.07835929489717
176,/title/tt0052948/,,"Malibu, California, USA",,"Malibu, Los Angeles County, California, 90265-4797, United States of America",34.035591,-118.689423
177,/title/tt0052948/,,"The Mound, Edinburgh, Scotland, UK",,"The Mound, Old Town, Edinburgh, City of Edinburgh, Scotland, United Kingdom",55.9510185,-3.1958113516485582
178,/title/tt0052948/,,"Ainslie Place, Edinburgh, Scotland, UK",(Lindenbrook's house),"Ainslie Place, Moray Feu, Stockbridge, Edinburgh, City of Edinburgh, Scotland, EH3 6AU, United Kingdom",55.9529183,-3.2101152
179,/title/tt0054953/,,"Rhodes Harbour, Rhodes, Greece",(harbour where party departs),,,
180,/title/tt0054953/,,"Ile de Gorée, Dakar, Senegal",(exterior cliffs),"Île de Gorée, Dakar, 10300, Sénégal",14.66720465,-17.398356301764487
181,/title/tt0054953/,,"Zacatecas, Zacatecas, Mexico",,"Zacatecas, Municipio de Zacatecas, Zacatecas, 98000, México",22.7753891,-102.5722706
182,/title/tt0054953/,,"Shepperton Studios, Shepperton, Surrey, England, UK",(studio) (interiors),,,
183,/title/tt1034389/,,"Loch Lomond, Argyll and Bute, Scotland, UK",,"Luss Village, Loch Lomond A82 Bus Bay, A82, Collychippen, Luss, Argyll and Bute, Scotland, G83 8FB, United Kingdom",56.1005705,-4.6425873
184,/title/tt1034389/,,"Summer Isles, Highland, Scotland, UK",,"Summer Isles Hotel, C1047, Badentarbet, Achiltibuie, Highland, Scotland, IV26 2YG, United Kingdom",58.0181992,-5.3427915
185,/title/tt1034389/,,Hungary,,Magyarország,47.1817585,19.5060937
186,/title/tt1034389/,,"Achiltibuie, Ross and Cromarty, Highland, Scotland, UK",,,,
187,/title/tt1034389/,,"Film City Glasgow, Govan, Glasgow, Strathclyde, Scotland, UK",,,,
188,/title/tt1034389/,,"Stirling, Scotland, UK",(battle scene),"Stirling, Scotland, FK8 2DD, United Kingdom",56.1181242,-3.9360012
189,/title/tt0207919/,,"Toronto, Ontario, Canada",,"Toronto, Golden Horseshoe, Ontario, Canada",43.6534817,-79.3839347
190,/title/tt0385004/,,"Lviv, Ukraine",,"Львів, Галицький район, Львівська міська рада, Львівська область, Україна",49.841952,24.0315921
191,/title/tt0385004/,,Ukraine,,Україна,49.4871968,31.2718321
192,/title/tt0385004/,,"Beijing, China",(studio) (soundstage within Beijing film studio),"北京市, 通州区, 北京市, China 中国",39.9020668,116.718583
193,/title/tt2964642/,,"Kavik River Camp, Alaska, USA",,"Kavik River Camp, North Slope, Alaska, United States of America",69.67505965000001,-146.90117229063276
194,/title/tt2964642/,,"Eagle, Alaska, USA",,"Eagle, Unorganized Borough, Alaska, 99738, United States of America",64.7853016,-141.2072871
195,/title/tt2964642/,,"Arctic National Wildlife Refuge, Alaska, USA",,"Arctic National Wildlife Refuge, Alaska, 99747, United States of America",68.45635705000001,-143.61048251073333
196,/title/tt2964642/,,"Calico Bluff, Alaska, USA",,"Calico Bluff, Unorganized Borough, Alaska, United States of America",64.9119673,-141.1910003321447
197,/title/tt2964642/,,"Wiseman, Alaska, USA",,"Wiseman, Dalton Highway, Wiseman, Unorganized Borough, Alaska, United States of America",67.44623250000001,-150.10604868259767
198,/title/tt0116253/,,"San Juan, Puerto Rico",(wedding and kidnapping),"San Juan, Puerto Rico, 00901, United States of America",18.465299,-66.116666
199,/title/tt0116253/,,"Chino Airport - 7000 Merrill Avenue, Chino, California, USA",,"Chino Airport, Merrill Avenue, Chino, San Bernardino County, California, 91762, United States of America",33.973959300000004,-117.63479292408307
200,/title/tt0116253/,,"Stage 20, Warner Brothers Burbank Studios - 4000 Warner Boulevard, Burbank, California, USA",,,,
201,/title/tt0116253/,,"Mobile, Alabama, USA",,"Mobile, Mobile County, Alabama, United States of America",30.6943566,-88.0430541
202,/title/tt1837636/,,Morocco,,Maroc / ⵍⵎⵖⵔⵉⴱ / المغرب,31.1728205,-7.3362482
203,/title/tt1837636/,,Jordan,,الأردن,31.1667049,36.941628
204,/title/tt1837636/,,"Merzouga, Erfoud, Morocco",,,,
205,/title/tt1837636/,,"West Wycombe Park, West Wycombe, Buckinghamshire, England, UK",,"West Wycombe Park, Oxford Road, West Wycombe, Buckinghamshire, South East, England, HP14 3AP, United Kingdom",51.644135649999996,-0.8054521180200145
206,/title/tt1837636/,,"London, England, UK",,"London, Greater London, England, United Kingdom",51.5073219,-0.1276474
207,/title/tt0400497/,,"Baldwin Park, California, USA",,"Baldwin Park, Los Angeles County, California, 91706, United States of America",34.0854739,-117.9611761
208,/title/tt0400497/,,"Pomona, California, USA",,"Pomona, Los Angeles County, California, United States of America",34.0553813,-117.7517496
209,/title/tt0400497/,,"Hansen Dam Recreation Area - 11770 Foothill Boulevard, Lake View Terrace, Los Angeles, California, USA",,,,
210,/title/tt0400497/,,"Palmdale, California, USA",,"Palmdale, Los Angeles County, California, United States of America",34.5793131,-118.1171108
211,/title/tt0400497/,,"Walt Disney Studios, 500 South Buena Vista Street, Burbank, California, USA",,,,
212,/title/tt0400497/,,"Los Angeles, California, USA",,"Los Angeles, Los Angeles County, California, United States of America",34.0536909,-118.2427666
213,/title/tt0400497/,,"Royce Hall - 340 Royce Drive, UCLA, Westwood, Los Angeles, California, USA",,,,
214,/title/tt0400497/,,"Vancouver, British Columbia, Canada",,"Vancouver, Metro Vancouver Regional District, British Columbia, Canada",49.2608724,-123.1139529
215,/title/tt0053580/,,"Brackettville, Texas, USA",(San Antonio setting),"Brackettville, Kinney County, Texas, 78837, United States of America",29.3135346,-100.4157576
216,/title/tt0053580/,,Mexico,(Start of production shooting),"Ciudad de México, 06060, México",19.4326296,-99.1331785
217,/title/tt0116705/,,"Mickey's Diner - 36 W. 7th Street, St. Paul, Minnesota, USA",,,,
218,/title/tt0116705/,,"Camp Snoopy, Mall of America, Bloomington, Minnesota, USA",,,,
219,/title/tt0116705/,,"Hamm Plaza - St. Peter & 6th Streets, St. Paul, Minnesota, USA",,,,
220,/title/tt0116705/,,"Nicollet Island, Minneapolis, Minnesota, USA",,"Nicollet Island, Minneapolis, Hennepin County, Minnesota, United States of America",44.9874791,-93.26307817582612
221,/title/tt0116705/,,"Zumbro Cafe - 4302 Upton Ave S, Minneapolis, Minnesota, USA",,,,
222,/title/tt0116705/,,"Hennepin Avenue Bridge, Minneapolis, Minnesota, USA",,"Hennepin Avenue Bridge, East Hennepin Avenue, St Anthony West, Phillips, Minneapolis, Hennepin County, Minnesota, 55415:55454, United States of America",44.985329300000004,-93.26385668207865
223,/title/tt0116705/,,"Rice Park - 109 W. 4th Street, St. Paul, Minnesota, USA",,,,
224,/title/tt0116705/,,"Courthouse Square, Backlot, Universal Studios - 100 Universal City Plaza, Universal City, California, USA",,,,
225,/title/tt1720619/,,"Dublin, County Dublin, Ireland",,"Dublin, County Dublin, Leinster, Ireland",53.3497645,-6.2602732
226,/title/tt1720619/,,"Blessington Lakes, County Wicklow, Ireland",,,,
227,/title/tt0089087/,,"Itatiaia, Rio de Janeiro, Brazil",(waterfall),"Itatiaia, Microrregião Vale do Paraíba Fluminense, Região Geográfica Intermediária de Volta Redonda-Barra Mansa, Rio de Janeiro, Região Sudeste, Brasil",-22.4955278,-44.5633108
228,/title/tt0089087/,,"Spilsby, Lincolnshire, England, UK",(model: bursting of the dam sequence),"Spilsby, Lincolnshire, East Midlands, England, PE23 5HB, United Kingdom",53.1734361,0.094623
229,/title/tt0089087/,,"Araguaia River, Brazil",(Rio Araguaia),"Araguaia, Marechal Floriano, Microrregião Afonso Cláudio, Região Geográfica Intermediária de Vitória, Espírito Santo, Região Sudeste, 29258-000, Brasil",-20.449176700000002,-40.87394141577176
230,/title/tt0089087/,,"Carajás, Pará, Brazil",(jungle),"Carajás, Parauapebas, Microrregião de Parauapebas, Mesorregião Sudeste Paraense, Pará, Região Norte, Brasil",-6.0705333,-50.0679411
231,/title/tt0089087/,,"São Paulo, Brazil",,"São Paulo, Região Imediata de São Paulo, Região Metropolitana de São Paulo, Região Geográfica Intermediária de São Paulo, São Paulo, Região Sudeste, Brasil",-23.5506507,-46.6333824
232,/title/tt0089087/,,"Twickenham Film Studios, St Margarets, Twickenham, Middlesex, England, UK",(studio),,,
233,/title/tt0104839/,,"Veracruz, Mexico",,"Veracruz de Ignacio de la Llave, México",19.333333,-96.666667
234,/title/tt0104839/,,"Sierra Madre del Sur de Chiapas, Mexico",,,,
235,/title/tt0093744/,,"Fernandina Beach, Florida, USA",,"Fernandina Beach, Nassau County, Florida, 32035, United States of America",30.6696818,-81.4625919
236,/title/tt1517489/,,"Royal Blue Grocery - The 360 Tower, 360 Nueces Street, Austin, Texas, USA",(opening ambush),,,
237,/title/tt1517489/,,"E 9th Street, Austin, Texas, USA",(chase scene) (in between Congress Avenue and San Jacinto Boulevard),"East 9th Street, Dirty Sixth, Austin, Travis County, Texas, 78701, United States of America",30.2696299,-97.7373356
238,/title/tt1517489/,,"The Long Center for the Performing Arts - 701 W Riverside Drive, Austin, Texas, USA",(OSS Headquarters),"The Long Centre for the Performing Arts, West Riverside Drive, Auditorium Shores, Austin, Travis County, Texas, 78767, United States of America",30.260259400000002,-97.75124487110014
239,/title/tt1517489/,,"San Jacinto Boulevard and E 3rd Street, Austin, Texas, USA","(Big Time Watch Repair Shop) (coordinates: 30°15'51.8""N, 97°44'30.2""W) (now replaced by Hyatt Place Austin Downtown)",,,
240,/title/tt1438173/,,"Gold Coast, Queensland, Australia",,"Gold Coast City, Queensland, Australia",-28.0023731,153.4145987
241,/title/tt1438173/,,"Village Roadshow Studios, Oxenford, Queensland, Australia",,"Village Roadshow Studios, Entertainment Road, Oxenford, Gold Coast City, Queensland, 4210, Australia",-27.910527700000003,153.3118145855983
242,/title/tt0287717/,,"Big Bend National Park, Texas, USA",,"Big Bend National Park, Panther Junction, Brewster County, Texas, 79834, United States of America",29.33341,-103.19400041973404
243,/title/tt0287717/,,"Manuel Antonio, Costa Rica",,"Manuel Antonio, Quepos, Cantón Quepos, Provincia Puntarenas, 60601, Costa Rica",9.4108732,-84.1557218
244,/title/tt0287717/,,"Six Flags Over Texas - 2201 Road to Six Flags Street E., Arlington, Texas, USA",(Troublemaker Theme Park),,,
245,/title/tt0050798/,,"Clayton, Georgia, USA",,"Clayton County, Georgia, United States of America",33.5204959,-84.3591713
246,/title/tt0050798/,,"Big Bear Lake, Big Bear Valley, San Bernardino National Forest, California, USA",,,,
247,/title/tt0970411/,,"Harland and Wolff Paint Hall, Titanic-Quarter, Belfast, County Antrim, Northern Ireland, UK",,,,
248,/title/tt0970411/,,"Belfast Methodist College, Belfast, County Antrim, Northern Ireland, UK",,,,
249,/title/tt0970411/,,"Titanic-Quarter, Belfast, County Antrim, Northern Ireland, UK",,,,
250,/title/tt0074452/,,"Mapledurham, Berkshire, England, UK","(Village of Studley Constable, Norfolk)","Mapledurham House, River Gardens, Purley on Thames, South Oxfordshire, West Berkshire, South East, England, RG4 7TR, United Kingdom",51.484822300000005,-1.035540094184573
251,/title/tt0074452/,,"Goods Yard, Rovaniemi, Finland",(railway yard),"EkoCenter kierrätystavaran myymälä, 14, Varastotie, Etelärinne, Rovaniemi, Rovaniemen seutukunta, Lappi, Manner-Suomi, 96300, Suomi",66.4959974,25.7011034
252,/title/tt0074452/,,"RAF St Mawgan, Newquay, Cornwall, England, UK",(Lansvoort Airfield),"RAF St Mawgan, Newquay, Tregurrian, Cornwall, South West England, England, United Kingdom",50.438271799999995,-5.027977162850151
253,/title/tt0074452/,,"Rovaniemi, Finland",(railway yard),"Rovaniemi, Rovaniemen seutukunta, Lappi, Manner-Suomi, Suomi",66.4976214,25.7192101
254,/title/tt0074452/,,"Newquay, Cornwall, England, UK",(near) (Lansvoort Airfield),"Newquay, Station Parade, Newquay, Cornwall, South West England, England, TR7, United Kingdom",50.4143924,-5.0751373
255,/title/tt0074452/,,"Charlestown, Cornwall, England, UK",(Alderney),"Charlestown, Cornwall, South West England, England, PL25 3AJ, United Kingdom",50.3329873,-4.7577601
256,/title/tt0074452/,,"Holkham Beach, North Norfolk, England, UK",(parachute jump),"Holkham beach, Lady Anne's Drive, Holkham, North Norfolk, Norfolk, East of England, England, NR23 1RJ, United Kingdom",52.9693867,0.8138964
257,/title/tt0074452/,,"Warfield Hall, Forest Road, Newell Green, Berkshire, England, UK",(US Rangers headquarters),,,
258,/title/tt0074452/,,"Wykehurst Park House, East Sussex, England, UK",,,,
259,/title/tt0082288/,,"Snowdonia, Gwynedd, Wales, UK",,"Snowdonia National Park, Trawsfynydd, Gwynedd, Cymru / Wales, United Kingdom",52.9155626,-3.8326012926334223
260,/title/tt0082288/,,"Pinewood Studios, Iver Heath, Buckinghamshire, England, UK",(studio),"Pinewood Studios, Pinewood Green, Iver, Iver Heath, Buckinghamshire, South East, England, SL0 0QJ, United Kingdom",51.54831515,-0.5346765566753087
261,/title/tt0087755/,,"Empire Stages of New York - 25-19 Borden Street, Long Island City, Queens, New York City, New York, USA",(studio),,,
262,/title/tt0087755/,,"Hoboken Railway Station, Hoboken, New Jersey, USA",(Miss Piggy and Kermit say goodbye),"Hoboken, Hudson Place, Hoboken, Hudson County, New Jersey, 07030, United States of America",40.7354944,-74.0286157
263,/title/tt0087755/,,"Grand Army Plaza, Manhattan, New York City, New York, USA",(Kermit and Jenny hug),"Grand Army Plaza, Manhattan, New York County, New York, United States of America",40.7643796,-73.97337386360579
264,/title/tt0087755/,,"Manhattan, New York City, New York, USA",,"Manhattan, New York County, New York, United States of America",40.7896239,-73.9598939
265,/title/tt0087755/,,"Bergdorf-Goodman's Department Store - 754 Fifth Avenue, Manhattan, New York City, New York, USA",(main floor),,,
266,/title/tt1043726/,,Bulgaria,,Бългaрия,42.6073975,25.4856617
267,/title/tt4523530/,,"Utah, USA",,"Utah, United States of America",39.4225192,-111.7143584
268,/title/tt4523530/,,Italy,,Italia,42.6384261,12.674297
269,/title/tt4523530/,,Poland,,Polska,52.215933,19.134422
270,/title/tt4523530/,,Luxembourg,,Lëtzebuerg,49.8158683,6.1296751
271,/title/tt4523530/,,"Sosnowiec, Slaskie, Poland",,"Sosnowiec, Górnośląsko-Zagłębiowska Metropolia, województwo śląskie, Polska",50.2780834,19.1342944
272,/title/tt4523530/,,"Ksiaz, Walbrzych, Dolnoslaskie, Poland",,"Książ, Wałbrzych, województwo dolnośląskie, 58-306, Polska",50.843121,16.2955498
273,/title/tt0110997/,,"Glacier National Park, Montana, USA",,"Glacier National Park, Flathead County, Montana, 59916, United States of America",48.6174862,-113.76088505945765
274,/title/tt0110997/,,"Middle Fork of the Flathead River, Kalispell, Montana, USA",,,,
275,/title/tt0110997/,,"Upper Rogue River, Grants Pass, Oregon, USA",(The raft shooting the rapids),,,
276,/title/tt0110997/,,"Boston, Massachusetts, USA",,"Boston, Suffolk County, Massachusetts, United States of America",42.3602534,-71.0582912
277,/title/tt0110997/,,"Massachusetts, USA",,"Massachusetts, United States of America",42.3788774,-72.032366
278,/title/tt0089370/,,"Ouarzazate, Morocco",(desert),"Ouarzazate ⵡⴰⵔⵣⴰⵣⴰⵜ ورزازات, Pachalik d'Ouarzazate, Province de Ouarzazate ⵍⵉⵇⵍⵉⵎ ⵏ ⵡⴰⵔⵣⴰⵣⴰⵜ إقليم ورززات, Drâa-Tafilalet ⴷⴰⵔⵄⴰ-ⵜⴰⴼⵉⵍⴰⵍⵜ درعة تافيلالت, 45005, Maroc",30.920193,-6.910923
279,/title/tt0089370/,,"Royal Square, Meknès, Morocco",(city: Khadir - finale),"Meknès ⴰⵎⴽⵏⴰⵙ مكناس, Pachalik de Meknes, Prefecture de Meknès عمالة مكناس, Fès-Meknès ⴼⴰⵙ-ⵎⴽⵏⴰⵙ فاس-مكناس, Maroc",33.8978116,-5.5319836
280,/title/tt0089370/,,"Aït Benhaddou, Morocco",(village - gateway that the plane crashes through),"Aït Ben Haddou ⴰⵢⵜ ⴱⵏ ⵃⴷⴷⵓ آيت بن حدو, caïdat de Amerzgane, cercle d'Amerzgane دائرة أمرزكان, Province de Ouarzazate ⵍⵉⵇⵍⵉⵎ ⵏ ⵡⴰⵔⵣⴰⵣⴰⵜ إقليم ورززات, Drâa-Tafilalet ⴷⴰⵔⵄⴰ-ⵜⴰⴼⵉⵍⴰⵍⵜ درعة تافيلالت, 45100, Maroc",31.0451122,-7.1310323
281,/title/tt0089370/,,Morocco,,Maroc / ⵍⵎⵖⵔⵉⴱ / المغرب,31.1728205,-7.3362482
282,/title/tt0089370/,,"Cannes, Alpes-Maritimes, France",,"Cannes, Grasse, Alpes-Maritimes, Provence-Alpes-Côte d'Azur, France métropolitaine, France",43.5515198,7.0134418
283,/title/tt0089370/,,"Monte Carlo, Monaco",,"Monte-Carlo, Monaco",43.7402961,7.426559
284,/title/tt0089370/,,"Studios de la Victorine - 16 avenue Edoard Grinda, Nice, Alpes-Maritimes, France",(studio),,,
285,/title/tt11057644/,,"Mammoth Studios, Burnaby, British Columbia, Canada",(studio),,,
286,/title/tt0374102/,,"St. John, U.S. Virgin Islands",,"Saint John, Saint Thomas - Saint John District, United States Virgin Islands, United States of America",18.3355244,-64.75498466449767
287,/title/tt0083170/,,Seychelles,,Sesel,-4.6574977,55.4540146
288,/title/tt0029843/,,"Big Chico Creek, Chico Canyon, Bidwell Park - Manzanita Avenue, Chico, California, USA",(Robin Hood & Little John's longstaff fight scene),,,
289,/title/tt0029843/,,"Busch Gardens - S. Grove Avenue, Pasadena, California, USA",(the archery contest),,,
290,/title/tt0029843/,,"Dijon Street, Warner Brothers Burbank Studios - 4000 Warner Boulevard, Burbank, California, USA",(Streets of Nottingham),,,
291,/title/tt0029843/,,"Alhambra, California, USA","(Midwick Country Club, Alhambra, CA)","Alhambra, Los Angeles County, California, United States of America",34.093042,-118.12706
292,/title/tt0029843/,,"Jungleland, Thousand Oaks, California, USA",,,,
293,/title/tt0029843/,,"Stage 12, Warner Brothers Burbank Studios - 4000 Warner Boulevard, Burbank, California, USA",,,,
294,/title/tt0029843/,,"Stage 25, Warner Brothers Burbank Studios - 4000 Warner Boulevard, Burbank, California, USA",,,,
295,/title/tt0029843/,,"Stage 4, Warner Brothers Burbank Studios - 4000 Warner Boulevard, Burbank, California, USA",,,,
296,/title/tt0088478/,,"Pico House - 410 N. Main Street, Downtown, Los Angeles, California, USA",,"Pico House, North Main Street, El Pueblo, Downtown, Los Angeles, Los Angeles County, California, 90012, United States of America",34.05608795,-118.2395467943442
297,/title/tt0110725/,,"Carson, California, USA",,"Carson, Los Angeles County, California, United States of America",33.8322043,-118.2517547
298,/title/tt0110725/,,"Fletcher Oil Refinery - 24721 Main Street, Carson, California, USA",,,,
299,/title/tt0110725/,,"Nome, Alaska, USA",,"Nome, Alaska, 99762, United States of America",64.5011111,-165.4063889
300,/title/tt0110725/,,"Worthington Glacier, Alaska, USA",,"Worthington Glacier, Richardson Highway, Ptarmigan, Unorganized Borough, Alaska, United States of America",61.168019349999994,-145.78380014501477
301,/title/tt0082431/,,"Venice, Los Angeles, California, USA",,"Venice, Los Angeles, Los Angeles County, California, United States of America",33.995044,-118.4668875
302,/title/tt0112760/,,"Paddock Tank, Pinewood Studios, Iver Heath, Buckinghamshire, England, UK",(studio) (models),,,
303,/title/tt0112760/,,"Fort Ricasoli, Kalkara, Malta",(Entrance to Port Royal),"Fort Ricasoli, Triq ir-Rinella, Il-Kalkara, Xlokk, KKR 1320, Malta",35.8969046,14.527470921037823
304,/title/tt0112760/,,"Phra Nang Beach, Thailand",(Cutthroat Island beach),"Ao Phra Nang, Walking Street, อ่าวไร่เลย์, บ้าน อ่าวนาง, จังหวัดกระบี่, 81000, ประเทศไทย",8.0059359,98.83764274255006
305,/title/tt0112760/,,"Ko Po Da Nok, Krabi, Thailand",(Morgan steals a man's rowboat),,,
306,/title/tt0112760/,,"Corte Capitanale, Mdina, Malta",(Morgan and Shaw steal Ainslee's carriage),,,
307,/title/tt0112760/,,"Birgu, Malta",(waterfront chase),"Il-Birgu, Xlokk, Malta",35.8881119,14.5238445
308,/title/tt0112760/,,"Maya Bay, Thailand",(Cutthroat Island bay),"Maya Bay, จังหวัดกระบี่, ประเทศไทย",7.6766252,98.7661169
309,/title/tt0078504/,,"Shea Stadium - 12301 Roosevelt Avenue, Flushing Meadows Park, Queens, New York City, New York, USA",,,,
310,/title/tt0078504/,,"Kaufman Astoria Studios - 3412 36th Street, Astoria, Queens, New York City, New York, USA",(studio),,,
311,/title/tt0078504/,,"New York City, New York, USA",,"New York, United States of America",40.7127281,-74.0060152
312,/title/tt0078504/,,"Hoyt-Schermerhorn Street Subway Station, Brooklyn, New York City, New York, USA",(subway sequence),,,
313,/title/tt0249327/,,"New York City, New York, USA",,"New York, United States of America",40.7127281,-74.0060152
314,/title/tt0065988/,,"Little Bighorn Battlefield National Monument - 756 Battlefield Tour Road, Crow Agency, Montana, USA",,,,
315,/title/tt0065988/,,"Crow Indian Reservation, Montana, USA",,"Crow Indian Reservation, Big Horn County, Montana, United States of America",45.382682349999996,-107.85401687502718
316,/title/tt0065988/,,"CL Ranch - 45001 Township Road, Calgary, Alberta, Canada",,,,
317,/title/tt0065988/,,"Hardin, Montana, USA",,"Hardin, Big Horn County, Montana, 59034, United States of America",45.7324778,-107.6120314
318,/title/tt0065988/,,"Nevada City, Montana, USA",,"Nevada City, Nevada County, California, 95959, United States of America",39.2615606,-121.0160594
319,/title/tt0065988/,,"Montana, USA",,"Montana, United States of America",47.3752671,-109.6387579
320,/title/tt0065988/,,"VA Hospital - 11301 Wilshire Blvd., Brentwood, Los Angeles, California, USA",(modern bookend sequences),,,
321,/title/tt0065988/,,"Virginia City, Montana, USA",,"Virginia City, Madison County, Montana, United States of America",45.293796,-111.946123
322,/title/tt0065988/,,"Thousand Oaks, California, USA",,"Thousand Oaks, Ventura County, California, United States of America",34.17142715,-118.91058772974445
323,/title/tt0053534/,,"Downtown, Tucson, Arizona, USA",,"East Downtown Street, Armory Park, Tucson, Pima County, Arizona, 85701, United States of America",32.215691,-110.9623123
324,/title/tt0053534/,,"Pima County Courthouse, Tucson, Arizona, USA",,"Pima County Courthouse, 240, North Stone Avenue, Dunbar Spring, Pascua Yaqui Indian Village, Tucson, Pima County, Arizona, 85701, United States of America",32.22545515,-110.97104467659297
325,/title/tt0053534/,,"Corriganville, Ray Corrigan Ranch, Simi Valley, California, USA",,,,
326,/title/tt0775552/,,"Auckland, New Zealand",,"Auckland, 1010, New Zealand",-36.852095,174.7631803
327,/title/tt0775552/,,"Narrowneck Beach, Takapuna, New Zealand",,,,
328,/title/tt0077294/,,"Titan Missile Museum - 1580 W. Duval Mine Road, Green Valley, Arizona, USA",,"Titan Missile Museum, 1580, West Duval Mine Road, Duval, Sahuarita, Pima County, Arizona, 85629, United States of America",31.9028426,-110.99921625250153
329,/title/tt0077294/,,"Imperial Valley, California, USA",,"Imperial County, California, United States of America",33.0305487,-115.3595666
330,/title/tt0077294/,,"Studio City, California, USA",(apartment),"Studio City, Los Angeles, Los Angeles County, California, 91604, United States of America",34.1483989,-118.3961877
331,/title/tt0077294/,,"Westwood, California, USA",(cemetery),"Westwood, Los Angeles, Los Angeles County, California, 90024-3990, United States of America",34.0561207,-118.4306347
332,/title/tt0077294/,,"California City, California, USA",,"California City, Kern County, California, United States of America",35.125801,-117.9859038
333,/title/tt0118414/,,Turkey,,Türkiye,38.9597594,34.9249653
334,/title/tt1831164/,,"Istanbul, Turkey",,"İstanbul, Beyazıt Meydanı, Beyazıt Mahallesi, Fatih, İstanbul, Marmara Bölgesi, 34126, Türkiye",41.0096215,28.9651867
335,/title/tt0059243/,,"Salzburg Cathedral, Salzburg, Austria",,"Salzburger Dom, 2, Kapitelgasse, Altstadt, Salzburg, 5010, Österreich",47.7978459,13.046623175442477
336,/title/tt0059243/,,"Sonora, California, USA",,"Sonora, Tuolumne County, California, 95364, United States of America",37.9840911,-120.3821381
337,/title/tt0059243/,,"Gearhart, Oregon, USA",,"Gearhart, Clatsop County, Oregon, United States of America",46.024275,-123.91125
338,/title/tt0059243/,,"Stockton, California, USA",,"Stockton, San Joaquin County, California, United States of America",37.9577016,-121.2907796
339,/title/tt0059243/,,"Big Bear Valley, San Bernardino National Forest, California, USA",,,,
340,/title/tt0059243/,,"Train Station, Backlot, Universal Studios - 100 Universal City Plaza, Universal City, California, USA",(train scenes),,,
341,/title/tt0059243/,,"Alabama Hills, Lone Pine, California, USA",,"Alabama Hills, Lone Pine, Inyo County, California, 93545, United States of America",36.5677117,-118.0898097
342,/title/tt0059243/,,"Stage 14, Warner Brothers Burbank Studios - 4000 Warner Boulevard, Burbank, California, USA",,,,
343,/title/tt0059243/,,"Stage 16, Warner Brothers Burbank Studios - 4000 Warner Boulevard, Burbank, California, USA",,,,
344,/title/tt0059243/,,"Stage 26, Warner Brothers Burbank Studios - 4000 Warner Boulevard, Burbank, California, USA",,,,
345,/title/tt0059243/,,"Stage 27A, Warner Brothers Burbank Studios - 4000 Warner Boulevard, Burbank, California, USA",,,,
346,/title/tt0059243/,,"Stage 22, Warner Brothers Burbank Studios - 4000 Warner Boulevard, Burbank, California, USA",,,,
347,/title/tt0059243/,,"Pismo Beach, California, USA",,"Pismo Beach, San Luis Obispo County, California, 93449, United States of America",35.1427533,-120.6412827
348,/title/tt0366005/,,"Los Angeles, California, USA",(Nickelodeon),"Los Angeles, Los Angeles County, California, United States of America",34.0536909,-118.2427666
349,/title/tt0366005/,,"Toronto, Ontario, Canada",,"Toronto, Golden Horseshoe, Ontario, Canada",43.6534817,-79.3839347
350,/title/tt0373690/,,"Ardèche, France",,"Ardèche, Auvergne-Rhône-Alpes, France métropolitaine, 07190, France",44.815194000000005,4.3986524702343965
351,/title/tt0373690/,,"Château de Ferrières, Ferrières, Seine-et-Marne, France",,"Château de Ferrières, Allée Impératrice Eugénie, Ferrières-en-Brie, Torcy, Seine-et-Marne, Île-de-France, France métropolitaine, 77164, France",48.81965905,2.7120548150582637
352,/title/tt0373690/,,"Étretat, Seine-Maritime, France",,"Étretat, Le Havre, Seine-Maritime, Normandie, France métropolitaine, 76790, France",49.7074621,0.2031905
353,/title/tt0373690/,,"Paris, France",,"Paris, Île-de-France, France métropolitaine, 75004, France",48.8566969,2.3514616
354,/title/tt0373690/,,"Cathédrale, Senlis, Oise, France",(Arsène Lupin runs away from the cathedral),"Cathédrale Notre-Dame, Place du Parvis Notre-Dame, Centre ville, Villemétrie, Senlis, Oise, Hauts-de-France, France métropolitaine, 60300, France",49.206871,2.585937399350645
355,/title/tt0373690/,,"Abbaye Notre-Dame-du-Val, Mériel, Val-d'Oise, France",,"Ancienne Abbaye du Val, Rue de l'Abbaye du Val, Mériel, Pontoise, Val-d'Oise, Île-de-France, France métropolitaine, 95630, France",49.078451099999995,2.2266500335937476
356,/title/tt0479528/,,"Yellow Water, Kakadu National Park, Northern Territory, Australia",,,,
357,/title/tt0479528/,,"Nitmiluk National Park, Northern Territory, Australia",,"Nitmiluk National Park, Nitmiluk, Roper Gulf Region, Northern Territory, Australia",-14.11138,132.4624441855795
358,/title/tt0479528/,,"Yarra Valley, Victoria, Australia",,"Yarra, Murray Valley Highway, Yarrawonga, Shire of Moira, Victoria, 3730, Australia",-36.0154297,146.0139795
359,/title/tt0183523/,,Jordan,,الأردن,31.1667049,36.941628
360,/title/tt0183523/,,"Santa Clarita, California, USA",,"Santa Clarita, Los Angeles County, California, United States of America",34.3916641,-118.542586
361,/title/tt0183523/,,USA,,United States,39.7837304,-100.4458825
362,/title/tt0955322/,,"Port Moody, British Columbia, Canada",,"Port Moody, Metro Vancouver Regional District, British Columbia, Canada",49.2822243,-122.8293424
363,/title/tt0090848/,,"MacMillan Provincial Park, British Columbia, Canada",,"MacMillan Provincial Park, Alberni Highway, Area F (Alberni Highway), Regional District of Nanaimo, British Columbia, Canada",49.280089849999996,-124.66919066104447
364,/title/tt0060153/,,"Cliffs, Marineland of the Pacific - 6610 Palos Verdes Drive South, Rancho Palos Verdes, California, USA",(Batboat pier),,,
365,/title/tt0060153/,,"Los Angeles Metropolitan Airport ""Metro"", Van Nuys, California, USA",(Batbike/Batgocart and Batcopter scene),,,
366,/title/tt0060153/,,"Century City, Los Angeles, California, USA",(police officers walking looking at the Batcopter),"Century City, Los Angeles, Los Angeles County, California, 90067, United States of America",34.0574263,-118.4147267
367,/title/tt0060153/,,"Stage 8, 20th Century Fox Studios - 10201 Pico Blvd., Century City, Los Angeles, California, USA",(studio),,,
368,/title/tt0060153/,,"380 South San Rafael Avenue, Pasadena, California, USA",,"380, San Rafael Avenue, Pasadena, Los Angeles County, California, 91105, United States of America",34.136524178859,-118.1706399607389
369,/title/tt2973418/,,"New York City, New York, USA",,"New York, United States of America",40.7127281,-74.0060152
370,/title/tt0082700/,,"Leticia, Amazonas, Colombia",,"Leticia, Amazonas, Colombia",-3.58082345,-70.08851628711486
371,/title/tt0082700/,,"New York City, New York, USA",,"New York, United States of America",40.7127281,-74.0060152
372,/title/tt4285496/,,"Cerros de Mavecure, Colombia",(The volcanic hills where the men go at the end of the movie.),,,
373,/title/tt4285496/,,"Guainía, Colombia",,"Guainía, Colombia",2.5000086,-69.0000086
374,/title/tt0116329/,,"Sandbanks Provincial Park, Ontario, Canada",,"Sandbanks Provincial Park, Prince Edward County, Central Ontario, Ontario, K0K 3T0, Canada",43.90630525,-77.25031268882148
375,/title/tt0116329/,,"Auckland, New Zealand",,"Auckland, 1010, New Zealand",-36.852095,174.7631803
376,/title/tt0116329/,,"Baltimore, Maryland, USA",,"Baltimore, Maryland, United States of America",39.2908816,-76.610759
377,/title/tt0116329/,,"North Carolina, USA",,"North Carolina, United States of America",35.6729639,-79.0392919
378,/title/tt0075807/,,"Severn Valley Railway, Shropshire, England, UK",,"Severn Valley Railway, Broseley, Shropshire, West Midlands, England, TF8 7JA, United Kingdom",52.615015,-2.4434204
379,/title/tt0075807/,,"Hambleden, Buckinghamshire, England, UK",(Town),"Hambleden, Buckinghamshire, South East, England, RG9 6RP, United Kingdom",51.5719351,-0.8691036
380,/title/tt0075807/,,"Pinewood Studios, Iver Heath, Buckinghamshire, England, UK",(studio) (Studios),"Pinewood Studios, Pinewood Green, Iver, Iver Heath, Buckinghamshire, South East, England, SL0 0QJ, United Kingdom",51.54831515,-0.5346765566753087
381,/title/tt0077372/,,"La Crescenta, California, USA",,"La Crescenta, Los Angeles County, California, 91214, United States of America",34.230429,-118.2350733
382,/title/tt0077372/,,"Burbank, California, USA",,"Burbank, Los Angeles County, California, United States of America",34.1816482,-118.3258554
383,/title/tt0077372/,,"2880 South Las Vegas Boulevard, Winchester, Nevada, USA",(Kenny goes into Circus Circus looking for his car),"2880, South Las Vegas Boulevard, Winchester, Clark County, Nevada, 89109, United States of America",36.136207,-115.162368
384,/title/tt0077372/,,"770 Las Vegas Boulevard North, Las Vegas, Nevada, USA",(sign boneyard where Kenny loses sight of the Corvette),"Neon Museum, 770, Las Vegas Boulevard North, Cultural Corridor, Las Vegas, Clark County, Nevada, 89101, United States of America",36.17651265,-115.13527674279658
385,/title/tt0077372/,,"3799 South Las Vegas Boulevard, Las Vegas, Nevada, USA",(Kenny walking through the parking lot of the MGM Grand),"South Las Vegas Boulevard, Hughes Center, Enterprise, Clark County, Nevada, 89119-4016, United States of America",36.0723921,-115.172611
386,/title/tt0077372/,,"Bradley Avenue and Paxton Street, Pacoima, California, USA","(Kenny lets go of the motor home, chasing the now-gold Corvette)",,,
387,/title/tt0077372/,,"3668 South Las Vegas Boulevard, Paradise, Nevada, USA","(Kenny drives to the Aladdin after stealing the car back and ""rescues"" Vanessa)","South Las Vegas Boulevard, Hughes Center, Paradise, Clark County, Nevada, 89158, United States of America",36.1080074,-115.1731337
388,/title/tt0077372/,,"Auto Shop, Burbank High School - 902 N. Third Street, Burbank, California, USA",,,,
389,/title/tt0077372/,,"Verdugo Hills High School - 10625 Plainview Avenue, Tujunga, Los Angeles, California, USA",,,,
390,/title/tt0077372/,,"Las Vegas, Nevada, USA",,"Las Vegas, Clark County, Nevada, United States of America",36.1672559,-115.1485163
391,/title/tt0077372/,,"Los Angeles, California, USA",,"Los Angeles, Los Angeles County, California, United States of America",34.0536909,-118.2427666
392,/title/tt0077372/,,"Mojave, California, USA",(car chase),"Mojave, Kern County, California, United States of America",35.0524699,-118.1739645
393,/title/tt0077372/,,"3000 South Las Vegas Boulevard, Winchester, Nevada, USA",(Vanessa's van stops in front of the Stardust so she can change into her hooker getup),"3000, South Las Vegas Boulevard, Winchester, Clark County, Nevada, 89109, United States of America",36.1342730191303,-115.16362344596781
394,/title/tt0077372/,,"1100 Freemont Street, Las Vegas, Nevada, USA","(Kenny spots his Corvette for the first time in Las Vegas, across from the Traveller's Motel)",,,
395,/title/tt0077372/,,"South Las Vegas Boulevard and West Flamingo Road, Paradise, Nevada, USA",(Kenny sitting on a white utility box writing a post card),,,
396,/title/tt0077372/,,"2900 South Las Vegas Boulevard, Winchester, Nevada, USA",(Kenny working as a parking valet at the Westward-Ho casino - closed 2005),"2900, South Las Vegas Boulevard, Winchester, Clark County, Nevada, 89109, United States of America",36.135884402130216,-115.16257682902855
397,/title/tt0077372/,,"3150 Paradise Road, Winchester, Nevada, USA",(Kenny and Ed drive past the Las Vegas Convention Center),"Las Vegas Convention Center, 3150, Paradise Road, Winchester, Clark County, Nevada, 89109, United States of America",36.131318050000004,-115.15016989901792
398,/title/tt0078492/,,"Twickenham Film Studios, St Margarets, Twickenham, Middlesex, England, UK",(studio),,,
399,/title/tt0078492/,,"Marble Hill Park, Twickenham, Middlesex, England, UK",(School Rugby scenes),,,
400,/title/tt0078492/,,Swaziland,(training camp scene),eSwatini,-26.5624806,31.3991317
401,/title/tt0109770/,,USA,,United States,39.7837304,-100.4458825
402,/title/tt0109770/,,"Los Angeles, California, USA",,"Los Angeles, Los Angeles County, California, United States of America",34.0536909,-118.2427666
403,/title/tt0118158/,,Bermuda,,Bermuda,32.3018217,-64.7603583
404,/title/tt0118158/,,St Lucia,,Saint Lucia,13.8250489,-60.975036
405,/title/tt0118158/,,"Young Island, St Vincent and the Grenadines",,"Young Island, Saint George, Saint Vincent and the Grenadines",13.1302018,-61.20257457714498
406,/title/tt0118158/,,"Beaufort, South Carolina, USA",,"Beaufort, Beaufort County, South Carolina, United States of America",32.4315813,-80.6698286
407,/title/tt0118158/,,"London, England, UK",,"London, Greater London, England, United Kingdom",51.5073219,-0.1276474
408,/title/tt0118158/,,"Mediterranean Film Studios, Kalkara, Malta",(studio) (Malta),,,
409,/title/tt0114287/,,"Eilean Donan Castle, Kyle of Lochalsh, Highland, Scotland, UK",,,,
410,/title/tt0114287/,,"Rannoch Moor, Highland, Scotland, UK",,,,
411,/title/tt0114287/,,"Megginch Castle, Errol, Perth and Kinross, Scotland, UK",,,,
412,/title/tt0114287/,,"Glen Nevis, Fort William, Highland, Scotland, UK",,"Glen Nevis, Highland, Scotland, PH33 6PF, United Kingdom",56.809849,-5.0798829
413,/title/tt0114287/,,"Castle Tioram, Moidart, Highland, Scotland, UK",,,,
414,/title/tt0114287/,,"Loch Morar, Highland, Scotland, UK",(Liam Neeson's cotage on the side),"Loch Morar, C1150, Bracara, Morar, Highland, Scotland, PH40 4PF, United Kingdom",56.9567529,-5.747394704066808
415,/title/tt0114287/,,"Scotland, UK",,"Scotland, United Kingdom",56.7861112,-4.1140518
416,/title/tt0068182/,,"Huayna Picchu, Peru",(mountain with stone stairway in the opening scene),"Huayna Picchu, Pisac, Calca, Cusco, 08015, Peru",-13.4217522,-71.8532985
417,/title/tt0068182/,,"Andes, Peru",,"Andes, San Juan de Lurigancho, Lima, 15401, Peru",-12.0283189,-77.0056816
418,/title/tt0068182/,,"Urubamba River, Peru",,"Urubamba, Cusco, Peru",-13.2292798,-72.2646684
419,/title/tt0068182/,,"Huallage River, Peru",,,,
420,/title/tt0068182/,,"Nanay River, Peru",(final scene of the film),"Rio Nanay, Alto Nanay, Maynas, Loreto, Peru",-3.6791267,-74.2612361
421,/title/tt0106233/,,"Krohn Conservatory, Cincinnati, Ohio, USA",,"Krohn Conservatory, Eden Park Drive, Gilbert-Sinton Historic District, Walnut Hills, Cincinnati, Hamilton County, Ohio, 45206, United States of America",39.115242550000005,-84.49009333502934
422,/title/tt0106233/,,"Hamilton, Ohio, USA",,"Hamilton, Butler County, Ohio, 45013, United States of America",39.3995067,-84.5613428
423,/title/tt0106233/,,"Riverfront Stadium - 100 Riverfront Stadium, Cincinnati, Ohio, USA",,,,
424,/title/tt0106233/,,"Pompilio's Bar and Restaurant - 600 Washington Avenue, Newport, Kentucky, USA",,,,
425,/title/tt0106233/,,"Cincinnati-Northern Kentucky International Airport, Covington, Kentucky, USA",,,,
426,/title/tt0425637/,,"Taipei City, Taiwan",,"臺北市, Taiwan",25.0375198,121.5636796
427,/title/tt0425637/,,"Beijing, China",,"北京市, 通州区, 北京市, China 中国",39.9020668,116.718583
428,/title/tt0425637/,,China,,中国,35.000074,104.999927
429,/title/tt0043265/,,"Budongo Forest, Democratic Republic Of Congo",(Then called Belgian Congo),,,
430,/title/tt0043265/,,"Murchison Falls, Uganda",,"Kabarega Falls, Walk to the Top of the Falls, Buliisa, Western Region, Uganda",2.2784944,31.6858938
431,/title/tt0043265/,,"Port Butiaba, Uganda",(Kungdu Village and Church),,,
432,/title/tt0043265/,,"Ruiki River, Democratic Republic Of Congo",(Then called Belgian Congo),"Rwiki, Orientale, Tshopo, République Démocratique du Congo",-0.3179647,25.2555672
433,/title/tt0043265/,,"Isleworth Studios, London Road, Isleworth, Middlesex, England, UK",(studio),,,
434,/title/tt0043265/,,"Worton Hall Studios, Isleworth, Middlesex, England, UK",(studio),,,
435,/title/tt0043265/,,"London, England, UK",,"London, Greater London, England, United Kingdom",51.5073219,-0.1276474
436,/title/tt0043265/,,Africa,,Africa,11.5024338,17.7578122
437,/title/tt0043265/,,Uganda,,Uganda,1.5333554,32.2166578
438,/title/tt0043265/,,"Congo River, Democratic Republic of Congo",,"Congo, Équateur, 1901, République Démocratique du Congo",-0.6494883,17.6652217
439,/title/tt0043265/,,USA,,United States,39.7837304,-100.4458825
440,/title/tt0151137/,,"Dordogne, France",,"Dordogne, Nouvelle-Aquitaine, France métropolitaine, France",45.14291985,0.6321258058651044
441,/title/tt0151137/,,"Sées, Orne, France",(Reims cathedral interiors),"Sées, Alençon, Orne, Normandie, France métropolitaine, 61500, France",48.603378,0.1734544
442,/title/tt0151137/,,"Château de Beynac, Beynac, Dordogne, France",,"Château de Beynac, Rue Cap de Baïnac, Brudou, Beynac-et-Cazenac, Sarlat-la-Canéda, Dordogne, Nouvelle-Aquitaine, France métropolitaine, 24220, France",44.8401415,1.1455347437956203
443,/title/tt0460780/,,"Maple Ridge, British Columbia, Canada",,"Maple Ridge, Metro Vancouver Regional District, British Columbia, Canada",49.2197345,-122.5997078
444,/title/tt0460780/,,"Sooke, British Columbia, Canada",,"Sooke, Capital Regional District, British Columbia, Canada",48.3825724,-123.7315177
445,/title/tt0460780/,,"Vancouver Island, British Columbia, Canada",,"Vancouver Island, Area D (Oyster Bay/Buttle Lake), Strathcona Regional District, British Columbia, Canada",49.592949450000006,-125.70255696124094
446,/title/tt0283203/,,"Downsview Park Studios, 40 Carl Hall Road, Toronto, Ontario, Canada",,,,
447,/title/tt0094033/,,Namibia,,Namibia,-23.2335499,17.3231107
448,/title/tt0089385/,,"Sparwood, British Columbia, Canada",(barn shots),"Sparwood, Regional District of East Kootenay, British Columbia, Canada",49.7332695,-114.8858477
449,/title/tt0089385/,,"Lillooet, British Columbia, Canada",(cayoosh net),"Lillooet, Squamish-Lillooet Regional District, British Columbia, Canada",50.693938,-121.9336912
450,/title/tt0089385/,,"Yaletown-Vancouver Studio Center, Vancouver, British Columbia, Canada",(studio),,,
451,/title/tt0089385/,,"British Columbia Railway, North Vancouver, British Columbia, Canada",,,,
452,/title/tt8318284/,,"Los Angeles, California, USA",,"Los Angeles, Los Angeles County, California, United States of America",34.0536909,-118.2427666
453,/title/tt0077215/,,"Long Beach City Hall - 333 W. Ocean Boulevard, Long Beach, California, USA",(exterior shots),,,
454,/title/tt0077215/,,"Van Nuys, Los Angeles, California, USA",(visual effects),"Van Nuys, Los Angeles, Los Angeles County, California, 91401-2649, United States of America",34.1866193,-118.4486669
455,/title/tt4136774/,,"Talamanca del Jarama, Madrid, Spain",,"Talamanca de Jarama, Cuenca del Medio Jarama, Comunidad de Madrid, España",40.7460256,-3.5129914
456,/title/tt4136774/,,"Estudios Infinia, Boadilla del Monte, Madrid, Spain",,,,
457,/title/tt4136774/,,"Peñiscola, Castellón, Comunidad Valenciana, Spain",,"Peníscola / Peñíscola, el Baix Maestrat, Castelló / Castellón, Comunitat Valenciana, España",40.3576361,0.4071043
458,/title/tt4136774/,,"Alcalá de Henares, Madrid, Spain",,"Alcalá de Henares, Área metropolitana de Madrid y Corredor del Henares, Comunidad de Madrid, España",40.4818396,-3.3644973
459,/title/tt4136774/,,"Old National Radio of Spain building, Arganda del Rey, Madrid, Spain","(The Ministry of Time since 4th season, exterior and interior)",,,
460,/title/tt0089901/,,Mexico,(weapons testing range),"Ciudad de México, 06060, México",19.4326296,-99.1331785
461,/title/tt0089901/,,"New York City, New York, USA",,"New York, United States of America",40.7127281,-74.0060152
462,/title/tt0469263/,,"Dunkin' Donuts - 1085 S. Saint Francis Drive, Santa Fe, New Mexico, USA",,"Dunkin' Donuts, South Saint Francis Drive, Santa Fe, Santa Fe County, New Mexico, 87502, United States of America",35.674985250000006,-105.95313795182182
463,/title/tt0469263/,,"Bonanza Creek Ranch - 15 Bonanza Creek Lane, Santa Fe, New Mexico, USA",,,,
464,/title/tt0469263/,,"Las Vegas, New Mexico, USA",,"Las Vegas, San Miguel County, New Mexico, 87701, United States of America",35.5939325,-105.2238969
465,/title/tt0469263/,,"New Mexico, USA",,"New Mexico, United States of America",34.5708167,-105.993007
466,/title/tt0342258/,,France,,France,46.603354,1.8883335
467,/title/tt0342258/,,"Blackfriar's Bar, Merchant City, Glasgow, Strathclyde, Scotland, UK",,,,
468,/title/tt0342258/,,"Norfolk, England, UK",,"Norfolk, East of England, England, United Kingdom",52.666667,1.0
469,/title/tt0342258/,,UK,,United Kingdom,54.7023545,-3.2765753
470,/title/tt0057798/,,"20th Century Fox Studios - 10201 Pico Blvd., Century City, Los Angeles, California, USA",(studio),,,
471,/title/tt0106761/,,"Los Angeles, California, USA",,"Los Angeles, Los Angeles County, California, United States of America",34.0536909,-118.2427666
472,/title/tt1632479/,,"Washington, USA",,"Washington, District of Columbia, 20230, United States of America",38.8949924,-77.0365581
473,/title/tt1632479/,,"Havana, Cuba",,"La Habana, La Habana Vieja, Cuba",23.135305,-82.3589631
474,/title/tt1632479/,,Vietnam,,Việt Nam,13.2904027,108.4265113
475,/title/tt1632479/,,"Boston, Massachusetts, USA",,"Boston, Suffolk County, Massachusetts, United States of America",42.3602534,-71.0582912
476,/title/tt2652118/,,"Auckland Film Studios, New Zealand",,,,
477,/title/tt2652118/,,"Limestone Cliffs, Port Waikato, New Zealand",(opening scene),,,
478,/title/tt0318155/,,"New York Street, Backlot, Universal Studios - 100 Universal City Plaza, Universal City, California, USA",(DJ chases Daffy into a building),,,
479,/title/tt0318155/,,"Stage 16, Warner Brothers Burbank Studios - 4000 Warner Boulevard, Burbank, California, USA",,,,
480,/title/tt0318155/,,"Stage 21, Warner Brothers Burbank Studios - 4000 Warner Boulevard, Burbank, California, USA",,,,
481,/title/tt0318155/,,"Warner Bros. Animation - 15301 Ventura Blvd., Sherman Oaks, Los Angeles, California, USA",(studio),,,
482,/title/tt1842127/,,"Vancouver, British Columbia, Canada",(season 1),"Vancouver, Metro Vancouver Regional District, British Columbia, Canada",49.2608724,-123.1139529
483,/title/tt0109627/,,"David Carradine's Ranch, California, USA",,,,
484,/title/tt0109627/,,"Vasquez Rocks Natural Area Park - 10700 W. Escondido Canyon Rd., Agua Dulce, California, USA",,,,
485,/title/tt0169414/,,"Toronto, Ontario, Canada",(studio) (Cookie Jar Studios),"Toronto, Golden Horseshoe, Ontario, Canada",43.6534817,-79.3839347
486,/title/tt0169414/,,Canada,,Canada,61.0666922,-107.9917071
487,/title/tt0169414/,,USA,,United States,39.7837304,-100.4458825
488,/title/tt2017038/,,"Ensenada, Baja California Norte, Mexico",,"Ensenada, Baja California, México",31.8658887,-116.6029835
489,/title/tt2017038/,,"Nassau, New Providence Island, Bahamas",,"Nassau, Sidney Poitier Bridge, New Providence, 242, Bahamas",25.0769738,-77.3237203
490,/title/tt2017038/,,"Santa Catalina Island, Channel Islands, California, USA",,,,
491,/title/tt2017038/,,Bahamas,,The Bahamas,24.7736546,-78.0000547
492,/title/tt2017038/,,"Los Angeles, California, USA",,"Los Angeles, Los Angeles County, California, United States of America",34.0536909,-118.2427666
493,/title/tt2017038/,,"California, USA",,"California, United States of America",36.7014631,-118.7559974
494,/title/tt0397313/,,Greenland,(Antarctica's wilderness),Kalaallit Nunaat,77.6192349,-42.8125967
495,/title/tt0397313/,,"Stewart, British Columbia, Canada",,"Stewart, Regional District of Kitimat-Stikine, British Columbia, V0T 1W0, Canada",55.9383088,-129.9911761
496,/title/tt0397313/,,Canada,,Canada,61.0666922,-107.9917071
497,/title/tt0112453/,,"Universal Cartoon Studios - 121 W Lexington Avenue, Glendale, California, USA",(animation segments),,,
498,/title/tt0120751/,,"Hawaii, USA",,"Hawaii, United States of America",19.58726775,-155.42688965312746
499,/title/tt0120751/,,"Hollywood Boulevard, Hollywood, Los Angeles, California, USA",,"Hollywood Boulevard, Whitley Heights Historic District, Hollywood, Los Angeles, Los Angeles County, California, 90028, United States of America",34.1015833,-118.3324947
500,/title/tt0120751/,,"Los Angeles, California, USA",,"Los Angeles, Los Angeles County, California, United States of America",34.0536909,-118.2427666
501,/title/tt0120751/,,"Westwood, Los Angeles, California, USA",,"Westwood, Los Angeles, Los Angeles County, California, 90024-3990, United States of America",34.0561207,-118.4306347
502,/title/tt0970452/,,"Prague, Czech Republic",,"Praha, okres Hlavní město Praha, Hlavní město Praha, Praha, Česká republika",50.0874654,14.4212535
503,/title/tt0098519/,,"Big Bear City, San Bernardino National Forest, California, USA",,,,
504,/title/tt0098519/,,"901 N Camden Drive, Beverly Hills, California, USA",(The Nefler residence),"901, North Camden Drive, Beverly Hills, Los Angeles County, California, 90210, United States of America",34.079488749999996,-118.41613358974104
505,/title/tt0098519/,,"Bishop Conaty High School, Los Angeles, California, USA",(Wilderness Girl Headquarters),"Bishop Conaty Memorial High School, South Ardmore Avenue, Harvard Heights, Los Angeles, Los Angeles County, California, 90006, United States of America",34.0466783,-118.3028531
506,/title/tt5670764/,,"London, England, UK",,"London, Greater London, England, United Kingdom",51.5073219,-0.1276474
507,/title/tt0184894/,,"Forbidden City, Dongcheng District, Beijing, China",,"故宫, 东城区, 北京市, 100010, China 中国",39.91727565,116.39076940577283
508,/title/tt0184894/,,"CL Ranch - 45001 Township Road, Calgary, Alberta, Canada",,,,
509,/title/tt0184894/,,"East Coulee, Drumheller, Alberta, Canada",(Hoodoos area),"East Coulee, Town of Drumheller, Alberta, T0J 1B0, Canada",51.338675,-112.4950579
510,/title/tt0040724/,,"San Pedro River, Arizona, USA",,"San Pedro River, Cochise County, Arizona, 85192, United States of America",32.0727296,-110.3371155
511,/title/tt0040724/,,"Tucson, Arizona, USA",,"Tucson, Pima County, Arizona, United States of America",32.2228765,-110.9748477
512,/title/tt0040724/,,"Old Tucson - 201 S. Kinney Road, Tucson, Arizona, USA",,"Old Tucson, 201, Kinney Road, Tucson Estates, Pima County, Arizona, 85735, United States of America",32.2186224,-111.1300273
513,/title/tt0040724/,,"Verde River, Arizona, USA",,"Verde River, Yavapai County, Arizona, 86324, United States of America",34.7949861,-112.0559117
514,/title/tt0040724/,,"Sonoita, Arizona, USA",,"Sonoita, Santa Cruz County, Arizona, 85637, United States of America",31.6723455,-110.66195553057366
515,/title/tt0040724/,,"Santa Rita Mountains, Arizona, USA",,,,
516,/title/tt0040724/,,"Kentucky Camp, Arizona, USA",,"Kentucky Camp, Pima County, Arizona, United States of America",31.7445006,-110.7416543
517,/title/tt0040724/,,"Samuel Goldwyn Studios - 7200 Santa Monica Boulevard, West Hollywood, California, USA",(studio) (uncredited),,,
518,/title/tt0040724/,,"Duquesne, Arizona, USA",,"Duquesne, Santa Cruz County, Arizona, United States of America",31.3709328,-110.6853608
519,/title/tt0040724/,,"Mule Mountains, Arizona, USA",,,,
520,/title/tt0040724/,,"Hacienda Corona de Guevavi, Nogales, Arizona, USA",,,,
521,/title/tt0040724/,,"Hereford, Arizona, USA",,"Hereford, Cochise County, Arizona, United States of America",31.4384325,-110.0978554
522,/title/tt0094834/,,"University of California, Riverside - 900 University Ave, Riverside, California, USA",,,,
523,/title/tt0094834/,,"University of California Botanic Gardens, Riverside, California, USA",(Jungle scenes.),,,
524,/title/tt0297181/,,"Széchenyi Lánchíd, Budapest, Hungary",,"Széchenyi Lánchíd, 24498, 14397, 14398, 14400, Id. Antall József rakpart, Lipótváros, V. kerület, Közép-Magyarország, 1051, Magyarország",47.499104700000004,19.044301795736374
525,/title/tt0297181/,,Hungary,,Magyarország,47.1817585,19.5060937
526,/title/tt0297181/,,"Hungarian Parliament Building, Budapest, Hungary",,,,
527,/title/tt0297181/,,"Liberty Bridge, Budapest, Hungary",(aka Szabadság Bridge),"Szabadság híd, Raoul Wallenberg rakpart, Tabán, Budapest, Közép-Magyarország, 1111, Magyarország",47.4857313,19.054918278334153
528,/title/tt0297181/,,Canada,,Canada,61.0666922,-107.9917071
529,/title/tt0297181/,,"Fisherman's Bastion, Budapest, Hungary",(aka Halászbástya),"Halászbástya, Gimnázium utca, Víziváros, Budapest, Közép-Magyarország, 1014, Magyarország",47.50232795,19.034710434555507
530,/title/tt0297181/,,"Gellért Baths, Budapest, Hungary",(thermal bath scenes),"Gellért gyógyfürdő és uszoda, 4, Kelenhegyi út, Gellérthegy, Budapest, Közép-Magyarország, 1114, Magyarország",47.483816250000004,19.050952502294166
531,/title/tt0297181/,,"North Vancouver, British Columbia, Canada",(studio),"North Vancouver, Metro Vancouver Regional District, British Columbia, V7M 1H9, Canada",49.3207133,-123.0737831
532,/title/tt0297181/,,USA,,United States,39.7837304,-100.4458825
533,/title/tt0297181/,,Monaco,(only establishing shot),Monaco,43.7323492,7.4276832
534,/title/tt3095734/,,"Kamloops, British Columbia, Canada",,"Kamloops, Thompson-Nicola Regional District, British Columbia, Canada",50.6758269,-120.3394159
535,/title/tt3095734/,,"British Columbia, Canada",,"British Columbia, Canada",55.001251,-125.002441
536,/title/tt1268799/,,"Portland, Oregon, USA",(stop motion animation),"Portland, Multnomah County, Oregon, United States of America",45.5202471,-122.6741949
537,/title/tt0160009/,,"Hong Kong, China",,"香港島 Hong Kong Island, 香港 Hong Kong, China 中国",22.2793278,114.1628131
538,/title/tt0160009/,,"Montréal, Québec, Canada",,"Montréal, Agglomération de Montréal, Montréal (06), Québec, Canada",45.4972159,-73.6103642
539,/title/tt0160009/,,"New York, USA",,"New York, United States of America",40.7127281,-74.0060152
540,/title/tt0160009/,,China,,中国,35.000074,104.999927
541,/title/tt0167456/,,"Cliveden House, Taplow, Buckinghamshire, England, UK",(Lady Penelope's Mansion),"Cliveden House, Cliveden Road, Taplow, Hedsor, Buckinghamshire, South East, England, SL6 0JF, United Kingdom",51.558432749999994,-0.6888447675171189
542,/title/tt0167456/,,"Datchet, Berkshire, England, UK",(San Francisco City Hospital building is really the Offices of Computer Associates Plc),,,
543,/title/tt0167456/,,"Cornwall, England, UK",,"Cornwall, Broadoak, Cornwall, South West England, England, United Kingdom",50.443348900000004,-4.62465658489158
544,/title/tt0167456/,,"University College London, Bloomsbury, London, England, UK",(Bank of London exteriors),"University College London, University Street, Somers Town, London Borough of Camden, London, Greater London, England, WC1E 6DE, United Kingdom",51.52412645,-0.13293023735954784
545,/title/tt12496734/,,"Chicago, Illinois, USA",,"Chicago, Cook County, Illinois, United States of America",41.8755616,-87.6244212
546,/title/tt0065150/,,"Durango, Mexico",,"Durango, México",24.833333,-104.833333
547,/title/tt0065150/,,"Sierra de Organos, Sombrerete, Zacatecas, Mexico",(location),"La sierra de órganos, Parque Nacional Sierra De Organos, San Francisco De Los Lauredes, San Francisco de Órganos, Sombrerete, Zacatecas, México",23.7427186,-103.7863931
548,/title/tt0065150/,,"Huasabas, Sonora, Mexico",,"Huásabas, Sonora, México",29.97228995,-109.35497646801542
549,/title/tt0065150/,,"La Presa de La Angostura, Sonora, Mexico",,,,
550,/title/tt0065150/,,"Bacadehuachi, Sonora, Mexico",,"Bacadéhuachi, Sonora, México",29.782791850000002,-109.12604636370457
551,/title/tt2378179/,,"Ghent, Flanders, Belgium",,"Gent, Oost-Vlaanderen, Vlaanderen, België - Belgique - Belgien",51.0538286,3.7250121
552,/title/tt2378179/,,Czech Republic,,Česko,49.8167003,15.4749544
553,/title/tt0117110/,,"A Stage, Shepperton Studios, Shepperton, Surrey, England, UK",(Admiral Benbow Inn; Bristol Docks; deck of the Hispaniola; Treasure Island beach),,,
554,/title/tt0105629/,,"Los Angeles, California, USA",,"Los Angeles, Los Angeles County, California, United States of America",34.0536909,-118.2427666
555,/title/tt0243585/,,"New York City, New York, USA",,"New York, United States of America",40.7127281,-74.0060152
556,/title/tt0243585/,,"Rose City High School - 351 S Hudson Ave, Pasadena, California, USA",,,,
557,/title/tt0103586/,,"Red Rock Canyon State Park - Highway 14, Cantil, California, USA",,,,
558,/title/tt0103586/,,"Desierto de Tabernas, Almería, Andalucía, Spain",,"Paraje Natural del Desierto de Tabernas, Gérgal, Almería, Andalucía, España",37.0675509,-2.5294695521144464
559,/title/tt0103586/,,Egypt,,مصر,26.2540493,29.2675469
560,/title/tt5776208/,,"Chicago Illinois, USA",(on location),"Chicago, Cook County, Illinois, United States of America",41.8755616,-87.6244212
561,/title/tt10394778/,,South Africa,,South Africa,-28.8166236,24.991639
562,/title/tt0300471/,,"CL Ranch - 45001 Township Road, Calgary, Alberta, Canada",,,,
563,/title/tt0300471/,,UK,,United Kingdom,54.7023545,-3.2765753
564,/title/tt0300471/,,"Karlovy Vary, Czech Republic",,"Karlovy Vary, okres Karlovy Vary, Karlovarský kraj, Severozápad, Česká republika",50.2304694,12.8710769
565,/title/tt0300471/,,"Los Angeles, California, USA",,"Los Angeles, Los Angeles County, California, United States of America",34.0536909,-118.2427666
566,/title/tt0300471/,,Czech Republic,,Česko,49.8167003,15.4749544
567,/title/tt0300471/,,"Action Under Water Studios, Hertford Road, Waltham Cross, Hertfordshire, England, UK",,,,
568,/title/tt0300471/,,"Kutná Hora, Stredoceský, Czech Republic",,"Kutná Hora, okres Kutná Hora, Středočeský kraj, Střední Čechy, Česká republika",49.9486561,15.2681123
569,/title/tt0300471/,,"John Adam Street, Strand, London, England, UK",,"John Adam Street, St Clement Danes, Covent Garden, City of Westminster, London, Greater London, England, WC2N 6BN, United Kingdom",51.5091557,-0.1229455
570,/title/tt0110647/,,"Yukon, Canada",,"Yukon, Canada",63.000147,-136.002502
571,/title/tt0110647/,,"1938 W 19th Avenue, Vancouver, British Columbia, Canada",(Bastian's house),"West 19th Avenue, South Cambie, Vancouver, Metro Vancouver Regional District, British Columbia, V5Z 2W7, Canada",49.2542049,-123.1160259
572,/title/tt0110647/,,"Metropolis at Metrotown, Burnaby, British Columbia, Canada",(mall),"Metropolis at Metrotown, 4700, Kingsway, Metrotown, Burnaby, Metro Vancouver Regional District, British Columbia, V5H 2B3, Canada",49.2264183,-123.00118858840227
573,/title/tt0110647/,,"Stage 3, Studio Babelsberg, Potsdam, Brandenburg, Germany",(Crystal Cave),"Studio 3, Joseph-von-Sternberg-Straße, Studio Babelsberg AG, Babelsberg, Potsdam, Brandenburg, 14482, Deutschland",52.387568099999996,13.119729799999998
574,/title/tt0110647/,,"South Dakota, USA",,"South Dakota, United States of America",44.6471761,-100.348761
575,/title/tt0110647/,,Canada,,Canada,61.0666922,-107.9917071
576,/title/tt0110647/,,"Berlin, Germany",,"Berlin, 10117, Deutschland",52.5170365,13.3888599
577,/title/tt0110647/,,"Studio Babelsberg, Potsdam, Brandenburg, Germany",(studio),"Studio Babelsberg, 15, Babelsberg, Potsdam, Brandenburg, 14482, Deutschland",52.38260355,13.113726021425222
578,/title/tt0068421/,,"Buckskin Joe Frontier Town & Railway - 1193 Fremont County Road 3A, Canon City, Colorado, USA",,,,
579,/title/tt0068421/,,"Empire Ranch, Sonoita, Arizona, USA",,,,
580,/title/tt0068421/,,"Chama, New Mexico, USA",,"Chama, Rio Arriba County, New Mexico, 87520, United States of America",36.9036557,-106.5798873
581,/title/tt0068421/,,"Pagosa Springs, Colorado, USA",,"Pagosa Springs, Archuleta County, Colorado, 81447, United States of America",37.2695661,-107.0108163
582,/title/tt0068421/,,"Bonanza Creek Ranch - 15 Bonanza Creek Lane, Santa Fe, New Mexico, USA",,,,
583,/title/tt0068421/,,"Elgin, Arizona, USA",,"Elgin, Granite Peak Road, Santa Cruz County, Arizona, United States of America",31.650702000000003,-110.49014267218385
584,/title/tt0068421/,,"Hereford, Arizona, USA",,"Hereford, Cochise County, Arizona, United States of America",31.4384325,-110.0978554
585,/title/tt0068421/,,"Stage 12, Warner Brothers Burbank Studios - 4000 Warner Boulevard, Burbank, California, USA",,,,
586,/title/tt0068421/,,"Stage 19, Warner Brothers Burbank Studios - 4000 Warner Boulevard, Burbank, California, USA",,,,
587,/title/tt0470055/,,"The Island of Gozo, Malta",,"Għawdex, Ix-Xagħra, Għawdex, Malta",36.0467778,14.25825649123654
588,/title/tt0382992/,,"Flinders Ranges, South Australia, Australia","(as Naval Air Test Range, Fallon, Nevada)","Flinders Ranges, Pastoral Unincorporated Area, South Australia, Australia",-31.497,138.545
589,/title/tt0382992/,,"Kurnell, New South Wales, Australia",,"Kurnell, Sydney, Sutherland Shire Council, New South Wales, 2231, Australia",-34.0222379,151.1880555
590,/title/tt0382992/,,"Southern Alps, New Zealand",(mountain scenes),"Southern Alps / Kā Tiritiri o te Moana, Westland District, West Coast, New Zealand",-43.9649295,169.5863321
591,/title/tt0382992/,,"Fox Studios, Moore Park, Sydney, New South Wales, Australia",(studio),"Fox Studios Australia, Moore Park, Sydney, Council of the City of Sydney, New South Wales, 2021, Australia",-33.890960899999996,151.22750517838074
592,/title/tt0382992/,,"Sydney, New South Wales, Australia",,"Sydney, New South Wales, Australia",-33.8548157,151.2164539
593,/title/tt0382992/,,Australia,,Australia,-24.7761086,134.755
594,/title/tt0382992/,,"Coronado, California, USA",,"Coronado, San Diego County, California, United States of America",32.6915199,-117.1766947
595,/title/tt0382992/,,"New South Wales, Australia",,"New South Wales, Australia",-31.8759835,147.2869493
596,/title/tt0382992/,,"South Australia, Australia","(as Naval Air Test Range, Fallon, Nevada)","South Australia, Australia",-30.5343665,135.6301212
597,/title/tt0382992/,,China,,中国,35.000074,104.999927
598,/title/tt6824658/,,"Chicago, Illinois, USA",,"Chicago, Cook County, Illinois, United States of America",41.8755616,-87.6244212
599,/title/tt6824658/,,"Paris, France",,"Paris, Île-de-France, France métropolitaine, 75004, France",48.8566969,2.3514616
600,/title/tt0089503/,,"Venice, Los Angeles, California, USA",(studio) (studio set interiors),"Venice, Los Angeles, Los Angeles County, California, United States of America",33.995044,-118.4668875
601,/title/tt0089503/,,"Encino, California, USA",(Wolfe's house & hospital locations),"Encino, Los Angeles, Los Angeles County, California, 91316-3402, United States of America",34.1591324,-118.5016166
602,/title/tt0089503/,,"Long Beach, California, USA",(airport scenes),"Long Beach, Los Angeles County, California, United States of America",33.7690164,-118.1916048
603,/title/tt0089503/,,"Wattles Mansion - 1824 N. Curson Avenue, Hollywood, Los Angeles, California, USA",(Sin Do's island mansion),,,
604,/title/tt0409572/,,"Drumheller, Alberta, Canada",,"Drumheller, Town of Drumheller, Alberta, T0J 0Y0, Canada",51.4662795,-112.7046642
605,/title/tt0409572/,,"Bonanza Creek Ranch - 15 Bonanza Creek Lane, Santa Fe, New Mexico, USA",,,,
606,/title/tt0083943/,,"Zeltweg, Steiermark, Austria",,"Zeltweg, Bezirk Murtal, Steiermark, 8740, Österreich",47.1912045,14.7549244
607,/title/tt0083943/,,"Thule Air Base, Qaanaaq, Greenland",,,,
608,/title/tt0083943/,,"Edwards Air Force Base, California, USA","(Wayne Specht, Air Force public affairs office, Edwards AFB, California in 1982)","Edwards Air Force Base, Kincheloe Avenue, Edwards, Kern County, California, 93524, United States of America",34.900814,-117.94395332567805
609,/title/tt0083943/,,"Cut Bank, Montana, USA",,"Cut Bank, Glacier County, Montana, United States of America",48.63304,-112.326162
610,/title/tt0083943/,,"Glasgow, Montana, USA",,"Glasgow, Valley County, Montana, 59230, United States of America",48.1955915,-106.6355561
611,/title/tt0083943/,,"Hauptbahnhof Salzburg - Südtiroler Platz 1, Elisabeth-Vorstadt, Salzburg, Salzburg, Austria",(Gant exits the metro train),"Hauptbahnhof, Südtiroler Platz, Elisabeth-Vorstadt, Salzburg, 5020, Österreich",47.813032,13.0443154
612,/title/tt1981107/,,"Faculty of Law, McGill University, Montréal, Québec, Canada",,,,
613,/title/tt1981107/,,"Lachine Canal, Montréal, Québec, Canada",,"Canal-de-Lachine, Montréal, Agglomération de Montréal, Montréal (06), Québec, H4C 2C7, Canada",45.4611549,-73.6031971
614,/title/tt1981107/,,"Boisbriand, Québec, Canada",,"Boisbriand, Thérèse-De Blainville, Laurentides, Québec, Canada",45.6130352,-73.8386827
615,/title/tt1981107/,,"Savona, British Columbia, Canada",(3-D train sequences),"Savona, Area J (Copper Desert Country), Thompson-Nicola Regional District, British Columbia, Canada",50.7534762,-120.843324
616,/title/tt1981107/,,"Lytton, British Columbia, Canada",(3-D train sequences),"Lytton, Thompson-Nicola Regional District, British Columbia, V0K 1Z0, Canada",50.2311317,-121.581601
617,/title/tt1981107/,,"Westmount Park School, Montréal, Québec, Canada",,"Westmount Park School, Avenue Melville, Westmount, Agglomération de Montréal, Montréal (06), Québec, H3Z 1G1, Canada",45.4810004,-73.5945569
618,/title/tt1981107/,,"Calgary, Alberta, Canada",,"Calgary, Strathmore (town), Alberta, Canada",51.0534234,-114.0625892
619,/title/tt1981107/,,"Smithsonian Institution, Washington, District of Columbia, USA",(Smithsonian Institute exteriors),"National Museum of Natural History, Smithsonian Pollinator Garden Path, Penn Quarter, Washington, District of Columbia, 20560, United States of America",38.8913369,-77.02597980275456
620,/title/tt1981107/,,"Longview, Alberta, Canada",,"Village of Longview, Alberta, T0L 1H0, Canada",50.532999,-114.230784
621,/title/tt1981107/,,"Pincher Creek, Alberta, Canada",(ranch set),"Pincher Creek, Town of Pincher Creek, Alberta, T0K 1W0, Canada",49.485667,-113.9502919
622,/title/tt1981107/,,"Redpath Museum, Montréal, Québec, Canada",,"Redpath Museum, Rue McTavish, Montagne, Ville-Marie, Montréal, Agglomération de Montréal, Montréal (06), Québec, H3A 1A7, Canada",45.50448575,-73.57751771942347
623,/title/tt0049096/,,"Paramount Studios - 5555 Melrose Avenue, Hollywood, Los Angeles, California, USA",(studio),,,
624,/title/tt0073341/,,Morocco,(filmed on location in),Maroc / ⵍⵎⵖⵔⵉⴱ / المغرب,31.1728205,-7.3362482
625,/title/tt0073341/,,"Les Grands Montets, Chamonix, Haute-Savoie, France","(mountain scenes, mentioned in credits as ""Grande Montée, Chamonix"")","Les Grands Montets, Chamonix-Mont-Blanc, Bonneville, Haute-Savoie, Auvergne-Rhône-Alpes, France métropolitaine, 74400, France",45.9639715,6.945311335636189
626,/title/tt0073341/,,"Pinewood Studios, Iver Heath, Buckinghamshire, England, UK",(studio) (studio: completed at),"Pinewood Studios, Pinewood Green, Iver, Iver Heath, Buckinghamshire, South East, England, SL0 0QJ, United Kingdom",51.54831515,-0.5346765566753087
627,/title/tt0073341/,,"Tifoultoute, Morocco",(battle),"Tifoultoute ⵜⵉⴼⵓⵍⵜⵓⵜ تيفولتوت, caïdat de Ahl Ouarzazate, cercle d'Ouarzazate, Province de Ouarzazate ⵍⵉⵇⵍⵉⵎ ⵏ ⵡⴰⵔⵣⴰⵣⴰⵜ إقليم ورززات, Drâa-Tafilalet ⴷⴰⵔⵄⴰ-ⵜⴰⴼⵉⵍⴰⵍⵜ درعة تافيلالت, Maroc",30.9261721,-6.9916371
628,/title/tt0073341/,,"Aït Benhaddou, Morocco",(capital city of Kafiristan),"Aït Ben Haddou ⴰⵢⵜ ⴱⵏ ⵃⴷⴷⵓ آيت بن حدو, caïdat de Amerzgane, cercle d'Amerzgane دائرة أمرزكان, Province de Ouarzazate ⵍⵉⵇⵍⵉⵎ ⵏ ⵡⴰⵔⵣⴰⵣⴰⵜ إقليم ورززات, Drâa-Tafilalet ⴷⴰⵔⵄⴰ-ⵜⴰⴼⵉⵍⴰⵍⵜ درعة تافيلالت, 45100, Maroc",31.0451122,-7.1310323
629,/title/tt0072951/,,"Big Sur, California, USA",,"Big Sur, Monterey County, California, 93920-9998, United States of America",36.270241,-121.8074545
630,/title/tt0072951/,,"Monterey Peninsula, California, USA",,"Monterey Peninsula College, Mesa Road, Del Monte, Monterey, Monterey County, California, 93940, United States of America",36.59117105,-121.88486383559369
631,/title/tt0072951/,,"Bixby Creek Arch Bridge, Big Sur, California, USA",(Deranian stops and talks with Sheriff's search party),,,
632,/title/tt0072951/,,"Fine Arts Theatre, 429 S. California Avenue, Palo Alto, California, USA",(Now a coffee shop),,,
633,/title/tt0072951/,,"Menlo Park, California, USA",,"Menlo Park, San Mateo County, California, United States of America",37.4519671,-122.1779927
634,/title/tt0376105/,,"Hollywood, Los Angeles, California, USA",,"Hollywood, Los Angeles, Los Angeles County, California, 90028-8127, United States of America",34.0980031,-118.329523
635,/title/tt0376105/,,"Los Angeles, California, USA",,"Los Angeles, Los Angeles County, California, United States of America",34.0536909,-118.2427666
636,/title/tt0376105/,,USA,(United States of America),United States,39.7837304,-100.4458825
637,/title/tt8031422/,,"Castel Film Studios, Bucharest, Romania",(studio),,,
638,/title/tt8031422/,,USA,,United States,39.7837304,-100.4458825
639,/title/tt0080274/,,"Hikone Castle, Hikone, Shiga Prefecture, Japan",(Toranaga's Castle),"彦根城, 黒門橋, 彦根, 彦根市, 滋賀県, 522-0001, 日本 (Japan)",35.27700325,136.25174669997844
640,/title/tt0080274/,,"Toho Studios, Tokyo, Japan",,"東宝撮影所, 成城六間通り, 船橋, 世田谷区, 東京都, 1570066, 日本 (Japan)",35.634334800000005,139.6047840467249
641,/title/tt0080274/,,Japan,,日本,36.5748441,139.2394179
642,/title/tt0080274/,,"Fushimi Castle, Fushimi District, Kyoto, Japan","(Edo Castle, Chiyoda, Tokyo, Japan)",,,
643,/title/tt0080274/,,"Paramount Studios - 5555 Melrose Avenue, Hollywood, Los Angeles, California, USA",,,,
644,/title/tt2295722/,,"Caribe Hilton Hotel, San Juan, Puerto Rico",(Breakfast area at beachfront),,,
645,/title/tt0410377/,,"Bowen, Queensland, Australia",,"Bowen, Whitsunday Regional, Queensland, 4805, Australia",-20.0106949,148.2468293
646,/title/tt0410377/,,"Village Roadshow Studios, Oxenford, Queensland, Australia",(studio),"Village Roadshow Studios, Entertainment Road, Oxenford, Gold Coast City, Queensland, 4210, Australia",-27.910527700000003,153.3118145855983
647,/title/tt0051808/,,"Gotemba, Shizuoka, Japan",,"御殿場市, 静岡県, 日本 (Japan)",35.301048,138.877573
648,/title/tt0051808/,,"Mount Fuji, Shizuoka, Japan",,"富士山, 富士宮市, 駿東郡, 静岡県, 日本 (Japan)",35.362799,138.730781
649,/title/tt0103923/,,Slovenia,,Slovenija,45.8133113,14.4808369
650,/title/tt0103923/,,"Dubrovnik, Croatia",,"Dubrovnik, Grad Dubrovnik, Dubrovačko-neretvanska županija, 20000, Hrvatska",42.6502473,18.0924947
651,/title/tt0060036/,,"Lone Pine, California, USA",,"Lone Pine, Inyo County, California, 93545, United States of America",36.583175999999995,-118.07835929489717
652,/title/tt0063907/,,"Los Angeles, California, USA",(studio),"Los Angeles, Los Angeles County, California, United States of America",34.0536909,-118.2427666
653,/title/tt6461824/,,"Garry Point Park, Steveston, British Columbia, Canada",(Fair Grounds),"Garry Point Park, Steveston, Richmond, Metro Vancouver Regional District, British Columbia, Canada",49.12560285,-123.19618914414357
654,/title/tt6461824/,,"Bentall Centre, Vancouver, British Columbia, Canada",,"Bentall Centre, Burrard Street, Downtown, Vancouver, Metro Vancouver Regional District, British Columbia, V7X 1A0, Canada",49.2862341,-123.1190285
655,/title/tt1709143/,,"Elstree Studios, Borehamwood, Hertfordshire, England, UK",(studio),"Elstree Studios, Shenley Road, Elstree and Borehamwood, Hertsmere, Hertfordshire, East of England, England, WD6 1JG, United Kingdom",51.657052050000004,-0.2675206399488197
656,/title/tt0052722/,,"Rowland V. Lee Ranch - Fallbrook Avenue, Canoga Park, Los Angeles, California, USA",,,,
657,/title/tt2125435/,,"Montegut, Louisiana, USA",,"Montegut, Terrebonne Parish, Louisiana, 70377, United States of America",29.4743852,-90.5570308
658,/title/tt2125435/,,"Louisiana, USA",,"Louisiana, United States of America",30.8703881,-92.007126
659,/title/tt0170982/,,"Orlando, Florida, USA",,"Orlando, Orange County, Florida, United States of America",28.5421109,-81.3790304
660,/title/tt3614530/,,"Van Nuys, Los Angeles, California, USA",,"Van Nuys, Los Angeles, Los Angeles County, California, 91401-2649, United States of America",34.1866193,-118.4486669
661,/title/tt2974918/,,"Miami Beach, Florida, USA",,"Miami Beach, Miami-Dade County, Florida, United States of America",25.7929198,-80.1353006
662,/title/tt2974918/,,"French Quarter, New Orleans, Louisiana, USA",,"French Quarter, New Orleans, Orleans Parish, Louisiana, 70116, United States of America",29.9595056,-90.0655668
663,/title/tt2974918/,,"Los Angeles, California, USA",,"Los Angeles, Los Angeles County, California, United States of America",34.0536909,-118.2427666
664,/title/tt0026752/,,"Monterey Bay, California, USA",,"Monterey Bay, Monterey, United States of America",36.7999557,-121.9010668
665,/title/tt0026752/,,"San Miguel Island, Channel Islands, California, USA",,,,
666,/title/tt0026752/,,"Two Harbors, Santa Catalina Island, Channel Islands, California, USA",(Christian's Tahitian hut),,,
667,/title/tt0026752/,,"Monterey Harbor, Monterey, California, USA",,"Monterey Harbor, Monterey, Monterey County, California, 93944, United States of America",36.6116265,-121.8955095
668,/title/tt0026752/,,"Shark Harbor, Santa Catalina Island, Channel Islands, California, USA",(Christian bids farewell to his Bounty shipmates on Tahiti),,,
669,/title/tt0026752/,,"South Beach Harbor, South Beach, San Francisco, California, USA","(ship ""Ellen"" as ""The Bounty"")","South Beach Harbor, Herb Caen Way, South Beach, San Francisco, San Francisco City and County, California, 94017, United States of America",37.78043475,-122.38608964605893
670,/title/tt0026752/,,Pacific Ocean,,"Pacific Ocean, Gulf View Executive Homes, Talomo, Davao City, Davao Region, 8024, Philippines",7.0427772,125.5367255
671,/title/tt0026752/,,"Point Reyes, Marin County, California, USA",(a replica of the Bounty at anchor),"Point Reyes, Marin County, California, United States of America",37.9953181,-123.0234657
672,/title/tt0026752/,,"Metro-Goldwyn-Mayer Studios - 10202 W. Washington Blvd., Culver City, California, USA",(studio),,,
673,/title/tt0060218/,,"Rome, Lazio, Italy",,"Roma Capitale, Lazio, Italia",41.85223935,12.631036615953583
674,/title/tt0087175/,,"1320 Miller Drive, West Hollywood, California, USA",(Alex's apartment),"1320, Miller Drive, Sunset Strip, Hollywood Hills West, West Hollywood, Los Angeles County, California, 90069, United States of America",34.094325,-118.377269
675,/title/tt0087175/,,"Los Alamitos Racetrack - 4961 Katella Avenue, Los Alamitos, California, USA",,,,
676,/title/tt0087175/,,"Santa Clarita, California, USA",,"Santa Clarita, Los Angeles County, California, United States of America",34.3916641,-118.542586
677,/title/tt0049513/,,"Madeira, Portugal",,"Madeira, Portugal",32.751748750000004,-16.981752048847362
678,/title/tt0049513/,,"Mystic Seaport - 75 Greenmanville Avenue, Mystic, Connecticut, USA",(Richard E),"Mystic Seaport, 75, Greenmanville Avenue, Mystic, New London County, Connecticut, 06355, United States of America",41.3610931,-71.964799
679,/title/tt0049513/,,"Nantucket, Massachusetts, USA",,"Nantucket, Nantucket County, Massachusetts, United States of America",41.2851566,-70.0984222
680,/title/tt0049513/,,"Dyfed, Wales, UK",,"Dyfed, Northcliffe, Penarth Marina, Penarth, Vale of Glamorgan, Cymru / Wales, CF64 1DX, United Kingdom",51.44404605,-3.1673700650176224
681,/title/tt0049513/,,"Pembrokeshire, Wales, UK",,"Pembrokeshire, Cymru / Wales, United Kingdom",51.8339209,-4.916667
682,/title/tt0049513/,,"Elstree Studios, Borehamwood, Hertfordshire, England, UK",(studio),"Elstree Studios, Shenley Road, Elstree and Borehamwood, Hertsmere, Hertfordshire, East of England, England, WD6 1JG, United Kingdom",51.657052050000004,-0.2675206399488197
683,/title/tt0049513/,,North Atlantic Ocean,,North Atlantic Ocean,40.0,-40.0
684,/title/tt10384744/,,"Baradero, Buenos Aires, Federal District, Argentina",,,,
685,/title/tt10384744/,,"Luján, Buenos Aires, Federal District, Argentina",,,,
686,/title/tt0084296/,,"Merrijig, Victoria, Australia",,"Merrijig, Shire of Mansfield, Victoria, Australia",-37.1034526,146.2630247
687,/title/tt0084296/,,"Central Victoria, Victoria, Australia",,"La Central, 322-326, Coventry Street, South Melbourne, City of Port Phillip, Victoria, 3205, Australia",-37.8326622,144.9567877
688,/title/tt0061439/,,"Coca, Segovia, Castilla y León, Spain",,"Coca, Castilla y León, España",41.2176667,-4.5228361
689,/title/tt0061439/,,"Stage 16, Warner Brothers Burbank Studios - 4000 Warner Boulevard, Burbank, California, USA",,,,
690,/title/tt0061439/,,"Stage 27A, Warner Brothers Burbank Studios - 4000 Warner Boulevard, Burbank, California, USA",,,,
691,/title/tt0061439/,,"Stage 8, Warner Brothers Burbank Studios - 4000 Warner Boulevard, Burbank, California, USA",,,,
692,/title/tt3305096/,,"The Bottleyard Studios, Bristol, England, UK",(studio),,,
693,/title/tt0086618/,,"St. Petersburg, Florida, USA","(MGM's ""Bounty"")","St. Petersburg, Pinellas County, Florida, United States of America",27.7703796,-82.6695085
694,/title/tt0086618/,,"The Mermaid Inn, Mermaid Street, Rye, East Sussex, England, UK",(Tavern exterior),"The Mermaid Inn, Mermaid Street, Rye, Rother, East Sussex, South East, England, TN31 7EY, United Kingdom",50.9500785,0.732129
695,/title/tt2761354/,,"Were Street, Montmorencey, Victoria, Australia",(street scenes),,,
696,/title/tt5709188/,,"Buenos Aires, Federal District, Argentina",,,,
697,/title/tt5709188/,,"London, England, UK",,"London, Greater London, England, United Kingdom",51.5073219,-0.1276474
698,/title/tt5709188/,,Mexico,(location),"Ciudad de México, 06060, México",19.4326296,-99.1331785
699,/title/tt5709188/,,"Paramount Studios - 5555 Melrose Avenue, Hollywood, Los Angeles, California, USA",(studio),,,
700,/title/tt5709188/,,USA,,United States,39.7837304,-100.4458825
701,/title/tt1626146/,,"Johannesburg, South Africa",,"Johannesburg, City of Johannesburg Metropolitan Municipality, Gauteng, 2001, South Africa",-26.205,28.049722
702,/title/tt1626146/,,"Riverview Hospital, Coquitlam, British Columbia, Canada",(Dr. Coreman's lab),,,
703,/title/tt1626146/,,"Casa Mia, Vancouver, British Columbia, Canada",(Hector's office and Diego's home),"Casa Mia, Southwest Marine Drive, Kerrisdale, Vancouver, Metro Vancouver Regional District, British Columbia, V6P 5T3, Canada",49.2112058,-123.15175507591803
704,/title/tt1626146/,,"Benoni, South Africa",(storeroom and dilapidated library),"Benoni, City of Ekurhuleni Metropolitan Municipality, Gauteng, 1501, South Africa",-26.1930356,28.3082376
705,/title/tt1626146/,,"Leh, Ladakh, Jammu & Kashmir, India","(exterior, monastery)",,,
706,/title/tt1626146/,,"Glen Afric Country Lodge, Hartbeespoort, South Africa",(hotel and animal sanctuary),,,
707,/title/tt1626146/,,"Ladakh, Jammu & Kashmir, India",,,,
