,Code,Show Name,Location,Scene,geocodedLocation,latitude,longitude
0,/title/tt1132130/,,"Belize City, Belize",,"Belize City, Belize District, Belize",17.5000543,-88.2003115
1,/title/tt1132130/,,Belize,,Belize,16.8259793,-88.7600927
2,/title/tt1132130/,,"Castaic, California, USA",,"Castaic, Los Angeles County, California, 91384, United States of America",34.4888822,-118.6228656
3,/title/tt1132130/,,"San Ignacio, Belize",,"San Ignacio, Cayo District, Cayo, 000000, Belize",17.1527588,-89.0761718
4,/title/tt0062708/,,"Lee's Ferry, Arizona, USA",,"Lee's Ferry, Spencer Trail, Coconino County, Arizona, United States of America",36.86611515,-111.58721229452009
5,/title/tt0062708/,,"Del Rio, Texas, USA",,"Del Rio, Val Verde County, Texas, United States of America",29.3655405,-100.8946984
6,/title/tt0062708/,,"Stage 20, 20th Century Fox Studios - 10201 Pico Blvd., Century City, Los Angeles, California, USA",,,,
7,/title/tt0116401/,,"Vancouver, British Columbia, Canada",,"Vancouver, Metro Vancouver Regional District, British Columbia, Canada",49.2608724,-123.1139529
8,/title/tt0090130/,,"Corpus Christi, Texas, USA",,"Corpus Christi, Nueces County, Texas, United States of America",27.7477253,-97.4014129
9,/title/tt0090130/,,"Paris, France",,"Paris, Île-de-France, France métropolitaine, 75004, France",48.8566969,2.3514616
10,/title/tt0090130/,,"St. Pauli Landungsbrücken, Hamburg, Germany",,"St. Pauli-Landungsbrücken, Neustadt, Hamburg-Mitte, Hamburg, 20459, Deutschland",53.5445626,9.9721834
11,/title/tt0090130/,,"Studios de Boulogne-Billancourt/SFP - 2 Rue de Silly, Boulogne-Billancourt, Hauts-de-Seine, France",(studio),,,
12,/title/tt0080436/,,"San Antonio, Texas, USA",,"San Antonio, Bexar County, Texas, United States of America",29.4246002,-98.4951405
13,/title/tt0298296/,,"Sofia, Bulgaria",,"София, Оборище, Столична, София-град, 1000, България",42.6978634,23.3221789
14,/title/tt0084867/,,"Brooklyn, New York City, New York, USA",,"Brooklyn, Kings County, New York, United States of America",40.6501038,-73.9495823
15,/title/tt0117193/,,"Griffith Park - 4730 Crystal Springs Drive, Los Angeles, California, USA",,,,
16,/title/tt1041804/,,"Budapest, Hungary",,"Budapest, Közép-Magyarország, 1011, Magyarország",47.4983815,19.0404707
17,/title/tt0079227/,,"Squaw Valley Inn - 1920 Squaw Valley Rd, Squaw Valley, California, USA",,,,
18,/title/tt0481522/,,"Vancouver International Airport, Sea Island, Richmond, British Columbia, Canada",(Airport interiors),"Vancouver International Airport, No. 2 Road Bridge, Golden Village, City Centre, Richmond, Metro Vancouver Regional District, British Columbia, V7C, Canada",49.193044,-123.17986424460963
19,/title/tt0090915/,,"Sydney, New South Wales, Australia",,"Sydney, New South Wales, Australia",-33.8548157,151.2164539
20,/title/tt8558306/,,"New York City, New York, USA",,"New York, United States of America",40.7127281,-74.0060152
21,/title/tt0065230/,,"Tucson, Arizona, USA",,"Tucson, Pima County, Arizona, United States of America",32.2228765,-110.9748477
22,/title/tt0065230/,,"Sonoran Desert, Arizona, USA",,"Sonoran Desert, Bates Well Road, Pima County, Arizona, United States of America",32.2598642,-112.9262583
23,/title/tt0065230/,,"Picacho Peak State Park, Arizona, USA",,"Picacho Peak State Park, Wymola, Pinal County, Arizona, 85141, United States of America",32.6350791,-111.4188893366426
24,/title/tt0065230/,,"Tucson Mountains, Arizona, USA",,,,
25,/title/tt0075359/,,"Angeleno Hotel - 170 N. Church Lane, Los Angeles, California, USA",(sniper's hotel),,,
26,/title/tt0075359/,,"Sheraton Town House - 2959 Wilshire Blvd, Los Angeles, California, USA",,,,
27,/title/tt0075359/,,"Christ the King Roman Catholic Church - 624 N Rossmore Ave, Hollywood, Los Angeles, California, USA",,,,
28,/title/tt0075359/,,"Los Angeles, California, USA",,"Los Angeles, Los Angeles County, California, United States of America",34.0536909,-118.2427666
29,/title/tt0417397/,,Finland,,Suomi,63.2467777,25.9209164
30,/title/tt0417397/,,Uzbekistan,,Oʻzbekiston,41.32373,63.9528098
31,/title/tt0327409/,,"Newhall, California, USA",,"Newhall, Santa Clarita, Los Angeles County, California, 91321, United States of America",34.3798765,-118.5291917
32,/title/tt0075669/,,"Kamalistan Studios, Andheri, Mumbai, Maharashtra, India",(studio),,,
33,/title/tt0075669/,,"Ranjit Studios, Mumbai, Maharashtra, India",(studio),,,
34,/title/tt0072325/,,"Brownleigh Apartments - 626 St. Paul Avenue, Los Angeles, California, USA",(Truck's apartment),,,
35,/title/tt0072325/,,"San Pedro, Los Angeles, California, USA",(courtroom),"San Pedro, Los Angeles, Los Angeles County, California, 90731, United States of America",33.7358518,-118.2922934
36,/title/tt0072325/,,"Silver Lake, Los Angeles, California, USA",(Gator's hideout),"Silver Lake, Los Angeles, Los Angeles County, California, 90026-2106, United States of America",34.0896518,-118.2693735
37,/title/tt0072325/,,"Chevron Refinery Power Generating Station, 300 Vista del Mar, El Segundo, California, USA",(chase sequence),,,
38,/title/tt4616014/,,"Dolna Malina studio, Bulgaria",,,,
39,/title/tt0082949/,,"Château de Maintenon, Maintenon, Eure-et-Loir, France","(as Château de Ferrières, castle and park)","Château de Maintenon, Place Aristide Briand, Maintenon, Chartres, Eure-et-Loir, Centre-Val de Loire, France métropolitaine, 28130, France",48.585785,1.5786199732142852
40,/title/tt0082949/,,"Paris, France",,"Paris, Île-de-France, France métropolitaine, 75004, France",48.8566969,2.3514616
41,/title/tt0082949/,,"Île aux Cygnes, Paris 15, Paris, France",(Beaumont hires bums),,,
42,/title/tt0082949/,,"Esplanade du Trocadéro, Paris 16, Paris, France",(car chase on the stairs),"Esplanade du Trocadéro, Parvis des Libertés et des Droits de l'Homme, Quartier de Chaillot, Paris, Île-de-France, France métropolitaine, 75016, France",48.8619948,2.2887325
43,/title/tt0082949/,,"Institut Médico-Légal, 2 Place Mazas, Paris 12, Paris, France",(morgue),"Institut Médico-Légal, Place Mazas, Quartier des Quinze-Vingts, Paris, Île-de-France, France métropolitaine, 75012, France",48.84473775,2.3682128129306803
44,/title/tt0065163/,,"Almería, Andalucía, Spain",,"Almería, Andalucía, España",36.8414197,-2.4628135
45,/title/tt0065163/,,"Cuenca, Castilla-La Mancha, Spain",,"Cuenca, Castilla-La Mancha, España",40.0681156,-2.1348241
46,/title/tt0065163/,,"Catedral de la Encarnación de Almería, 8 plaza de la Catedral, Almeria, Spain",(Gwangi breaks into the cathedral where the crowd has taken refuge),,,
47,/title/tt0065163/,,"Cabo de Gata, Almería, Andalucía, Spain",(desert scenes),"Cabo de Gata, AL-3115, La Fabriquilla, Níjar, Almería, Andalucía, España",36.7210296,-2.1932327
48,/title/tt0092329/,,USA,,United States,39.7837304,-100.4458825
49,/title/tt0076594/,,"Long Beach, California, USA",(DC-10 aircraft interiors),"Long Beach, Los Angeles County, California, United States of America",33.7690164,-118.1916048
50,/title/tt0338325/,,"Broadway, Los Angeles, California, USA",,"Broadway, South Whittier, Los Angeles County, California, 90604, United States of America",33.9404231,-118.028201
51,/title/tt0338325/,,"Chatsworth, Los Angeles, California, USA",,"Chatsworth, Los Angeles, Los Angeles County, California, United States of America",34.2595715,-118.6023247
52,/title/tt0338325/,,"North Hollywood Medical Center - 12699 Riverside Drive, North Hollywood, Los Angeles, California, USA",(Cedar View Hospital interiors),,,
53,/title/tt0338325/,,"San Pedro, Los Angeles, California, USA",,"San Pedro, Los Angeles, Los Angeles County, California, 90731, United States of America",33.7358518,-118.2922934
54,/title/tt0338325/,,"Figueroa Street, Downtown, Los Angeles, California, USA",,"Figueroa Street, South Park, Downtown, Los Angeles, Los Angeles County, California, 90015-3018, United States of America",34.0397956,-118.2686095
55,/title/tt9363602/,,"Orlando, Florida, USA",(city),"Orlando, Orange County, Florida, United States of America",28.5421109,-81.3790304
56,/title/tt9363602/,,"Norwalk, Connecticut, USA",(Firefly Funhouse Match),"Norwalk, Fairfield County, Connecticut, United States of America",41.1175966,-73.4078968
57,/title/tt0473188/,,"34691 Camino Capistrano, Dana Point, California, USA",(Monk's villa),"34691, Camino Capistrano, Capistrano Beach, Dana Point, Orange County, California, 92624, United States of America",33.4586144,-117.6706171
58,/title/tt0473188/,,"Los Angeles, California, USA",,"Los Angeles, Los Angeles County, California, United States of America",34.0536909,-118.2427666
59,/title/tt3078602/,,"South Australia, Australia",,"South Australia, Australia",-30.5343665,135.6301212
60,/title/tt3078602/,,"Adelaide, South Australia, Australia",,"Adelaide, Adelaide City Council, South Australia, Australia",-34.9281805,138.5999312
61,/title/tt3078602/,,"Adelaide Hills, South Australia, Australia",,"Adelaide Hills Council, South Australia, Australia",-34.901351649999995,138.8293202817461
62,/title/tt3078602/,,"Carclew Living Arts Centre, 11 Jeffcott Street, North Adelaide, Adelaide, South Australia, Australia",(nurses home),,,
63,/title/tt0000439/,,"Dover, New Jersey, USA",,"Dover, Morris County, New Jersey, 07801, United States of America",40.883988,-74.5621025
64,/title/tt0000439/,,"New York, USA",,"New York, United States of America",40.7127281,-74.0060152
65,/title/tt0000439/,,"West Orange, New Jersey, USA",,"West Orange, Essex County, New Jersey, 07052, United States of America",40.7987113,-74.2390353
66,/title/tt0092962/,,"Nevada, USA",,"Nevada, United States of America",39.5158825,-116.8537227
67,/title/tt0092962/,,Réunion,,"La Réunion, France",-21.1309332,55.5265771
68,/title/tt0062639/,,"Orly Airport, Orly, Val-de-Marne, France",(airport scenes),"Hilton Garden Inn Paris Orly Airport, 4, Place des États-Unis, Parc ICADE Paris Orly-Rungis, Rungis, Arrondissement de L'Haÿ-les-Roses, Val-de-Marne, Île-de-France, France métropolitaine, 94150, France",48.748477050000005,2.35572229362018
69,/title/tt0062639/,,"Paris, France","(office building break-in scenes, police station scenes, Dominique Austerlitz's apartment)","Paris, Île-de-France, France métropolitaine, 75004, France",48.8566969,2.3514616
70,/title/tt0062639/,,"Viaduc de Corbière, L'Estaque, Marseille, Bouches-du-Rhône, France",,,,
71,/title/tt11301886/,,"Los Angeles, California, USA",,"Los Angeles, Los Angeles County, California, United States of America",34.0536909,-118.2427666
72,/title/tt0089756/,,Yugoslavia,,"Yugoslavia, Parroquia Santa Clara, Municipio José Gregorio Monagas, Anzoátegui, Región Nororiental, Venezuela",8.1939477,-64.5043374
73,/title/tt1504443/,,"Dallas, Texas, USA",(studio),"Dallas, Dallas County, Texas, United States of America",32.7762719,-96.7968559
74,/title/tt0910934/,,"Albuquerque, New Mexico, USA",,"Albuquerque, Bernalillo County, New Mexico, United States of America",35.0841034,-106.6509851
75,/title/tt0089604/,,"St Kitts, St Kitts and Nevis",,Saint Kitts and Nevis,17.250512,-62.6725973
76,/title/tt0088195/,,"Port Authority Bus Terminal, Manhattan, New York City, New York, USA",,"Port Authority Bus Terminal, 625, 8th Avenue, Theater District, Manhattan Community Board 5, Manhattan, New York County, New York, 10036, United States of America",40.7568804,-73.99148667376184
77,/title/tt0083960/,,"Hong Kong, China",,"香港島 Hong Kong Island, 香港 Hong Kong, China 中国",22.2793278,114.1628131
78,/title/tt0281190/,,"Miami Beach, Florida, USA",,"Miami Beach, Miami-Dade County, Florida, United States of America",25.7929198,-80.1353006
79,/title/tt7447318/,,"Chicago, Illinois, USA",,"Chicago, Cook County, Illinois, United States of America",41.8755616,-87.6244212
80,/title/tt1684548/,,"Mohican State Park and Forest, Ohio, USA",,"Mohican State Park, McCurdy Road, Worthington Township, Richland County, Ohio, United States of America",40.599409249999994,-82.29991373722834
81,/title/tt1684548/,,"Angeles National Forest, California, USA",,"Angeles National Forest, Los Angeles County, California, United States of America",34.32165465,-118.01920095646192
82,/title/tt1684548/,,"Michigan, USA",,"Michigan, United States of America",43.6211955,-84.6824346
83,/title/tt0074706/,,"Thousand Oaks, California, USA",,"Thousand Oaks, Ventura County, California, United States of America",34.17142715,-118.91058772974445
84,/title/tt0074706/,,"Westlake, California, USA",,"Westlake, Los Angeles, Los Angeles County, California, United States of America",34.0629226,-118.2728204
85,/title/tt1477109/,,"Tokyo, Japan",,"東京都, 日本 (Japan)",35.6828387,139.7594549
86,/title/tt2004262/,,"Lunenburg, Nova Scotia, Canada",(Identified distinctive buildings in some shots. https: //www.google.com/search?q=lunenburg+nova+scotia&num=20&espv=2&tbm=isch&tbo=u&source=univ&sa=X&ved=0ahUKEwj5g6_go_rMAhUMM1IKHZtID8UQsAQIHA&biw=1366&bih=643),"Lunenburg, Lunenburg County, Nova Scotia, Canada",44.5070278,-64.4344556
87,/title/tt5822500/,,"Alaska, USA",,"Alaska, United States of America",64.4459613,-149.680909
88,/title/tt0051461/,,"Elfrida, Arizona, USA",,"Elfrida, Cochise County, Arizona, United States of America",31.6853714,-109.6870138
89,/title/tt0051461/,,"Paul Spur, Arizona, USA",,"Paul Spur, Cochise County, Arizona, United States of America",31.3662127,-109.7345151
90,/title/tt0051461/,,"Double Adobe, Arizona, USA",,"Double Adobe, Cochise County, Arizona, United States of America",31.4667657,-109.6900706
91,/title/tt9070896/,,Uruguay,,Uruguay,-32.8755548,-56.0201525
92,/title/tt0078975/,,"Tel Aviv, Israel",,"תל אביב-יפו, מחוז תל אביב, ישראל",32.0804808,34.7805274
93,/title/tt0296574/,,"Mumbai, Maharashtra, India",,"Mumbai, Mumbai City, Maharashtra, India",18.9387711,72.8353355
94,/title/tt0144714/,,"Toronto, Ontario, Canada",,"Toronto, Golden Horseshoe, Ontario, Canada",43.6534817,-79.3839347
95,/title/tt0144714/,,France,,France,46.603354,1.8883335
96,/title/tt1214983/,,"Dinosaur Provincial Park, Alberta, Canada",,"Dinosaur Provincial Park, Range Road 113, Special Area No. 2, Alberta, Canada",50.74711015,-111.46764424216288
97,/title/tt2016894/,,"Trinity College, Dublin, County Dublin, Ireland",,"Trinity College, College Green, Royal Exchange A ED, Dublin 2, County Dublin, Leinster, D02 HR67, Ireland",53.3444162,-6.2589561
98,/title/tt2016894/,,"Havana, Cuba",,"La Habana, La Habana Vieja, Cuba",23.135305,-82.3589631
99,/title/tt2016894/,,"Delhi, India",,"Delhi, Kotwali Tehsil, Central Delhi, Delhi, 110006, India",28.6517178,77.2219388
100,/title/tt0120107/,,"Prince George, Virginia, USA",(Opening Scene),"Prince George County, Virginia, United States of America",37.1815024,-77.2153144
101,/title/tt0120107/,,"Baltimore, Maryland, USA",,"Baltimore, Maryland, United States of America",39.2908816,-76.610759
102,/title/tt2628316/,,"TRAD TKO Gym, Stephenson Street, London, England, UK",(Gym scenes),,,
103,/title/tt0118453/,,"Bandera, Texas, USA",,"Bandera County, Texas, United States of America",29.7643475,-99.234526
104,/title/tt0118453/,,"Texas, USA",,"Texas, United States of America",31.8160381,-99.5120986
105,/title/tt0118453/,,"Conroe, Texas, USA",,"Conroe, Montgomery County, Texas, United States of America",30.3118769,-95.4560512
106,/title/tt0098205/,,"Port St. Johns, South Africa",(main location),"Port St Johns, O.R. Tambo District Municipality, Eastern Cape, 5120, South Africa",-31.6204519,29.5453373
107,/title/tt3848600/,,"Fremantle, Western Australia, Australia",(Various),"Fremantle, City of Fremantle, Western Australia, 6959, Australia",-32.0558714,115.7461693
108,/title/tt0095368/,,"Spelling Television Inc. - 5700 Wilshire Boulevard, Los Angeles, California, USA",,,,
109,/title/tt0095368/,,"Tiffany Court - 616 S Masselin Ave, Los Angeles, California, USA",,,,
110,/title/tt0075214/,,South Africa,,South Africa,-28.8166236,24.991639
111,/title/tt0094521/,,"Macau, China",,"澳門 Macau, China 中国",22.1757605,113.5514142
112,/title/tt0094521/,,"Happy Valley Racecourse - Wong Nai Chung Rd., Wan Chai, Hong Kong, China",(jockey club and horse race venue),,,
113,/title/tt1525182/,,"Dumbarton, West Dunbartonshire, Scotland, UK",,"Dumbarton, West Dunbartonshire, Scotland, G82 1LG, United Kingdom",55.9432443,-4.5708479
114,/title/tt1525182/,,"Irvine, North Ayrshire, Scotland, UK",,"Irvine, North Ayrshire, Scotland, KA12 0AX, United Kingdom",55.6143121,-4.6655591
115,/title/tt0040080/,,"Prison de Saint-Gilles, Ixelles, Forest, Belgium",(Prison exteriors),,,
116,/title/tt0040080/,,"Fulmer, Buckinghamshire, England, UK",(Black Horse),"Fulmer, Gerrards Cross, Buckinghamshire, South East, England, SL3 6HD, United Kingdom",51.5614118,-0.5614202
117,/title/tt1535491/,,South Korea,,대한민국,36.638392,127.6961188
118,/title/tt0090342/,,"Pattaya, Thailand",,"พัทยา, จังหวัดชลบุรี, 20150, ประเทศไทย",12.931941,100.9009534
119,/title/tt0029030/,,"Tutuila Island, American Samoa",,"Tutuila, Aasu, Leasina County, Western District, American Samoa, 96799, United States of America",-14.30646535,-170.7597128061596
120,/title/tt0029030/,,"Samuel Goldwyn Studios - 7200 Santa Monica Boulevard, West Hollywood, California, USA",(studio),,,
121,/title/tt2379386/,,"Sofia, Bulgaria",,"София, Оборище, Столична, София-град, 1000, България",42.6978634,23.3221789
122,/title/tt0059065/,,"Samuel Bronston Studios, Madrid, Spain",(studio),,,
123,/title/tt0059065/,,"Las Matas, Madrid, Spain",,"Las Matas, Valdaracete, Las Vegas, Comunidad de Madrid, España",40.1886595,-3.1824935
124,/title/tt8197998/,,"Ankara, Turkey",(location),"Ankara, İç Anadolu Bölgesi, Türkiye",39.7160439,32.7059948
125,/title/tt0102703/,,"Santa Monica Pier, Santa Monica, California, USA",(Carousel),"Santa Monica Pier, Santa Monica, Los Angeles County, California, United States of America",34.00889605,-118.49740225045329
126,/title/tt4073890/,,Italy,(location),Italia,42.6384261,12.674297
127,/title/tt1323508/,,"Chicago Illinois, USA",,"Chicago, Cook County, Illinois, United States of America",41.8755616,-87.6244212
128,/title/tt1323508/,,"Moscow, Russia",,"Москва, Центральный административный округ, Москва, Центральный федеральный округ, Россия",55.7504461,37.6174943
129,/title/tt0098512/,,Canada,,Canada,61.0666922,-107.9917071
130,/title/tt4667084/,,"Kelowna British Columbia, Canada",(location),"Kelowna, Regional District of Central Okanagan, British Columbia, Canada",49.889326,-119.498291
131,/title/tt0095296/,,"Los Angeles, California, USA",,"Los Angeles, Los Angeles County, California, United States of America",34.0536909,-118.2427666
132,/title/tt0099426/,,Thailand,,ประเทศไทย,14.8971921,100.83273
133,/title/tt0097662/,,"Reno, Nevada, USA",,"Reno, Washoe County, Nevada, United States of America",39.5261206,-119.8126581
134,/title/tt0097662/,,"Lake Mead National Recreation Area, Nevada, USA",,"Lake Mead National Recreation Area, Clark County, Nevada, United States of America",35.872207599999996,-114.69005664043877
135,/title/tt0097662/,,"Overton, Nevada, USA",,"Overton, Clark County, Nevada, United States of America",36.5407344,-114.4429886
136,/title/tt0097662/,,"966 S. San Pedro Street, Los Angeles, California, USA",(Jack's office),"966, San Pedro Street, Downtown, Los Angeles, Los Angeles County, California, 90015, United States of America",34.03625964372607,-118.25128595119986
137,/title/tt0097662/,,"Boulder City, Nevada, USA",,"Boulder City, Clark County, Nevada, 89005, United States of America",35.9787638,-114.8337739
138,/title/tt0097662/,,"Lake Mead, Nevada, USA",,"Lake Mead, Boulder City, Clark County, Nevada, United States of America",36.217208150000005,-114.4109763071589
139,/title/tt0097662/,,"Winnemucca, Nevada, USA",(opening sequence: robbery),"Winnemucca, Humboldt County, Nevada, 89445, United States of America",40.9816194,-117.7123972
140,/title/tt0358294/,,"Tokyo, Japan",,"東京都, 日本 (Japan)",35.6828387,139.7594549
141,/title/tt0995845/,,"Six Flags New Orleans - Six Flags Pkwy, New Orleans, Louisiana, USA",(abandoned theme park scenes),,,
142,/title/tt0995845/,,"State Capitol Raceway, 11436 US-190, Port Allen, Louisiana, USA",(dragway scenes),,,
143,/title/tt5470222/,,"Mamaia, Constanta, Romania",,"Mamaia, Constanța, 900001, România",44.2337861,28.6255665
144,/title/tt5470222/,,"Black Sea, Romania",,"Canalul Dunăre-Marea Neagră, Constanța, 907017, România",44.1001947,28.6267126
145,/title/tt0068718/,,"Brooklyn Museum - 200 Eastern Parkway, Brooklyn, New York City, New York, USA",,"Brooklyn Museum, 200, Eastern Parkway, Prospect Heights, Brooklyn, Kings County, New York, 11238, United States of America",40.6709108,-73.96331573047141
146,/title/tt0068718/,,"Brooklyn, New York City, New York, USA",,"Brooklyn, Kings County, New York, United States of America",40.6501038,-73.9495823
147,/title/tt0068718/,,"Manhattan, New York City, New York, USA",,"Manhattan, New York County, New York, United States of America",40.7896239,-73.9598939
148,/title/tt0060708/,,"Amsterdam, Noord-Holland, Netherlands",,"Amsterdam, Noord-Holland, Nederland",52.3727598,4.8936041
149,/title/tt0060708/,,"London, England, UK",,"London, Greater London, England, United Kingdom",51.5073219,-0.1276474
150,/title/tt0060708/,,"The Ritz, Piccadilly, London, England, UK",,"The Ritz London, 150, Piccadilly, St. James's, Mayfair, City of Westminster, London, Greater London, England, W1J 9BS, United Kingdom",51.5071842,-0.14142514195162625
151,/title/tt0060708/,,"Prinsengracht 509, Amsterdam, North Holland, Netherlands",(alley where 'our very best man' British agent meets white face painted man at 03: 50),"509-1, Prinsengracht, Negen Straatjes, Amsterdam, Noord-Holland, Nederland, 1016HR, Nederland",52.369194,4.8830002
152,/title/tt0060708/,,"Zeedijk 16, Amsterdam, Netherlands",(Willie saves Modesty's canal cruise boat from being bown up at 00: 28: 52),"Zeedijk, Chinatown, Amsterdam, Noord-Holland, Nederland, 1012AW, Nederland",52.3730179,4.9002583
153,/title/tt0060708/,,"Prinsengracht 507, Amsterdam, North Holland, Neartherlands",('our very best man' British agent walks past girl sitting on steps outside 'BOEKBINDERS' at 03: 36),,,
154,/title/tt0060708/,,Netherlands,,Nederland,52.5001698,5.7480821
155,/title/tt0096087/,,"Astoria, Queens, New York City, New York, USA",,"Astoria, Queens County, New York, 11102, United States of America",40.7720145,-73.9302673
156,/title/tt0096087/,,"Times Square, Manhattan, New York City, New York, USA",,"Times Square, West 45th Street, Times Square, Manhattan Community Board 5, Times Square, New York County, New York, 10036, United States of America",40.757280550000004,-73.98585503545917
157,/title/tt9495690/,,"Allerton Castle, Allerton Lane, Allerton Mauleverer, Knaresborough, North Yorkshire, England, UK",(location),,,
158,/title/tt9495690/,,"Knebworth House, Stevenage, Hertfordshire, England, UK",,"Knebworth, Station Approach, Knebworth, Hertfordshire, East of England, England, SG3 6AT, United Kingdom",51.8670421,-0.187051
159,/title/tt9495690/,,"Newbury Racecourse, Berkshire, England, UK",(outdoor location),"Newbury Racecourse, Fetlock Drive, Greenham, West Berkshire, South East, England, RG14 7WR, United Kingdom",51.3935119,-1.3037854722898017
160,/title/tt9495690/,,"Faversham, Kent, England, UK",(Market street and firework shop),"Faversham, Kent, South East, England, ME13 8NU, United Kingdom",51.3144088,0.8911894
161,/title/tt1870527/,,"Norwich, Connecticut, USA",(exteriors: hotel),"Norwich, New London County, Connecticut, United States of America",41.5242649,-72.0759105
162,/title/tt1870527/,,"Stonington, Connecticut, USA",,"Stonington, New London County, Connecticut, United States of America",41.3359327,-71.9059042
163,/title/tt2995858/,,"Venice, Italy",,"Venezia, Veneto, Italia",45.4371908,12.3345898
164,/title/tt2995858/,,"Bangkok, Thailand",,"กรุงเทพมหานคร, เขตพระนคร, กรุงเทพมหานคร, 10200, ประเทศไทย",13.7542529,100.493087
165,/title/tt2995858/,,"Hokkaido, Japan",,"北海道地方, 新得町, 上川郡(十勝国), 十勝総合振興局, 北海道, 日本 (Japan)",43.43395355,142.95144677396019
166,/title/tt0339840/,,"Woodford, Queensland, Australia",,"Woodford, Moreton Bay Regional, Queensland, 4514, Australia",-26.9548098,152.7783116
167,/title/tt0067535/,,"Frolic Room, 141 Mason Street, San Francisco, California, USA",,,,
168,/title/tt0067535/,,"San Francisco Bay, California, USA",,"San Francisco Bay, California, 94603, United States of America",37.71402905,-122.30779415179862
169,/title/tt0067535/,,"Washington Square, North Beach, San Francisco, California, USA",,,,
170,/title/tt0067535/,,"240 Front St., San Francisco, California, USA",(shown in early San Francisco street scenes as Hofbrau restaurant),"Schroeder's Restaurant, 240, Front Street, Financial District, San Francisco, San Francisco City and County, California, 94111, United States of America",37.7939149,-122.3987561
171,/title/tt0067535/,,"Sausalito, California, USA",,"Sausalito, Marin County, California, 94965, United States of America",37.8590272,-122.4854694
172,/title/tt5581688/,,"California, USA",,"California, United States of America",36.7014631,-118.7559974
173,/title/tt5581688/,,"Santa Barbara, California, USA",,"Santa Barbara, Santa Barbara County, California, United States of America",34.4221319,-119.7026673
174,/title/tt4454078/,,"Miami, Florida, USA",,"Miami, Miami-Dade County, Florida, United States of America",25.7742658,-80.1936589
175,/title/tt3706490/,,"Chicago Illinois, USA",,"Chicago, Cook County, Illinois, United States of America",41.8755616,-87.6244212
176,/title/tt1097013/,,"Philadelphia, Pennsylvania, USA",(establishing shots),"Philadelphia, Philadelphia County, Pennsylvania, United States of America",39.9527237,-75.1635262
177,/title/tt0446241/,,"Los Angeles, California, USA",,"Los Angeles, Los Angeles County, California, United States of America",34.0536909,-118.2427666
178,/title/tt3503840/,,"Bucharest, Romania",,"Municipiul București, România",44.4361414,26.1027202
179,/title/tt0092288/,,"Topanga Canyon, Woodland Hills, Los Angeles, California, USA",,,,
180,/title/tt0092288/,,"Los Angeles, California, USA",,"Los Angeles, Los Angeles County, California, United States of America",34.0536909,-118.2427666
181,/title/tt1858481/,,"H Stage, Shepperton Studios, Shepperton, Surrey, England, UK",(studio),,,
182,/title/tt0493424/,,Romania,,România,45.9852129,24.6859225
183,/title/tt0050084/,,"Hyperion Water Reclamation Plant - 12000 Vista del Mar, Playa del Rey, Los Angeles, California, USA",,,,
184,/title/tt0050084/,,"Sperlonga, Latina, Lazio, Italy",,"Fondi-Sperlonga, Via della Ferrovia, Spinete, Greci, Fondi, Latina, 04022, Italia",41.337661,13.4249091
185,/title/tt0050084/,,"Ponte Sant'Angelo, Rome, Lazio, Italy",,"Ponte Sant'Angelo, Rione XIV Borgo, Municipio Roma I, Roma, Roma Capitale, Lazio, 00193, Italia",41.9019185,12.466446628598355
186,/title/tt0050084/,,"Castel Sant'Angelo, Rome, Lazio, Italy",,"Castel Sant’Angelo, Ponte Sant'Angelo, Rione XIV Borgo, Municipio Roma I, Roma, Roma Capitale, Lazio, 00193, Italia",41.903020299999994,12.466349983439997
187,/title/tt0102818/,,"North Shore Studios, North Vancouver, British Columbia, Canada",(studio),,,
188,/title/tt0396857/,,"Media, Pennsylvania, USA",,"Media, Delaware County, Pennsylvania, United States of America",39.9167783,-75.387693
189,/title/tt0396857/,,"Philadelphia, Pennsylvania, USA",,"Philadelphia, Philadelphia County, Pennsylvania, United States of America",39.9527237,-75.1635262
190,/title/tt0087589/,,"Twickenham Film Studios, St Margarets, Twickenham, Middlesex, England, UK",(studio),,,
191,/title/tt0087589/,,"London, England, UK",,"London, Greater London, England, United Kingdom",51.5073219,-0.1276474
192,/title/tt0087589/,,"Leadenhall Market, Lime Street, Broadgate, London, England, UK",,,,
193,/title/tt0087589/,,"River Thames, London, England, UK",,"River Thames, London Borough of Hounslow, London, Greater London, England, W4 3PB, United Kingdom",51.4852382,-0.2809991
194,/title/tt0087589/,,"Broadgate, London, England, UK",,"Broadgate, Bishopsgate, City of London, Greater London, England, EC2M 2PJ, United Kingdom",51.5191676,-0.0839187
195,/title/tt0087589/,,"Aldwych, London, England, UK",,"Aldwych, St Clement Danes, Covent Garden, City of Westminster, London, Greater London, England, WC2B 4BB, United Kingdom",51.5131312,-0.1175934
196,/title/tt1075419/,,"Shinjuku, Tokyo, Japan",,"新宿, メトロプロムナード, 新宿西口, 歌舞伎町, 渋谷1, 東京都, 新宿区, 160-8001, 日本 (Japan)",35.6921663,139.7006089
197,/title/tt1233571/,,"Vancouver, British Columbia, Canada",,"Vancouver, Metro Vancouver Regional District, British Columbia, Canada",49.2608724,-123.1139529
198,/title/tt0102217/,,"Toronto, Ontario, Canada",,"Toronto, Golden Horseshoe, Ontario, Canada",43.6534817,-79.3839347
199,/title/tt1590950/,,"Ålgård, Rogaland, Norway",,"Ålgård, Gjesdal, Rogaland, 4330, Norge",58.7678685,5.8492082
200,/title/tt1590950/,,"Pluckley, Kent, England, UK",,"Pluckley, The Grove, Pluckley, Ashford, Kent, South East, England, TN27 0RR, United Kingdom",51.1564283,0.7472664
201,/title/tt1590950/,,"Haukeliseter, Telemark, Norway",,"Haukeliseter, Vinje, Vestfold og Telemark, Norge",59.8240414,7.1940654
202,/title/tt0110410/,,Romania,,România,45.9852129,24.6859225
203,/title/tt0100707/,,"Venice, Los Angeles, California, USA",,"Venice, Los Angeles, Los Angeles County, California, United States of America",33.995044,-118.4668875
204,/title/tt0092652/,,"Paramount Ranch - 2813 Cornell Road, Agoura, California, USA",(Brief sequence in Western town),,,
205,/title/tt0092652/,,"Venice, Los Angeles, California, USA",,"Venice, Los Angeles, Los Angeles County, California, United States of America",33.995044,-118.4668875
206,/title/tt9637132/,,"Jaipur, Rajasthan, India",,"Jaipur, Jaipur Tehsil, Jaipur, Rajasthan, 302001, India",26.916194,75.820349
207,/title/tt3039472/,,"Cannes, Alpes-Maritimes, France",,"Cannes, Grasse, Alpes-Maritimes, Provence-Alpes-Côte d'Azur, France métropolitaine, France",43.5515198,7.0134418
208,/title/tt5456546/,,"Southall, Middlesex, England, UK",(location),,,
209,/title/tt5456546/,,"Crystal Palace National Sports Centre, Crystal Palace, London, England, UK",(location),,,
210,/title/tt1620950/,,"Chicago, Illinois, USA",,"Chicago, Cook County, Illinois, United States of America",41.8755616,-87.6244212
211,/title/tt1620950/,,"Lincoln Hall, Northwestern University Law School, Chicago, Illinois, USA",,,,
212,/title/tt1167660/,,"Brasília, Distrito Federal, Brazil",,"Brasília, Região Geográfica Imediata do Distrito Federal, Região Integrada de Desenvolvimento do Distrito Federal e Entorno, Região Geográfica Intermediária do Distrito Federal, Distrito Federal, Região Centro-Oeste, 70.701-010, Brasil",-15.7934036,-47.8823172
213,/title/tt1167660/,,"Paris, France",,"Paris, Île-de-France, France métropolitaine, 75004, France",48.8566969,2.3514616
214,/title/tt1727261/,,"Toronto, Ontario, Canada",,"Toronto, Golden Horseshoe, Ontario, Canada",43.6534817,-79.3839347
215,/title/tt1727261/,,"Winnipeg, Manitoba, Canada",,"Winnipeg, Winnipeg (city), Manitoba, Canada",49.8955367,-97.1384584
216,/title/tt0035798/,,"Kanab, Utah, USA",,"Kanab, Kane County, Utah, United States of America",37.0481417,-112.5285476
217,/title/tt0487037/,,Romania,,România,45.9852129,24.6859225
218,/title/tt0487037/,,"Baton Rouge, Louisiana, USA",,"Baton Rouge, East Baton Rouge Parish, Louisiana, United States of America",30.4459596,-91.18738
219,/title/tt1990216/,,"Baton Rouge, Louisiana, USA",,"Baton Rouge, East Baton Rouge Parish, Louisiana, United States of America",30.4459596,-91.18738
220,/title/tt1990216/,,USA,,United States,39.7837304,-100.4458825
221,/title/tt0083726/,,"Los Angeles, California, USA",,"Los Angeles, Los Angeles County, California, United States of America",34.0536909,-118.2427666
222,/title/tt0077451/,,"Filmalaya Studio, Mumbai, Maharashtra, India",(studio),,,
223,/title/tt0077451/,,"Mehboob Studios, Mumbai, Maharashtra, India",(studio),"Mehboob Studio, Mount Carmel Road, Mount Mary, Bandra West, Zone 3, Mumbai, Mumbai Suburban, Maharashtra, 400050, India",19.0524573,72.8247562
224,/title/tt0077451/,,"Rajkamal Studios, Parel, Mumbai, Maharashtra, India",(studio),,,
225,/title/tt6849940/,,"British Columbia, Canada",,"British Columbia, Canada",55.001251,-125.002441
226,/title/tt0074437/,,"Metro-Goldwyn-Mayer Studios - 10202 W. Washington Blvd., Culver City, California, USA",(studio),,,
227,/title/tt0074437/,,"San Juan, Puerto Rico",(location shooting),"San Juan, Puerto Rico, 00901, United States of America",18.465299,-66.116666
228,/title/tt0072574/,,"RMS Queen Mary - 1126 Queens Highway, Long Beach, California, USA",,,,
229,/title/tt5644740/,,"Seoul, South Korea",,"서울, 대한민국",37.5666791,126.9782914
230,/title/tt0106913/,,Peru,,Perú,-6.8699697,-75.0458515
231,/title/tt8066940/,,"EVP Film City studio, Chennai, Tamil Nadu, India",,,,
232,/title/tt0337103/,,"Esch-sur-Alzette, Luxembourg",,"Esch-sur-Alzette, Canton Esch-sur-Alzette, Luxembourg",49.4959628,5.9850306
233,/title/tt0337103/,,"Herserange, Meurthe-et-Moselle, France",,"Herserange, Briey, Meurthe-et-Moselle, Grand Est, France métropolitaine, 54440, France",49.5191,5.79533
234,/title/tt0337103/,,"Bavaria, Germany",,"Bayern, Deutschland",48.9467562,11.4038717
235,/title/tt0337103/,,"Briey, Meurthe-et-Moselle, France",,"Briey, Val de Briey, Briey, Meurthe-et-Moselle, Grand Est, France métropolitaine, 54150, France",49.2583938,5.966079338759432
236,/title/tt0337103/,,"Faucogney-et-la-Mer, Haute-Saône, France",,"Faucogney-et-la-Mer, Lure, Haute-Saône, Bourgogne-Franche-Comté, France métropolitaine, 70310, France",47.8440682,6.5624523
237,/title/tt0337103/,,Luxembourg,,Lëtzebuerg,49.8158683,6.1296751
238,/title/tt0337103/,,"Studios de Bry - 2 avenue de l'Europe, Bry-sur-Marne, Val-de-Marne, France",,"Studios de Bry, 2, Avenue de l'Europe, Bry-sur-Marne, Nogent-sur-Marne, Val-de-Marne, Île-de-France, France métropolitaine, 94360, France",48.8355734,2.534202731957685
239,/title/tt0337103/,,"aux alentours de Froideconche, Haute-Saône, France",,,,
240,/title/tt0086972/,,"Neuschwanstein Castle, Hohenschwangau, Schwangau, Bavaria, Germany",(stock footage),"Schloss Neuschwanstein, Neuschwansteinstraße, Alterschrofen, Schwangau, Landkreis Ostallgäu, Bayern, 87645, Deutschland",47.5575606,10.7497321
241,/title/tt2118775/,,"Hong Kong, China",,"香港島 Hong Kong Island, 香港 Hong Kong, China 中国",22.2793278,114.1628131
242,/title/tt0110255/,,"Calexico, New Mexico, USA",,"Calexico, Imperial County, California, 92231, United States of America",32.6790572,-115.498703
243,/title/tt0110255/,,"New Mexico, USA",,"New Mexico, United States of America",34.5708167,-105.993007
244,/title/tt0110255/,,"Albuquerque, New Mexico, USA",,"Albuquerque, Bernalillo County, New Mexico, United States of America",35.0841034,-106.6509851
245,/title/tt0097166/,,"Drumheller, Alberta, Canada",(police station),"Drumheller, Town of Drumheller, Alberta, T0J 0Y0, Canada",51.4662795,-112.7046642
246,/title/tt0097166/,,"High River, Alberta, Canada",,"High River, Town of High River, Alberta, T1V 1P2, Canada",50.5797079,-113.8569213
247,/title/tt0097166/,,"Reseda, Los Angeles, California, USA",(foot chase down Sherman Way),"Reseda, Los Angeles, Los Angeles County, California, 91335-2819, United States of America",34.2000784,-118.5369884
248,/title/tt0065570/,,"Los Albaricoques, Cabo de Gata, Almería, Andalucía, Spain",(Mexican town),,,
249,/title/tt0065570/,,"Cinema Studios Fort Bravo/Texas Hollywood, Tabernas, Almería, Andalucía, Spain",,,,
250,/title/tt0065570/,,"Fuerte El Condor, Desierto de Tabernas, Almería, Andalucía, Spain","(Fort El Condor, film set partially demolished)",,,
251,/title/tt1318523/,,"Scottsdale, Arizona, USA",,"Scottsdale, Maricopa County, Arizona, United States of America",33.4942189,-111.9260184
252,/title/tt1318523/,,"Apache Junction, Arizona, USA",,"Apache Junction, Pinal County, Arizona, United States of America",33.4150485,-111.549577
253,/title/tt1318523/,,"Superstition Mountains, Arizona, USA",,"Superstition Mountains, Pinal County, Arizona, United States of America",33.4286606,-111.4181856
254,/title/tt1350498/,,"Arleta, Los Angeles, California, USA",,"Arleta, Los Angeles, Los Angeles County, California, United States of America",34.2413266,-118.4322047
255,/title/tt1350498/,,"Laurel Canyon Stages - 9337 Laurel Canyon Boulevard, Arleta, Los Angeles, California, USA",(studio),,,
256,/title/tt1350498/,,"Long Beach, California, USA",,"Long Beach, Los Angeles County, California, United States of America",33.7690164,-118.1916048
257,/title/tt1350498/,,"Malibu, California, USA",,"Malibu, Los Angeles County, California, 90265-4797, United States of America",34.035591,-118.689423
258,/title/tt4776564/,,"Blue Cloud Movie Ranch - 20000 Blue Cloud Road, Santa Clarita, California, USA",,,,
259,/title/tt4776564/,,"Santa Clarita, California, USA",,"Santa Clarita, Los Angeles County, California, United States of America",34.3916641,-118.542586
260,/title/tt4776564/,,"Silver Dream Factory, 1181 N Knollwood Circle, Anaheim, California, USA",,,,
261,/title/tt1680123/,,"Essaouira, Morocco",,"Essaouira ⵚⵚⵡⵉⵕⴰ الصويرة, Pachalik d'Essaouira باشوية الصويرة, Province Essaouira ⵍⵉⵇⵍⵉⵎ ⵏ ⵚⵡⵉⵔⴰ إقليم الصويرة‎, Marrakech-Safi ⵎⵕⵕⴰⴽⵛ-ⴰⵙⴼⵉ مراكش-أسفي, 44100, Maroc",31.5118281,-9.7620903
262,/title/tt0073207/,,"Shinjuku, Tokyo, Japan",,"新宿, メトロプロムナード, 新宿西口, 歌舞伎町, 渋谷1, 東京都, 新宿区, 160-8001, 日本 (Japan)",35.6921663,139.7006089
263,/title/tt0093142/,,"Jersey City, New Jersey, USA",(additional location),"Jersey City, Hudson County, New Jersey, United States of America",40.7281575,-74.0776417
264,/title/tt8108230/,,"Tokyo, Japan",(TV Tokyo),"東京都, 日本 (Japan)",35.6828387,139.7594549
265,/title/tt3844876/,,"Victoria, Australia",,"Victoria, Australia",-36.5986096,144.6780052
266,/title/tt3844876/,,"Kyneton, Victoria, Australia",,"Kyneton, Shire of Macedon Ranges, Victoria, 3444, Australia",-37.247494,144.4552171
267,/title/tt3844876/,,"Jugiong, New South Wales, Australia",(environs),"Jugiong, Hilltops Council, New South Wales, 2726, Australia",-34.822584,148.3255071
268,/title/tt3844876/,,"Macedon Ranges, Victoria, Australia",,"Macedon District, Kyneton South, Shire of Macedon Ranges, Victoria, Australia",-37.2895759,144.4587570203278
269,/title/tt3844876/,,"Docklands Studios, Melbourne, Victoria, Australia",(studio),"Docklands Studios Melbourne, 476, Docklands, Melbourne, City of Melbourne, Victoria, 3008, Australia",-37.814481900000004,144.93589004942405
270,/title/tt1728638/,,"Vancouver, British Columbia, Canada",,"Vancouver, Metro Vancouver Regional District, British Columbia, Canada",49.2608724,-123.1139529
271,/title/tt0075393/,,"Corriganville, Ray Corrigan Ranch, Simi Valley, California, USA",,,,
272,/title/tt0075393/,,"RKO-Pathé Studios - 9336 Washington Blvd., Culver City, California, USA",(main street & most exteriors),,,
273,/title/tt0075393/,,"Simi Valley, California, USA",,"Simi Valley, Ventura County, California, United States of America",34.2694474,-118.781482
274,/title/tt7218732/,,"Istanbul, Turkey",,"İstanbul, Beyazıt Meydanı, Beyazıt Mahallesi, Fatih, İstanbul, Marmara Bölgesi, 34126, Türkiye",41.0096215,28.9651867
275,/title/tt0072324/,,"Truth or Consequences, New Mexico, USA",(Elephant Butte Dam is shown when mobster in semi chases pink semi),"Truth or Consequences, Sierra County, New Mexico, United States of America",33.1283485,-107.2529059
276,/title/tt0072324/,,"906 N Date St, Truth or Consequences, New Mexico, USA",(Anna brings Rose back to brothel in semi and pass Desert View Inn),"906, North Date Street, Truth or Consequences, Sierra County, New Mexico, 87901, United States of America",33.140738,-107.250298
277,/title/tt0072324/,,"New Mexico, USA",,"New Mexico, United States of America",34.5708167,-105.993007
278,/title/tt3120314/,,"Jackson, Tennessee, USA",,"Jackson, Madison County, Tennessee, United States of America",35.6144446,-88.8177418
279,/title/tt3120314/,,"Tennessee, USA",,"Tennessee, United States of America",35.7730076,-86.2820081
280,/title/tt3120314/,,USA,,United States,39.7837304,-100.4458825
281,/title/tt0920448/,,"Maastricht, Limburg, Netherlands",,"Maastricht, Limburg, Nederland",50.8512438,5.6909768
282,/title/tt0116320/,,"Georgia Dome - One Georgia Dome Drive, Atlanta, Georgia, USA",,,,
283,/title/tt0116320/,,"Atlanta, Georgia, USA",,"Atlanta, Georgia, United States of America",33.7490987,-84.3901849
284,/title/tt0116320/,,"Stone Mountain - Highway 78, Stone Mountain, Georgia, USA",,,,
285,/title/tt0116320/,,"Zesto Drive In-Ponce de Leon Ave. Atlanta, Georgia, USA",(Diner),,,
286,/title/tt0116320/,,"Wrightwood, California, USA",,"Wrightwood, San Bernardino County, California, United States of America",34.3608341,-117.6333884
287,/title/tt0025862/,,"Big Tujunga Canyon, San Gabriel Mountains, California, USA",,,,
288,/title/tt0025862/,,"China Flats, California, USA",,"La China, 2852, Fletcher Parkway, Cajon Heights, El Cajon, San Diego County, California, 91942, United States of America",32.8013957,-117.0043815
289,/title/tt0025862/,,"Woodland Park, El Monte, California, USA",,"Woodland Park, Aurora, Modesto, Stanislaus County, California, 95351, United States of America",37.6554857,-121.0460463
290,/title/tt0025862/,,"Lake Sherwood, California, USA",,"Lake Sherwood, Cricketfield Court, Greenwich Village, Ventura County, California, 91361, United States of America",34.13705515,-118.87489587697775
291,/title/tt5866930/,,"Kyiv, Ukraine",(Ukraine),"Київ, Україна",50.4500336,30.5241361
292,/title/tt5866930/,,"Bouzov Castle, Czech Republic",,"Hrad Bouzov, 37313, Bouzov, okres Olomouc, Olomoucký kraj, Střední Morava, 78325, Česká republika",49.7050989,16.889477
293,/title/tt5361326/,,"British Columbia, Canada",,"British Columbia, Canada",55.001251,-125.002441
294,/title/tt5351458/,,"The Railway Tavern, Stratford, London E15",(location),"Railway Tavern, 131, Angel Lane, Stratford New Town, London Borough of Newham, London, Greater London, England, E15 1DB, United Kingdom",51.54503165,0.0002234737520067137
295,/title/tt5351458/,,"Hertsmere Road, London E14",(exterior scenes),"Hertsmere Road, Canary Wharf, Poplar, London Borough of Tower Hamlets, London, Greater London, England, E14 4EF, United Kingdom",51.5077444,-0.0209573
296,/title/tt0078058/,,"Miami, Florida, USA",,"Miami, Miami-Dade County, Florida, United States of America",25.7742658,-80.1936589
297,/title/tt0035608/,,"Warner Brothers Burbank Studios - 4000 Warner Boulevard, Burbank, California, USA",(studio),,,
298,/title/tt8202612/,,"St. Xavier's College, Mumbai, India",(The hall in which Manoj addressing the policemen),"St. Xavier's College, Cruickshank Road, Bori Bunder, A Ward, Zone 1, Mumbai, Mumbai City, Maharashtra, 40001, India",18.943156000000002,72.83187031095102
299,/title/tt6076208/,,"Paris, France",,"Paris, Île-de-France, France métropolitaine, 75004, France",48.8566969,2.3514616
300,/title/tt1846444/,,"Lacy Street Production Center - 2630 Lacy Street, Los Angeles, California, USA",(studio),,,
301,/title/tt4906960/,,"Mumbai, Maharashtra, India",,"Mumbai, Mumbai City, Maharashtra, India",18.9387711,72.8353355
302,/title/tt2756412/,,"Manuel Antonio, Costa Rica",,"Manuel Antonio, Quepos, Cantón Quepos, Provincia Puntarenas, 60601, Costa Rica",9.4108732,-84.1557218
303,/title/tt0316824/,,"Los Angeles, California, USA",,"Los Angeles, Los Angeles County, California, United States of America",34.0536909,-118.2427666
304,/title/tt0059470/,,"20th Century Fox Studios - 10201 Pico Blvd., Century City, Los Angeles, California, USA",(studio),,,
305,/title/tt2275946/,,"London, England, UK",,"London, Greater London, England, United Kingdom",51.5073219,-0.1276474
306,/title/tt0495032/,,"Mumbai, Maharashtra, India",,"Mumbai, Mumbai City, Maharashtra, India",18.9387711,72.8353355
307,/title/tt0060120/,,"Colorado City, Arizona, USA",,"Colorado City, Mohave County, Arizona, 86021, United States of America",36.9902621,-112.9757702
308,/title/tt0060120/,,"Antelope Valley, California, USA",(Outdoor exteriors),"Antelope, Sacramento County, California, 95843-3845, United States of America",38.7082357,-121.3299513
309,/title/tt0060120/,,"Lancaster, California, USA",,"Lancaster, Los Angeles County, California, United States of America",34.6981064,-118.1366153
310,/title/tt0060120/,,"Paiute Wilderness Area, Arizona, USA",,"Paiute Wilderness, Mohave County, Arizona, United States of America",36.731389300000004,-113.78876098892506
311,/title/tt0060120/,,"Moccasin Mountains, Arizona, USA",,"Moccasin Mountains, Kaibab, Mohave County, Arizona, United States of America",36.9644291,-112.7882632
312,/title/tt0060120/,,"Universal Studios - 100 Universal City Plaza, Universal City, California, USA",(studio),,,
313,/title/tt0047889/,,"Belvedere Island, California, USA",,"Belvedere Island, Belvedere, Marin County, California, 94920, United States of America",37.8769,-122.4713
314,/title/tt0047889/,,"San Joaquin-Sacramento River Delta, California, USA",,,,
315,/title/tt0047889/,,"San Francisco, California, USA",,"San Francisco, San Francisco City and County, California, United States of America",37.7790262,-122.4199061
316,/title/tt0065009/,,"Costa Brava, Girona, Catalonia, Spain",,"Costa Brava, Can Vives de Baix, Vidreres, Selva, Girona, Catalunya, 17411, España",41.789894,2.7867242
317,/title/tt0101831/,,"Los Angeles, California, USA",,"Los Angeles, Los Angeles County, California, United States of America",34.0536909,-118.2427666
318,/title/tt0109912/,,"Los Angeles, California, USA",,"Los Angeles, Los Angeles County, California, United States of America",34.0536909,-118.2427666
319,/title/tt0093668/,,"Kautokeino, Finnmark, Norway",,"Guovdageaidnu, Troms og Finnmark, 9520, Norge",69.1325609,23.57829982232755
320,/title/tt0301893/,,"Philadelphia, Pennsylvania, USA",,"Philadelphia, Philadelphia County, Pennsylvania, United States of America",39.9527237,-75.1635262
321,/title/tt0301893/,,"New York City, New York, USA",,"New York, United States of America",40.7127281,-74.0060152
322,/title/tt7440366/,,"Istanbul, Turkey",,"İstanbul, Beyazıt Meydanı, Beyazıt Mahallesi, Fatih, İstanbul, Marmara Bölgesi, 34126, Türkiye",41.0096215,28.9651867
323,/title/tt7440366/,,"Kefken, Kandira, Kocaeli, Turkey",,"Kefken, Kandıra, Kocaeli, Marmara Bölgesi, Türkiye",41.1695412,30.2278862
324,/title/tt6170804/,,"Toronto, Ontario, Canada",,"Toronto, Golden Horseshoe, Ontario, Canada",43.6534817,-79.3839347
325,/title/tt5482644/,,"Hueytown, Alabama, USA",,"Hueytown, Jefferson County, Alabama, United States of America",33.4512197,-86.9966606
326,/title/tt0072737/,,"Bavispe, Sonora, Mexico",,"Bavispe, Sonora, México",30.64958635,-109.07011790903056
327,/title/tt0072737/,,"Parral, Chihuahua, Mexico",,"Parral, Ciudad Juárez, Juárez, Chihuahua, 32625, México",31.7044778,-106.44261
328,/title/tt0072737/,,France,,France,46.603354,1.8883335
329,/title/tt0072737/,,"Hawkins Airfield, Lancaster, California, USA",(FBO for Bronson's character),,,
330,/title/tt0201694/,,"Orlando, Florida, USA",,"Orlando, Orange County, Florida, United States of America",28.5421109,-81.3790304
331,/title/tt0201694/,,"Los Angeles, California, USA",,"Los Angeles, Los Angeles County, California, United States of America",34.0536909,-118.2427666
332,/title/tt0182633/,,"Aspen, Colorado, USA",,"Aspen, Pitkin County, Colorado, United States of America",39.1911128,-106.8235606
333,/title/tt0048665/,,"Tucson, Arizona, USA",,"Tucson, Pima County, Arizona, United States of America",32.2228765,-110.9748477
334,/title/tt0048665/,,"Sierrita Mountains, Arizona, USA",,,,
335,/title/tt0048665/,,"Ironwood Forest National Monument, Arizona, USA",,"Ironwood Forest National Monument, Farmers Way, Red Rock, Pinal County, Arizona, 85145, United States of America",32.4449519,-111.65212774769238
336,/title/tt0105399/,,"Lincoln Center for the Performing Arts - Columbus Avenue & 61st Street, Manhattan, New York City, New York, USA",,,,
337,/title/tt1758570/,,"Eagle Mountain, California, USA",,"Eagle Mountain, Riverside County, California, United States of America",33.8575137,-115.4872075
338,/title/tt0102593/,,"Pacific Electric Building, Los Angeles, California, USA",,,,
339,/title/tt0102593/,,"New York City, New York, USA",,"New York, United States of America",40.7127281,-74.0060152
340,/title/tt4519400/,,"Burgaw, North Carolina, USA",,"Burgaw, Pender County, North Carolina, 28425, United States of America",34.5521113,-77.926098
341,/title/tt1322333/,,Belgium,,België / Belgique / Belgien,50.6402809,4.6667145
342,/title/tt1322333/,,"Charleroi, Wallonia, Belgium",(car chase),"Charleroi, Hainaut, Wallonie, België - Belgique - Belgien",50.4120332,4.4436244
343,/title/tt1322333/,,"Hong Kong, China",,"香港島 Hong Kong Island, 香港 Hong Kong, China 中国",22.2793278,114.1628131
344,/title/tt1322333/,,Thailand,,ประเทศไทย,14.8971921,100.83273
345,/title/tt0079152/,,"Laxenburg, Lower Austria, Austria",,"Laxenburg, Bezirk Mödling, Niederösterreich, 2361, Österreich",48.0686831,16.3561206
346,/title/tt0079152/,,"Burg Kreuzenstein, Leobendorf, Lower Austria, Austria",,"Burg Kreuzenstein, Kreuzensteiner Straße, Gemeinde Leobendorf, Bezirk Korneuburg, Niederösterreich, 2105, Österreich",48.3791444,16.308718048631363
347,/title/tt0079152/,,"Wien Film Studios, Sievering, Vienna, Austria",(studio) (as Wien Film Studios Austria),,,
348,/title/tt0043379/,,"Warner Brothers First National Studios, Teddington Studios, Teddington, Middlesex, England, UK",(interiors),,,
349,/title/tt0043379/,,"Portsmouth, Hampshire, England, UK","(Lord Nelson's flagship, H.M.S. Victory scene)","Portsmouth, South East, England, PO1 5QH, United Kingdom",50.8036831,-1.075614
350,/title/tt0043379/,,"French Riviera, Alpes-Maritimes, France",,"Riviera Française, La Giandola de Breil, Breil-sur-Roya, Nice, Alpes-Maritimes, Provence-Alpes-Côte d'Azur, France métropolitaine, 06540, France",43.952749,7.479413793610824
351,/title/tt0043379/,,"Bormes-les-Mimosas, Var, France",(Fort of Don Julian Alvarado: Fort de Brégançon),"Bormes-les-Mimosas, Toulon, Var, Provence-Alpes-Côte d'Azur, France métropolitaine, 83230, France",43.1506968,6.3419285
352,/title/tt0093405/,,"Piedmont, California, USA",,"Piedmont, Alameda County, California, 94611, United States of America",37.8243715,-122.231635
353,/title/tt0096535/,,"England, UK",,"England, United Kingdom",52.7954791,-0.5402402866174321
354,/title/tt0096535/,,"Macau, China",,"澳門 Macau, China 中国",22.1757605,113.5514142
355,/title/tt0780595/,,"Los Angeles, California, USA",,"Los Angeles, Los Angeles County, California, United States of America",34.0536909,-118.2427666
356,/title/tt0093011/,,"Westfield Century City - 10250 Santa Monica Blvd, Los Angeles, California, USA",,"Westfield Century City, 10250, Santa Monica Boulevard, Century City, Los Angeles, Los Angeles County, California, 90067, United States of America",34.058752600000005,-118.41920410027791
357,/title/tt0078490/,,"Durango, Mexico",,"Durango, México",24.833333,-104.833333
358,/title/tt0078490/,,"Oakland, California, USA",(port scenes),"Oakland, Alameda County, California, United States of America",37.8044557,-122.2713563
359,/title/tt0078490/,,"Newhall, California, USA",(Ray and Margie driving to Los Angeles pass the Calgrove Road exit on I-5),"Newhall, Santa Clarita, Los Angeles County, California, 91321, United States of America",34.3798765,-118.5291917
360,/title/tt7180544/,,"Banaras, Uttar Pradesh, India",(Training location),"Banaras Hostel Road, Vārānasi, Varanasi, Uttar Pradesh, 222005, India",25.2869239,83.0051693
361,/title/tt0092316/,,"Cobourg, Ontario, Canada",,"Cobourg, Northumberland County, Central Ontario, Ontario, Canada",43.9595998,-78.1677784
362,/title/tt0092316/,,"Seward, Nebraska, USA",,"Seward County, Nebraska, United States of America",40.8695533,-97.1706676
363,/title/tt0092316/,,"Thedford, Ontario, Canada",,"Thedford, Lambton Shores, Lambton County, Southwestern Ontario, Ontario, N0M 2N0, Canada",43.1639393,-81.8529319
364,/title/tt0092316/,,"Little Rock, Arkansas, USA",(exterior scenes),"Little Rock, Arkansas, United States of America",34.7464809,-92.2895948
365,/title/tt3448226/,,Canada,,Canada,61.0666922,-107.9917071
366,/title/tt0091706/,,"Bakersfield, California, USA",,"Bakersfield, Kern County, California, United States of America",35.3738712,-119.0194639
367,/title/tt6277462/,,"Edinburgh, Scotland, UK",,"Edinburgh, City of Edinburgh, Scotland, EH1 3EG, United Kingdom",55.9533456,-3.1883749
368,/title/tt6277462/,,"London, England, UK",,"London, Greater London, England, United Kingdom",51.5073219,-0.1276474
369,/title/tt0110944/,,"Killalea, Shellharbour, New South Wales, Australia",,,,
370,/title/tt3488328/,,"Manila, Philippines",,"Manila, First District, Metro Manila, Philippines",14.5907332,120.9809674
371,/title/tt3488328/,,"Guangzhou, Guangdong, China",,"广州市, 广东省, China 中国",23.1301964,113.2592945
372,/title/tt0449951/,,"Chennai, Tamil Nadu, India",,"சென்னை - Chennai, சென்னை மாவட்டம், Tamil Nadu, India",13.0801721,80.2838331
373,/title/tt2951478/,,"New York City, New York, USA",,"New York, United States of America",40.7127281,-74.0060152
374,/title/tt2951478/,,"Warner Brothers Burbank Studios - 4000 Warner Boulevard, Burbank, California, USA",,,,
375,/title/tt0064451/,,"Hong Kong, China",(final scene),"香港島 Hong Kong Island, 香港 Hong Kong, China 中国",22.2793278,114.1628131
376,/title/tt0190281/,,"Clewer St. Stephen's Church, Windsor, Berkshire, England, UK",(Naples Cathedral Sequences),,,
377,/title/tt0190281/,,"Victoria House, Bloomsbury Square, Bloomsbury, London, England, UK",,"Bloomsbury Square, St Giles, Holborn, London Borough of Camden, London, Greater London, England, WC1A 2PJ, United Kingdom",51.5194902,-0.1231689
378,/title/tt2151543/,,"New Orleans, Louisiana, USA",,"New Orleans, Orleans Parish, Louisiana, United States of America",29.9499323,-90.0701156
379,/title/tt2151543/,,"Lafayette, Louisiana, USA",,"Lafayette, Lafayette Parish, Louisiana, United States of America",30.2240897,-92.0198427
380,/title/tt0268094/,,"Los Angeles, California, USA",,"Los Angeles, Los Angeles County, California, United States of America",34.0536909,-118.2427666
381,/title/tt0268094/,,"Vancouver, British Columbia, Canada",,"Vancouver, Metro Vancouver Regional District, British Columbia, Canada",49.2608724,-123.1139529
382,/title/tt0103239/,,"Tunnel beneath the 6th Street Viaduct, Downtown, Los Angeles, California, USA",,,,
383,/title/tt0103239/,,"Los Angeles River, California, USA",,"Los Angeles River, Los Angeles, Los Angeles County, California, 91303-2211, United States of America",34.1952667,-118.5886446
384,/title/tt0770521/,,"Rialto, California, USA",(Freeway Scenes),"Rialto, San Bernardino County, California, United States of America",34.1064001,-117.3703235
385,/title/tt0770521/,,"Santa Clarita, California, USA",,"Santa Clarita, Los Angeles County, California, United States of America",34.3916641,-118.542586
386,/title/tt1510984/,,"Wanaka, Otago, New Zealand",,"Wanaka, Queenstown-Lakes District, Otago, 9305, New Zealand",-44.6941691,169.1364637
387,/title/tt2409300/,,Japan,,日本,36.5748441,139.2394179
388,/title/tt0885761/,,"Montréal, Québec, Canada",,"Montréal, Agglomération de Montréal, Montréal (06), Québec, Canada",45.4972159,-73.6103642
389,/title/tt2404583/,,"Kraljevo, Serbia, Yugoslavia",,,,
390,/title/tt2404583/,,"Smederevo Fortress, Smederevo, Serbia",(Smederevo fortress),"Смедеревска тврђава, Саве Немањића, Металор, Карађорђев Дуд, Смедерево, Град Смедерево, Подунавски управни округ, Централна Србија, 11300, Србија (Serbia)",44.66959275,20.92769581044472
391,/title/tt0098917/,,"Universal Studios Florida, Universal Orlando Resort - 1000 Universal Studios Plaza, Orlando, Florida, USA",(studio),,,
392,/title/tt6401004/,,"Vancouver, British Columbia, Canada",,"Vancouver, Metro Vancouver Regional District, British Columbia, Canada",49.2608724,-123.1139529
393,/title/tt0357474/,,Thailand,,ประเทศไทย,14.8971921,100.83273
394,/title/tt2935564/,,"Palais de Justice - Place Montyon, Marseille, Bouches-du-Rhône, France",(court house),,,
395,/title/tt2935564/,,"Sémaphore du Bec de l'Aigle, La Ciotat, Bouches-du-Rhône, France",(encounter between Michel and Zampa),"Le sémaphore du Bec de l'Aigle, La Ciotat, Marseille, Bouches-du-Rhône, Provence-Alpes-Côte d'Azur, France métropolitaine, 13600, France",43.17498715,5.574215551315531
396,/title/tt2935564/,,"Rue du Vallon des Auffes, Marseille, Bouches-du-Rhône, France",(Judge Michel meeting informer),"Rue du Vallon des Auffes, Endoume, 7e Arrondissement, Marseille, Bouches-du-Rhône, Provence-Alpes-Côte d'Azur, France métropolitaine, 13007, France",43.2846362,5.3550696
397,/title/tt2935564/,,"Boulevard Longchamp, Marseille, Bouches-du-Rhône, France",(Michel's assassination),"Boulevard Longchamp, Saint-Charles, 1er Arrondissement, Marseille, Bouches-du-Rhône, Provence-Alpes-Côte d'Azur, France métropolitaine, 13001, France",43.302359,5.3903809
398,/title/tt2935564/,,"Palais Provincial, Place Saint-Aubain, Namur, Belgium",(interiors: ministry),,,
399,/title/tt5258074/,,"Laurel Canyon Stages - 9337 Laurel Canyon Boulevard, Arleta, Los Angeles, California, USA",,,,
400,/title/tt0254481/,,"Drumheller, Alberta, Canada",,"Drumheller, Town of Drumheller, Alberta, T0J 0Y0, Canada",51.4662795,-112.7046642
401,/title/tt0254481/,,"Nainital, Uttaranchal, India",,,,
402,/title/tt1694508/,,"Asylum Studios, Los Angeles, California, USA",,,,
403,/title/tt1694508/,,"Palos Verdes, California, USA",,"Rancho Palos Verdes, Los Angeles County, California, 90274, United States of America",33.7483311,-118.3707683
