,Code,Show Name,Location,Scene,geocodedLocation,latitude,longitude
0,/title/tt1190634/,,"Hamilton, Ontario, Canada",(location),"Hamilton, Golden Horseshoe, Ontario, L8P 0B3, Canada",43.2560802,-79.8728583
1,/title/tt1190634/,,"Roy Thomson Hall, Toronto, Ontario, Canada",(Voight Headquarters),"Roy Thomson Hall, 60, Simcoe Street, Spadina—Fort York, Old Toronto, Toronto, Golden Horseshoe, Ontario, M5H, Canada",43.6465582,-79.38633807261267
2,/title/tt1190634/,,"Toronto, Ontario, Canada",,"Toronto, Golden Horseshoe, Ontario, Canada",43.6534817,-79.3839347
3,/title/tt7221388/,,"Los Angeles, California, USA",,"Los Angeles, Los Angeles County, California, United States of America",34.0536909,-118.2427666
4,/title/tt7221388/,,"Atlanta Motors Superstore - 6740 Oakley Industrial Blvd, Union City, Georgia, USA",(LaRusso Auto Group),,,
5,/title/tt7221388/,,"19223 Saticoy St, Reseda, California, USA",(South Seas Apartments),"19223, Saticoy Street, Reseda, Los Angeles, Los Angeles County, California, 91335, United States of America",34.2084503125,-118.5520405625
6,/title/tt7221388/,,"18555 Burbank Blvd, Tarzana, California, USA",(Johnny's apartment complex),"18555, Burbank Boulevard, Tarzana Safari Walk, Tarzana, Los Angeles, Los Angeles County, California, 91356, United States of America",34.17242936363637,-118.53735545454546
7,/title/tt3526078/,,"Goodwood, Ontario, Canada","(Mayor's house, Gas station, Town Hall, Graveyard, Store exteriors, Street views)","Goodwood, Durham Region, Golden Horseshoe, Ontario, L0C 1A0, Canada",44.0372021,-79.1961269
8,/title/tt3526078/,,"Pinewood Toronto Studios, Port Lands, Toronto, Ontario, Canada",(studio),"Pinewood Toronto Studios, Munition Street, Toronto—Danforth, Old Toronto, Toronto, Golden Horseshoe, Ontario, M4M 3P2, Canada",43.6465663,-79.35106457413957
9,/title/tt13143964/,,"Greenville, South Carolina, USA",,"Greenville, Greenville County, South Carolina, United States of America",34.851354,-82.3984882
10,/title/tt13143964/,,"California, USA",,"California, United States of America",36.7014631,-118.7559974
11,/title/tt0386676/,,"Stamford, Connecticut, USA",,"Stamford, Fairfield County, Connecticut, United States of America",41.0534302,-73.5387341
12,/title/tt0386676/,,"Los Angeles, California, USA",(studio),"Los Angeles, Los Angeles County, California, United States of America",34.0536909,-118.2427666
13,/title/tt10986410/,,"West London Film Studios, London, England, UK",(studio),,,
14,/title/tt8962124/,,"Rue des Fossés Saint Jacques, Paris, France",(Bakery),"Rue des Fossés Saint-Jacques, Quartier de la Sorbonne, Paris, Île-de-France, France métropolitaine, 75005, France",48.845788,2.3440061
15,/title/tt8962124/,,France,,France,46.603354,1.8883335
16,/title/tt8962124/,,"Place de l'Estrapade, Paris, France",(Emily's apartment),"Place de l'Estrapade, Quartier du Val-de-Grâce, Paris, Île-de-France, France métropolitaine, 75005, France",48.84526295,2.344818413136035
17,/title/tt8962124/,,"Place de Valois, Paris, France",(Emily's office),"Place de Valois, Quartier des Halles, Paris 1er Arrondissement, Paris, Île-de-France, France métropolitaine, 75001, France",48.8633252,2.3378693
18,/title/tt4955642/,,"The Huntington Library - 1151 Oxford Rd, San Marino, California, USA",,"Huntington Library, 1151, Oxford Road, San Marino, Los Angeles County, California, 91108, United States of America",34.1277856,-118.1120142
19,/title/tt4955642/,,"San Marino, California, USA",,"San Marino, Los Angeles County, California, 91108, United States of America",34.1215947,-118.1057394
20,/title/tt4955642/,,USA,,United States,39.7837304,-100.4458825
21,/title/tt10324122/,,"Casa Loma, Toronto, ON, Canada",(building entrance shown at 1: 04),"Casa Loma, 1, Austin Terrace, Toronto—St. Paul's, Old Toronto, Toronto, Golden Horseshoe, Ontario, M5R 1X9, Canada",43.6781015,-79.409415775
22,/title/tt10324122/,,"University of Toronto Mississauga, 3359 Mississauga Rd, Mississauga, ON L5L 1C6, Canada",,,,
23,/title/tt10324122/,,"Prince's Gate, 11 Princes' Blvd, Toronto, ON M6K 3C3, Canada","(grand arch shown at 1: 15, fake electric sign covers inscription, building to right is fake)",,,
24,/title/tt0107120/,,"Salem, Massachusetts, USA",(Alisons house),"Salem, Essex County, Massachusetts, 01970, United States of America",42.5195292,-70.8967226
25,/title/tt0107120/,,"318 Essex St Salem, Massachusetts, USA",(Alison's house exterior),"Ropes Mansion, 318, Essex Street, North Salem, Salem, Essex County, Massachusetts, 01970-3980, United States of America",42.521212399999996,-70.89979684916119
26,/title/tt0107120/,,"86 Essex Street, Salem, Massachusetts, USA",(Max's high school),"86, Essex Street, South Salem, Salem, Essex County, Massachusetts, 01970-3980, United States of America",42.52301425,-70.88828570000001
27,/title/tt0107120/,,"Whittier, California, USA",(Trick-or-Treating and Allison's house),"Whittier, Los Angeles County, California, United States of America",33.9708782,-118.0308396
28,/title/tt0107120/,,"Ballroom, Park Plaza Hotel - 607 S. Park View Street, Los Angeles, California, USA",,,,
29,/title/tt0107120/,,"Los Angeles, California, USA",,"Los Angeles, Los Angeles County, California, United States of America",34.0536909,-118.2427666
30,/title/tt0108778/,,"Las Vegas, Nevada, USA",,"Las Vegas, Clark County, Nevada, United States of America",36.1672559,-115.1485163
31,/title/tt0108778/,,"Rome, Lazio, Italy",,"Roma Capitale, Lazio, Italia",41.85223935,12.631036615953583
32,/title/tt0108778/,,"London, England, UK",,"London, Greater London, England, United Kingdom",51.5073219,-0.1276474
33,/title/tt8367814/,,"Arsenal FC Emirates Stadium, Emirates Stadium Highbury House, 75 Drayton Park, London N5 1BU, United Kingdom",(Gangsters in Box on Upper level),,,
34,/title/tt8367814/,,"NEO Bankside, Sumner Street, London, England, UK","(studio) (Iconic residential buildings, appearing as Miramax Studios when Hugh Grant wants to sell his script)",,,
35,/title/tt1826940/,,"The Prince - 3198 W 7th St, Los Angeles, California, USA",(bar),,,
36,/title/tt1826940/,,"The Prince - 3198 W 7th St, Los Angeles, California, USA",(Bar scenes),,,
37,/title/tt1442437/,,"2211 Fox Hills Dr, Los Angeles, California, USA",(Mitchell and Cameron's House),"2211, Fox Hills Drive, Century City, Los Angeles, Los Angeles County, California, 90064, United States of America",34.051986346153846,-118.41613734615385
38,/title/tt1586680/,,"2113 S Homan Ave, Chicago, Illinois, USA",(Kevin and Veronica's House),"2113, South Homan Avenue, North Lawndale, Chicago, Cook County, Illinois, 60623, United States of America",41.8530869,-87.7098947737864
39,/title/tt1586680/,,"1937 S Spaulding Ave, Chicago, Illinois, USA",(Sheila's House),"1937, South Spaulding Avenue, North Lawndale, Chicago, Cook County, Illinois, 60623, United States of America",41.85426914999999,-87.70748589763207
40,/title/tt1586680/,,"Los Angeles, California, USA",,"Los Angeles, Los Angeles County, California, United States of America",34.0536909,-118.2427666
41,/title/tt1586680/,,"Stage 17, Warner Brothers Burbank Studios - 4000 Warner Boulevard, Burbank, California, USA",(studio),,,
42,/title/tt1439629/,,"Paramount Studios - 5555 Melrose Avenue, Hollywood, Los Angeles, California, USA",(studio),,,
43,/title/tt1439629/,,"California, USA",,"California, United States of America",36.7014631,-118.7559974
44,/title/tt1439629/,,"Los Angeles, California, USA",,"Los Angeles, Los Angeles County, California, United States of America",34.0536909,-118.2427666
45,/title/tt10183988/,,"British Columbia, Canada",,"British Columbia, Canada",55.001251,-125.002441
46,/title/tt8946378/,,"Natick, Massachusetts, USA",(Thrombey Home exteriors and rooms),"Natick, Middlesex County, Massachusetts, United States of America",42.2836393,-71.346996
47,/title/tt8946378/,,"525 Maple St., Marlborough, Massachusetts, USA",(Medical Examiner's Office Fire),"525, Maple Street, Marlborough Junction, Marlborough, Middlesex County, Massachusetts, 01752-3260, United States of America",42.329691800000006,-71.53947085
48,/title/tt8946378/,,"Waltham, Massachusetts, USA","(Alley and parking lot off Moody Street, and later Main Street.)","Waltham, Middlesex County, Massachusetts, United States of America",42.3756401,-71.2358004
49,/title/tt11024272/,,"Columbia/Warner Bros. Ranch - 411 North Hollywood Way, Burbank, California, USA",,,,
50,/title/tt0443453/,,"Tecate, Mexico",(When running out of gas),"Tecate, Baja California, México",32.5653831,-116.6298787
51,/title/tt0443453/,,"Hollywood, Los Angeles, California, USA",,"Hollywood, Los Angeles, Los Angeles County, California, 90028-8127, United States of America",34.0980031,-118.329523
52,/title/tt0443453/,,"The Block at Orange, Orange, California, USA",,"Outlets at Orange, 20, Orange, Orange County, California, 92868-3100, United States of America",33.782692,-117.89230300382863
53,/title/tt0443453/,,"Moroieni, Romania",(Kazakhstan),"Calea Moroieni, Sinaia, Prahova, 106100, România",45.330895,25.5624518
54,/title/tt0443453/,,"Castel Film Studios, Bucharest, Romania",,,,
55,/title/tt0443453/,,"Virginia, USA",,"Virginia, United States of America",37.1232245,-78.4927721
56,/title/tt0443453/,,"Atlanta, Georgia, USA",,"Atlanta, Georgia, United States of America",33.7490987,-84.3901849
57,/title/tt0443453/,,"Dallas, Texas, USA",,"Dallas, Dallas County, Texas, United States of America",32.7762719,-96.7968559
58,/title/tt0443453/,,"Hollywood Boulevard, Hollywood, Los Angeles, California, USA",,"Hollywood Boulevard, Whitley Heights Historic District, Hollywood, Los Angeles, Los Angeles County, California, 90028, United States of America",34.1015833,-118.3324947
59,/title/tt0443453/,,Kazakhstan,,Қазақстан,47.2286086,65.2093197
60,/title/tt0443453/,,"Los Angeles Airport Hilton and Towers - 5711 W. Century Blvd., Westchester, Los Angeles, California, USA",,,,
61,/title/tt0443453/,,"Manhattan, New York City, New York, USA",,"Manhattan, New York County, New York, United States of America",40.7896239,-73.9598939
62,/title/tt0443453/,,"Washington, District of Columbia, USA",,"Washington, District of Columbia, 20230, United States of America",38.8949924,-77.0365581
63,/title/tt0443453/,,USA,,United States,39.7837304,-100.4458825
64,/title/tt0238784/,,"Pomona College - 333 N. College Way, Claremont, California, USA",,,,
65,/title/tt0238784/,,"Stage 18, Warner Brothers Burbank Studios - 4000 Warner Boulevard, Burbank, California, USA",,,,
66,/title/tt0238784/,,"Stage 14, Warner Brothers Burbank Studios - 4000 Warner Boulevard, Burbank, California, USA",,,,
67,/title/tt0238784/,,"Midwest Street, Warner Brothers Burbank Studios - 4000 Warner Boulevard, Burbank, California, USA",,,,
68,/title/tt0238784/,,"Kings Row, Warner Brothers Burbank Studios - 4000 Warner Boulevard, Burbank, California, USA",,,,
69,/title/tt1548850/,,"Thamesmead South, London, England, UK",,"Thamesmead, Royal Borough of Greenwich, London, Greater London, England, SE2 9BD, United Kingdom",51.4989335,0.1148486
70,/title/tt1632701/,,"Downsview Park Studios, 40 Carl Hall Road, Toronto, Ontario, Canada",,,,
71,/title/tt1632701/,,"New York City, New York, USA",,"New York, United States of America",40.7127281,-74.0060152
72,/title/tt0083929/,,"17701 Chatsworth Street @ White Oak Avenue, Granada Hills, California, USA",(Brad Hamilton flirts with the young woman in the car while he's delivering seafood to IBM),,,
73,/title/tt0083929/,,"Sherman Oaks Galleria - 15301 Ventura Blvd., Sherman Oaks, Los Angeles, California, USA",(interiors: Ridgemont Mall),,,
74,/title/tt0083929/,,"Joenaz Company - 11852 Santa Monica Boulevard, Los Angeles, California, USA",(Mi-T-Mart),,,
75,/title/tt0083929/,,"Van Nuys Blvd & Vose St, Van Nuys, Los Angeles, California, USA",(Jeff Spicoli wrecks the car),,,
76,/title/tt0083929/,,"Encino Little League Fields, 5120 Hayvenhurst Avenue, Encino, Los Angeles, California, USA",(the point),,,
77,/title/tt0083929/,,"5944 Riverton Avenue, North Hollywood, California, USA",(Mike Damone's apartment),"5944, Riverton Avenue, La Paco, North Hollywood, Los Angeles, Los Angeles County, California, 91601, United States of America",34.17828006122449,-118.3658294489796
78,/title/tt0083929/,,"8622 Balboa Boulevard, Northridge, California, USA",(Captain Hook's Restaurant; Where Brad Hamiliton worked),,,
79,/title/tt0083929/,,"Chatsworth Street & Zelzah Avenue, Granada Hills, California, USA",(outside of Brad's car as he throws food from it),,,
80,/title/tt0083929/,,"Clark Magnet High School - 4747 New York Avenue, La Crescenta, California, USA",,,,
81,/title/tt0083929/,,"Canoga Park High School - 6850 Topanga Canyon Boulevard, Canoga Park, Los Angeles, California, USA",(Ridgemont High School),,,
82,/title/tt0083929/,,"Granada Hills, Los Angeles, California, USA",,"Granada Hills, Los Angeles, Los Angeles County, California, 91344-7401, United States of America",34.2661558,-118.5174342
83,/title/tt0083929/,,"Los Angeles, California, USA",,"Los Angeles, Los Angeles County, California, United States of America",34.0536909,-118.2427666
84,/title/tt0083929/,,"Sherman Oaks, Los Angeles, California, USA",,"Sherman Oaks, Los Angeles, Los Angeles County, California, 91403, United States of America",34.1508718,-118.4489865
85,/title/tt0083929/,,"California, USA",,"California, United States of America",36.7014631,-118.7559974
86,/title/tt5555260/,,"Stage 31, Paramount Studios - 5555 Melrose Avenue, Hollywood, Los Angeles, California, USA",,,,
87,/title/tt1266020/,,"CBS Studio Center - 4024 Radford Avenue, Studio City, Los Angeles, California, USA",,,,
88,/title/tt1266020/,,"Carmel, Indiana, USA",(Establishing shots),"Carmel, Hamilton County, Indiana, 46032-1361, United States of America",39.9788017,-86.1189257
89,/title/tt0460649/,,"Stage 22, 20th Century Fox Studios - 10201 Pico Blvd., Century City, Los Angeles, California, USA",,,,
90,/title/tt0100944/,,"Bergen, Hordaland, Norway",,,,
91,/title/tt0100944/,,"Bray Studios, Bray, Berkshire, England, UK",,,,
92,/title/tt0100944/,,"Old Bergen Museum - Nyhavnsveien 4, Sandviken, Bergen, Hordaland, Norway",(Opening scenes),,,
93,/title/tt0100944/,,"Cookham Dean Primary School - Bigfrith Lane, Cookham, Berkshire, UK",(School),,,
94,/title/tt0100944/,,UK,,United Kingdom,54.7023545,-3.2765753
95,/title/tt0100944/,,Norway,,"Norge, Namsos, Trøndelag, Norge",64.5731537,11.52803643954819
96,/title/tt0460627/,,"Natural History Museum of Los Angeles County - 900 Exposition Boulevard, Exposition Park, Los Angeles, California, USA","(Jeffersonian Institute, Exterior Shot)","Natural History Museum of Los Angeles County, State Drive, Exposition Park, Los Angeles, Los Angeles County, California, 90037, United States of America",34.01707945,-118.28869058422643
97,/title/tt0460627/,,"Stage 6, 20th Century Fox Studios - 10201 Pico Blvd., Century City, Los Angeles, California, USA",(Lab set),,,
98,/title/tt0094721/,,"Culver Studios - 9336 W. Washington Blvd., Culver City, California, USA",(studio),,,
99,/title/tt0094721/,,"Masonic Hall, East Corinth, Vermont, USA","(Miss Shannon, s School For Girls)",,,
100,/title/tt1486217/,,"New York City, New York, USA",,"New York, United States of America",40.7127281,-74.0060152
101,/title/tt7131622/,,"Cielo Drive & Bella Drive, Los Angeles, California, USA",(The bottom of Rick's street begins here.),,,
102,/title/tt7131622/,,"10969 Alta View Dr, Studio City, California, USA",(Rick's house),,,
103,/title/tt7131622/,,"Musso & Frank Grill - 6667 Hollywood Blvd., Hollywood, Los Angeles, California, USA",(as itself; interior and exterior),"Musso & Frank, 6667, Hollywood Boulevard, Whitley Heights Historic District, Hollywood, Los Angeles, Los Angeles County, California, 90028, United States of America",34.101763,-118.3350264
104,/title/tt7131622/,,"Casa Vega, 13301 Ventura Blvd, Sherman Oaks, California, USA",(Rick and Cliff have a boozy meal),,,
105,/title/tt7131622/,,"Bruin Theatre, Westwood, Los Angeles, California, USA","(Movie theatre where Sharon Tate watches ""The Wrecking Crew"")",,,
106,/title/tt7131622/,,"Los Angeles International Airport - 1 World Way, Los Angeles, California, USA",(Los Angeles airport - Terminal 6 tunnel),,,
107,/title/tt7131622/,,"The Cicada Restaurant and Club - 617 S Olive St, Los Angeles, California, USA",(Italian Restaurant),,,
108,/title/tt7131622/,,"Toluca Lake, California, USA",(street scenes),"Toluca Lake, Los Angeles, Los Angeles County, California, 91602-2532, United States of America",34.1521688,-118.3571417
109,/title/tt7131622/,,"Earl Carroll Theatre - 6230 Sunset Boulevard, Hollywood, Los Angeles, California, USA",(Aquarius Theatre exterior),,,
110,/title/tt7131622/,,"Frolic Room - 6245 Hollywood Blvd, Los Angeles, California, USA",(site of Rick's car accident),,,
111,/title/tt7131622/,,"7312 Beverly Blvd, Los Angeles, California, USA",(Sharon Tate dines with her friends at El Coyote),"Beverly Boulevard, Westlake, Los Angeles, Los Angeles County, California, 90057, United States of America",34.0706424,-118.2794623
112,/title/tt7131622/,,"Excelsior High School - 15711 Pioneer Boulevard, Norwalk, California, USA",(studio) (Studio backlot scene with Cliff and Bruce Lee),,,
113,/title/tt7131622/,,"California, USA",,"California, United States of America",36.7014631,-118.7559974
114,/title/tt7131622/,,"Hollywood, Los Angeles, California, USA",,"Hollywood, Los Angeles, Los Angeles County, California, 90028-8127, United States of America",34.0980031,-118.329523
115,/title/tt6751668/,,"Jahamun-ro, Buam-dong, Jongno-gu, Seoul, South Korea","(Ki Taek and family enter Jahamun tunnel, walking back home in the rain)","자하문로, 종로구, 부암동, 03047, 대한민국",37.5945443,126.9636187
116,/title/tt0472954/,,"Los Angeles, California, USA",(studio),"Los Angeles, Los Angeles County, California, United States of America",34.0536909,-118.2427666
117,/title/tt0472954/,,"Lincoln Financial Field, 1020 Pattison Ave., Philadelphia, Pennsylvania, USA",(Opening Credits),,,
118,/title/tt0472954/,,"Philadelphia Java Company, 518 S. 4th St., Philadelphia, Pennsylvania, USA",(Various Episodes),,,
119,/title/tt0472954/,,"Boathouse Row, East bank of the Schuylkill River, Philadelphia, Pennsylvania, USA",(Opening Credits),,,
120,/title/tt0472954/,,"30th Street Station, 2955 Market St., Philadelphia, Pennsylvania, USA",(Opening Credits),"30th Street Station, 2955, Market Street, Schuylkill Yards, Philadelphia, Philadelphia County, Pennsylvania, 19139, United States of America",39.9552836,-75.1821442
121,/title/tt0472954/,,"Benjamin Franklin Bridge, Philadelphia, Pennsylvania, USA",(Opening Credits),"Benjamin Franklin Bridge, Whitman Park, Camden, Philadelphia County, New Jersey, 19106, United States of America",39.95292875,-75.13437494999998
122,/title/tt11771594/,,"Birmingham Community Charter High School, Lake Balboa, California, USA",(High School Campus Scenes),"Birmingham Community Charter High School, Haynes Street, Lake Balboa, Los Angeles, Los Angeles County, California, 91406-5441, United States of America",34.1891105,-118.50438464224965
123,/title/tt11771594/,,"Hollywood, Los Angeles, California, USA",,"Hollywood, Los Angeles, Los Angeles County, California, 90028-8127, United States of America",34.0980031,-118.329523
124,/title/tt4225622/,,"California, USA",,"California, United States of America",36.7014631,-118.7559974
125,/title/tt0348333/,,"Jefferson Parish, Louisiana, USA",,"Jefferson Parish, Louisiana, United States of America",29.8502657,-90.1293894
126,/title/tt8416494/,,"Conyers, Georgia, USA",(house scene),"Conyers, Rockdale County, Georgia, 30013-2028, United States of America",33.6676103,-84.0176904
127,/title/tt2584384/,,"Zatec, Czech Republic",(exterior scenes) (main square),"Žatec, okres Louny, Ústecký kraj, Severozápad, 43801, Česká republika",50.3274423,13.545952
128,/title/tt2584384/,,"Petschek Palace, Prague, Czech Republic",,"Petschkův palác, Politických vězňů, Nové Město, Praha, okres Hlavní město Praha, Hlavní město Praha, Praha, 1, Česká republika",50.0813604,14.431113303196149
129,/title/tt2584384/,,"Prague, Czech Republic",,"Praha, okres Hlavní město Praha, Hlavní město Praha, Praha, Česká republika",50.0874654,14.4212535
130,/title/tt2584384/,,"Barrandov Studios, Prague, Czech Republic",(interiors) (Rosie and Jojo's home),,,
131,/title/tt2584384/,,"Dolní Berkovice, Czech Republic",,"Dolní Beřkovice, okres Mělník, Středočeský kraj, Střední Čechy, 27701, Česká republika",50.3930719,14.4508695
132,/title/tt1327801/,,"Glendale, California, USA",,"Glendale, Los Angeles County, California, United States of America",34.1469416,-118.2478471
133,/title/tt1327801/,,"Los Angeles, California, USA",,"Los Angeles, Los Angeles County, California, United States of America",34.0536909,-118.2427666
134,/title/tt1620981/,,"Metro-Goldwyn-Mayer Studios - 245 North Beverly Drive, Beverly Hills, California, USA",,,,
135,/title/tt0098904/,,"757 New Hampshire, Los Angeles, California, USA",(exterior shot of the Seinfeld's apartment),,,
136,/title/tt0098904/,,"Ren-Mar Studios - 846 N. Cahuenga Blvd., Hollywood, Los Angeles, California, USA",,,,
137,/title/tt0098904/,,"Los Angeles, California, USA",,"Los Angeles, Los Angeles County, California, United States of America",34.0536909,-118.2427666
138,/title/tt2372162/,,"Rockland County, New York, USA",,"Rockland County, New York, United States of America",41.1519319,-74.0357266
139,/title/tt2372162/,,"Astoria Studios, New York City, New York, USA",,,,
140,/title/tt2372162/,,"Orangeburg, New York, USA",(interiors),"Orangeburg, Town of Orangetown, Rockland County, New York, 10962, United States of America",41.0514565,-73.9343141415317
141,/title/tt9866072/,,"Georgia, USA",,"Georgia, United States of America",32.3293809,-83.1137366
142,/title/tt0101272/,,"Brentwood Theatre - 11000 Wilshire Blvd., Brentwood, Los Angeles, California, USA",,,,
143,/title/tt0101272/,,"Lacy Street Production Center - 2630 Lacy Street, Los Angeles, California, USA",,,,
144,/title/tt0101272/,,"San Fernando Valley, Los Angeles, California, USA",,"San Fernando Valley, Los Angeles, Los Angeles County, California, 91406-1232, United States of America",34.2148853,-118.4998204
145,/title/tt0101272/,,"Stage 3/8, Hollywood Center Studios - 1040 N. Las Palmas Avenue, Hollywood, Los Angeles, California, USA",(studio) (House set),,,
146,/title/tt0101272/,,"Wilshire Ebell Theatre - 4401 W. 8th St., Los Angeles, California, USA",,,,
147,/title/tt0101272/,,USA,,United States,39.7837304,-100.4458825
148,/title/tt0369179/,,"Stage 26, Warner Brothers Burbank Studios - 4000 Warner Boulevard, Burbank, California, USA",(studio),,,
149,/title/tt7767422/,,"Llandogo, Monmouthshire, Wales, UK",,"Llandogo, Monmouthshire, Cymru / Wales, NP25 4TQ, United Kingdom",51.7332388,-2.6911382
150,/title/tt7767422/,,"R9R7+23 Symonds Yat, Ross-on-Wye, England, UK",(Otis's House),,,
151,/title/tt7767422/,,"VCVP+FH, Deepdean, Ashfield, Ross-on-Wye, UK",(Maeve's caravan Park.),,,
152,/title/tt1284575/,,"Los Angeles City Hall - 200 North Spring Street, Downtown, Los Angeles, California, USA",,"Los Angeles City Hall, 200, North Spring Street, Civic Center, Downtown, Los Angeles, Los Angeles County, California, 90012, United States of America",34.0537767,-118.2428987
153,/title/tt1284575/,,"Lawndale, Illinois, USA",,"Lawndale, Logan County, Illinois, 61751, United States of America",40.2186868,-89.2827052
154,/title/tt1284575/,,"D.C. Stages, 1360 East 6th Street, Downtown, Los Angeles, California, USA",,,,
155,/title/tt1284575/,,"Los Angeles, California, USA",,"Los Angeles, Los Angeles County, California, United States of America",34.0536909,-118.2427666
156,/title/tt3501632/,,"Village Roadshow Studios, Oxenford, Queensland, Australia",,"Village Roadshow Studios, Entertainment Road, Oxenford, Gold Coast City, Queensland, 4210, Australia",-27.910527700000003,153.3118145855983
157,/title/tt3501632/,,"Brisbane, Queensland, Australia",,"Brisbane City, Queensland, Australia",-27.4689682,153.0234991
158,/title/tt3501632/,,Australia,,Australia,-24.7761086,134.755
159,/title/tt0247102/,,"Paramount Studios - 5555 Melrose Avenue, Hollywood, Los Angeles, California, USA",(studio),,,
160,/title/tt5788792/,,"New York, USA",,"New York, United States of America",40.7127281,-74.0060152
161,/title/tt5788792/,,"Brooklyn, New York City, New York, USA",,"Brooklyn, Kings County, New York, United States of America",40.6501038,-73.9495823
162,/title/tt5788792/,,"New York City, New York, USA",,"New York, United States of America",40.7127281,-74.0060152
163,/title/tt0088763/,,"Gamble House - 4 Westmoreland Place, Pasadena, California, USA",(Doc Emmett's house: exteriors),"The Gamble House, Westmoreland Place, Pasadena, Los Angeles County, California, 91105-1825, United States of America",34.15161875,-118.16095474532985
164,/title/tt0088763/,,"Walt Disney's Golden Oak Ranch - 19802 Placerita Canyon Road, Newhall, California, USA",(Marty arriving in 1955),,,
165,/title/tt0088763/,,"1727 Bushnell Avenue, South Pasadena, California, USA",(Lorraine's house),"1727, Bushnell Avenue, South Pasadena, Los Angeles County, California, 91030, United States of America",34.105706,-118.14152424760314
166,/title/tt0088763/,,"Courthouse Square, Backlot, Universal Studios - 100 Universal City Plaza, Universal City, California, USA",,,,
167,/title/tt0088763/,,"1809 Bushnell Avenue, South Pasadena, California, USA",(Biff Tannen's house),"1809, Bushnell Avenue, South Pasadena, Los Angeles County, California, 91030, United States of America",34.105185391827234,-118.14133128375025
168,/title/tt0088763/,,"Burger King - 535 North Victory Boulevard, Burbank, California, USA",(opening credits),"Burger King, 545, North Victory Boulevard, Burbank, Los Angeles County, California, 91502, United States of America",34.1793367,-118.31966921533424
169,/title/tt0088763/,,"McCambridge Recreation Center, 1515 N. Glenoaks Blvd., Burbank, California, USA",(Marty's band audition.),,,
170,/title/tt0088763/,,"Griffith Park - 4730 Crystal Springs Drive, Los Angeles, California, USA",,,,
171,/title/tt0088763/,,"Burbank Community Center, Burbank, California, USA",(Band Auditions),,,
172,/title/tt0088763/,,"Santa Clarita, California, USA",,"Santa Clarita, Los Angeles County, California, United States of America",34.3916641,-118.542586
173,/title/tt0088763/,,USA,,United States,39.7837304,-100.4458825
174,/title/tt4532038/,,"Georgia, USA",,"Georgia, United States of America",32.3293809,-83.1137366
175,/title/tt7908628/,,"Ontario, Canada",,"Ontario, Canada",50.000678,-86.000977
176,/title/tt7975244/,,"Newnan, Georgia, USA",(street scenes),"Newnan, Coweta, Georgia, 30263, United States of America",33.3806716,-84.7996573
177,/title/tt7975244/,,"New Mexico, USA",,"New Mexico, United States of America",34.5708167,-105.993007
178,/title/tt7975244/,,"Georgia State University, Atlanta, Georgia, USA",,"Georgia State University, 33, Gilmer Street Southeast, Five Points, Atlanta, Georgia, 30303, United States of America",33.75360285,-84.38546024104502
179,/title/tt7975244/,,Canada,,Canada,61.0666922,-107.9917071
180,/title/tt7975244/,,"West Washington Street & Jackson Street - Newman, Georgia, USA",(Diner),,,
181,/title/tt7975244/,,USA,,United States,39.7837304,-100.4458825
182,/title/tt0491738/,,"868 Cassiar St, Vancouver, British Columbia, Canada",,"Cassiar Street, Hastings-Sunrise, Vancouver, Metro Vancouver Regional District, British Columbia, V5K 4T2, Canada",49.2834158,-123.0308708
183,/title/tt0491738/,,"North Shore Studios, North Vancouver, British Columbia, Canada",(studio),,,
184,/title/tt0491738/,,"North Vancouver, British Columbia, Canada",,"North Vancouver, Metro Vancouver Regional District, British Columbia, V7M 1H9, Canada",49.3207133,-123.0737831
185,/title/tt0491738/,,"New Westminster, British Columbia, Canada",,"New Westminster, Metro Vancouver Regional District, British Columbia, Canada",49.2067726,-122.9108818
186,/title/tt6587640/,,"Universal City, California, USA",(DreamWorks),"Universal City, Los Angeles County, California, 91608, United States of America",34.1412926,-118.3584364
187,/title/tt1832979/,,"Burbank, California, USA",,"Burbank, Los Angeles County, California, United States of America",34.1816482,-118.3258554
188,/title/tt1832979/,,"New York City, New York, USA",,"New York, United States of America",40.7127281,-74.0060152
189,/title/tt0285403/,,"North Hollywood, Los Angeles, California, USA",,"North Hollywood, Los Angeles, Los Angeles County, California, 91601-3121, United States of America",34.1729044,-118.3740371
190,/title/tt0285403/,,"Burbank, California, USA",,"Burbank, Los Angeles County, California, United States of America",34.1816482,-118.3258554
191,/title/tt1431045/,,"No 5 Orange - 205 Main St, Vancouver, British Columbia, Canada",(strip club),"No. 5 Orange, 205, Main Street, Downtown Eastside, Strathcona, Vancouver, Metro Vancouver Regional District, British Columbia, V6A 1K7, Canada",49.2830338,-123.0998209
192,/title/tt1431045/,,"Detroit, Michigan, USA",(Joe Louis Arena),"Detroit, Wayne County, Michigan, United States of America",42.3315509,-83.0466403
193,/title/tt1431045/,,Canada,,Canada,61.0666922,-107.9917071
194,/title/tt1431045/,,"Chinatown, Vancouver, British Columbia, Canada",(disfigured Wade following Vanessa as she shops),"Chinatown, Downtown, Vancouver, Metro Vancouver Regional District, British Columbia, Canada",49.2799809,-123.10408941422125
195,/title/tt0101862/,,"364 Street Cloud Rd, Los Angeles, California, USA",(The MacKenzie residence),"364, Saint Cloud Road, Bel Air, Bel-Air, Los Angeles, Los Angeles County, California, 90077, United States of America",34.084596714855316,-118.4380878227094
196,/title/tt0101862/,,"Monrovia, California, USA",,"Monrovia, Los Angeles County, California, United States of America",34.1483499,-118.0014517
197,/title/tt0101862/,,"Sprouts Farmers Market, 1011 N San Fernando Blvd, Burbank, California, USA",(grocery store),,,
198,/title/tt0101862/,,"West Hollywood, California, USA",,"West Hollywood, Los Angeles County, California, United States of America",34.0923014,-118.3692894
199,/title/tt0101862/,,"Los Angeles, California, USA",,"Los Angeles, Los Angeles County, California, United States of America",34.0536909,-118.2427666
200,/title/tt0101862/,,"Santa Monica, California, USA",,"Santa Monica, Los Angeles County, California, United States of America",34.0250724,-118.4965129
201,/title/tt7798634/,,"Casa Loma, Toronto, Ontario, Canada",(Le Domas Estate),"Casa Loma, 1, Austin Terrace, Toronto—St. Paul's, Old Toronto, Toronto, Golden Horseshoe, Ontario, M5R 1X9, Canada",43.6781015,-79.409415775
202,/title/tt7798634/,,"Toronto, Ontario, Canada",,"Toronto, Golden Horseshoe, Ontario, Canada",43.6534817,-79.3839347
203,/title/tt7798634/,,"Oshawa, Ontario, Canada",,"Oshawa, Durham Region, Golden Horseshoe, Ontario, Canada",43.91768,-78.862953
204,/title/tt1502397/,,"Yautepec, Morelos, Mexico",,"Yautepec, Morelos, México",18.86529045,-99.06188083884936
205,/title/tt1502397/,,"Miami, Florida, USA",,"Miami, Miami-Dade County, Florida, United States of America",25.7742658,-80.1936589
206,/title/tt5463162/,,"Royal Roads University - 2005 Sooke Rd, Victoria, British Columbia, Canada",(Castle),"Royal Roads University, 2005, Sooke Road, Colwood, Capital Regional District, British Columbia, V9B 5Y2, Canada",48.43031565,-123.47964930852761
207,/title/tt5463162/,,"British Columbia, Canada",,"British Columbia, Canada",55.001251,-125.002441
208,/title/tt0089218/,,"Astoria, Oregon, USA",,"Astoria, Clatsop County, Oregon, 97103, United States of America",46.187885,-123.831256
209,/title/tt0089218/,,"Columbia Memorial Hospital - 2111 Exchange Street, Astoria, Oregon, USA",(Andy has cheer practice) (formerly the John Warren Field),"Columbia Memorial Hospital, 2111, Exchange Street, Uppertown, Astoria, Clatsop County, Oregon, 97103, United States of America",46.187931649999996,-123.81935554797019
210,/title/tt0089218/,,"Lower Columbia Bowl - 826 Marine Drive, Astoria, Oregon, USA",(Chunk witnesses the car chase),,,
211,/title/tt0089218/,,"304 38th Street, Astoria, Oregon, USA",(Data's house),"304, 38th Street, Alderbrook, Astoria, Clatsop County, Oregon, 97103, United States of America",46.1928559995254,-123.79978857816208
212,/title/tt0089218/,,"Astoria Coffee Company - 304 37th Street, Astoria, Oregon, USA",(Stop and Snack store),,,
213,/title/tt0089218/,,"3693 Leif Erikson Drive, Astoria, Oregon, USA",(Astoria Country Club tennis courts),,,
214,/title/tt0089218/,,"Stage 20, Warner Brothers Burbank Studios - 4000 Warner Boulevard, Burbank, California, USA",(Walsh attic),,,
215,/title/tt0089218/,,"Stage 15, Warner Brothers Burbank Studios - 4000 Warner Boulevard, Burbank, California, USA",,,,
216,/title/tt0089218/,,"Stage 12, Warner Brothers Burbank Studios - 4000 Warner Boulevard, Burbank, California, USA",,,,
217,/title/tt0089218/,,"Warner Brothers Burbank Studios - 4000 Warner Boulevard, Burbank, California, USA",(studio),,,
218,/title/tt0367279/,,"Long Beach, California, USA",,"Long Beach, Los Angeles County, California, United States of America",33.7690164,-118.1916048
219,/title/tt0367279/,,"Marina del Rey, California, USA",(fisherman's village),"Marina del Rey, Los Angeles County, California, 90292, United States of America",33.9776848,-118.4486479
220,/title/tt0367279/,,"Stage 5, 20th Century Fox Studios - 10201 Pico Blvd., Century City, Los Angeles, California, USA",,,,
221,/title/tt5033998/,,"Istanbul, Turkey",(location),"İstanbul, Beyazıt Meydanı, Beyazıt Mahallesi, Fatih, İstanbul, Marmara Bölgesi, 34126, Türkiye",41.0096215,28.9651867
222,/title/tt5033998/,,Turkey,,Türkiye,38.9597594,34.9249653
223,/title/tt5033998/,,"Studio Babelsberg, Potsdam, Brandenburg, Germany",(studio),"Studio Babelsberg, 15, Babelsberg, Potsdam, Brandenburg, 14482, Deutschland",52.38260355,13.113726021425222
224,/title/tt5033998/,,"Berlin, Germany",,"Berlin, 10117, Deutschland",52.5170365,13.3888599
225,/title/tt2015381/,,"Shepperton Studios, Shepperton, Surrey, England, UK",,,,
226,/title/tt2015381/,,"London, England, UK",,"London, Greater London, England, United Kingdom",51.5073219,-0.1276474
227,/title/tt2015381/,,"England, UK",,"England, United Kingdom",52.7954791,-0.5402402866174321
228,/title/tt2015381/,,"Lloyd's Building, Lime Street, Broadgate, London, England, UK",(exteriors: Xandar street scene),,,
229,/title/tt2015381/,,"Hemel Hempstead, Hertfordshire, England, UK",(opening scene: hospital interiors),"Hemel Hempstead, Hertfordshire, East of England, England, HP1 1EW, United Kingdom",51.7511784,-0.472528
230,/title/tt2015381/,,"B Stage, Shepperton Studios, Shepperton, Surrey, England, UK",,,,
231,/title/tt2015381/,,"J Stage, Shepperton Studios, Shepperton, Surrey, England, UK",,,,
232,/title/tt2015381/,,"R Stage, Shepperton Studios, Shepperton, Surrey, England, UK",,,,
233,/title/tt2015381/,,"T Stage, Shepperton Studios, Shepperton, Surrey, England, UK",,,,
234,/title/tt5687612/,,"Southampton Road, London, England, UK",(street scenes),"Southampton Road, Maitland Park, Gospel Oak, London Borough of Camden, London, Greater London, England, NW5 4JU, United Kingdom",51.5523288,-0.1576654
235,/title/tt5687612/,,"Highgate Rd, London, UK",(street scenes),"Highgate Road, Gospel Oak, London Borough of Camden, London, Greater London, England, NW5 1LE, United Kingdom",51.5562107,-0.146153
236,/title/tt5687612/,,"Kentish Town, London, England, UK",(on location),"Kentish Town, London Borough of Camden, London, Greater London, England, NW5 3AB, United Kingdom",51.5500658,-0.1425625
237,/title/tt5687612/,,"St. Alban's Road, Kentish Town, London, England, UK",(street scenes),"St Albans Road, Tufnell Park, London Borough of Camden, London, Greater London, England, NW5 1RH, United Kingdom",51.562381,-0.1456163
238,/title/tt7040874/,,"Elmcrest Public School, Mississauga, Ontario, Canada",(Warfield Elementary School),,,
239,/title/tt7040874/,,"New York City, New York, USA",,"New York, United States of America",40.7127281,-74.0060152
240,/title/tt7040874/,,"New York, USA",,"New York, United States of America",40.7127281,-74.0060152
241,/title/tt7040874/,,USA,,United States,39.7837304,-100.4458825
242,/title/tt0088526/,,"245 North Saltair Avenue, Brentwood, Los Angeles, California, USA",(exterior: house scenes),"245, North Saltair Avenue, Brentwood Heights, Brentwood, Los Angeles, Los Angeles County, California, 90049, United States of America",34.065182677583834,-118.47487327789376
243,/title/tt0088526/,,"Columbia/Sunset Gower Studios - 1438 N. Gower Street, Hollywood, Los Angeles, California, USA",(studio) (1985-1987),,,
244,/title/tt3521164/,,Pacific Ocean,,"Pacific Ocean, Gulf View Executive Homes, Talomo, Davao City, Davao Region, 8024, Philippines",7.0427772,125.5367255
245,/title/tt0277371/,,"Torrance High School - 2200 W. Carson Street, Torrance, California, USA",,"Torrance High School, 2200, West Carson Street, Torrance, Los Angeles County, California, 90501, United States of America",33.8286788,-118.32040313752209
246,/title/tt0277371/,,"Monrovia, California, USA",,"Monrovia, Los Angeles County, California, United States of America",34.1483499,-118.0014517
247,/title/tt0277371/,,"Rae's Restaurant, 2901 Pico Boulevard, Santa Monica, California, USA","(featured during the ""Prom Tonight"" song and dance sequence)",,,
248,/title/tt0277371/,,"Park Plaza Hotel - 607 S. Park View Street, Los Angeles, California, USA",(hotel where prom takes place),,,
249,/title/tt0159206/,,"66 Perry Street, Greenwich Village, Manhattan, New York City, New York, USA",(Carrie's apartment),,,
250,/title/tt0159206/,,"New York City, New York, USA",,"New York, United States of America",40.7127281,-74.0060152
251,/title/tt0159206/,,"Gansevoort Street, Meatpacking District, Manhattan, New York City, New York, USA",(Samantha's apartment),"Gansevoort Street, Meatpacking District, Manhattan Community Board 2, Manhattan, New York County, New York, 100014, United States of America",40.739405,-74.006449
252,/title/tt0159206/,,"Pastis, 9th Avenue, Meatpacking District, Manhattan, New York City, New York, USA",,,,
253,/title/tt0159206/,,"Silvercup Studios East, Long Island City, Queens, New York City, New York, USA",(studio),"Silvercup Studios Main Lot, 42-22, 22nd Street, Queens, Queens County, New York, 11101, United States of America",40.7513513,-73.94424267969767
254,/title/tt1638355/,,"Pozzuoli, Naples, Campania, Italy",(exterior scenes),"Golfo di Pozzuoli, Cupa Starza, Agnano, Municipalità 10, Napoli, Campania, 80124, Italia",40.80463775,14.124147666895512
255,/title/tt1638355/,,"Naples, Campania, Italy",(exterior scenes),"Napoli, Campania, Italia",40.8359336,14.2487826
256,/title/tt1638355/,,"Old Royal Naval College, Greenwich, London, England, UK",(exterior scenes),"Old Royal Naval College, Park Row, East Greenwich, Royal Borough of Greenwich, London, Greater London, England, SE10 9NL, United Kingdom",51.4829661,-0.006257671681354558
257,/title/tt1638355/,,"University of Greenwich, Greenwich, London, England, UK",(Car chase),"University of Greenwich, Romney Road, East Greenwich, Royal Borough of Greenwich, London, Greater London, England, SE10 9JW, United Kingdom",51.4825423,-0.0066531
258,/title/tt1638355/,,"Hankley Common, Elstead, Surrey, England, UK",,,,
259,/title/tt1638355/,,"Via dei Fori Imperiali, Rome, Lazio, Italy",(Robbery),"Via dei Fori Imperiali, Rione X Campitelli, Municipio Roma I, Roma, Roma Capitale, Lazio, 00184, Italia",41.8931103,12.4873686
260,/title/tt1638355/,,"London, England, UK",,"London, Greater London, England, United Kingdom",51.5073219,-0.1276474
261,/title/tt1638355/,,"Procida Island, Naples, Campania, Italy",(Vinciguerra Island),"Via Giovanni Da Procida, Rione Luzzati, Municipalità 4, Napoli, Campania, 80143, Italia",40.8578608,14.2911839
262,/title/tt1638355/,,"Goodwood Motor Circuit, Goodwood, Chichester, West Sussex, England, UK",(Car race exterior scene),,,
263,/title/tt1638355/,,"Rome, Lazio, Italy",,"Roma Capitale, Lazio, Italia",41.85223935,12.631036615953583
264,/title/tt1638355/,,"Cape Miseno, Naples, Campania, Italy",(road scenes),"Punta Cavallo, Grotta di Seiano, Municipalità 1, Napoli, Campania, 80124, Italia",40.7939822,14.1809556
265,/title/tt1638355/,,UK,,United Kingdom,54.7023545,-3.2765753
266,/title/tt1638355/,,"Cambrian Mountains, Wales, UK",,,,
267,/title/tt0410975/,,"Elm Street, Backlot, Universal Studios - 100 Universal City Plaza, Universal City, California, USA",,,,
268,/title/tt0410975/,,"Los Angeles, California, USA",,"Los Angeles, Los Angeles County, California, United States of America",34.0536909,-118.2427666
269,/title/tt0410975/,,"California, USA",,"California, United States of America",36.7014631,-118.7559974
270,/title/tt0410975/,,"Toluca Lake, Los Angeles, California, USA",(house and Restaurant),"Toluca Lake, Los Angeles, Los Angeles County, California, 91602-2532, United States of America",34.1521688,-118.3571417
271,/title/tt0410975/,,"Hollywood, Los Angeles, California, USA",,"Hollywood, Los Angeles, Los Angeles County, California, 90028-8127, United States of America",34.0980031,-118.329523
272,/title/tt0410975/,,"Santa Clarita, California, USA",,"Santa Clarita, Los Angeles County, California, United States of America",34.3916641,-118.542586
273,/title/tt0410975/,,"Stage 3, Universal Studios - 100 Universal City Plaza, Universal City, California, USA",,,,
274,/title/tt0410975/,,"Stage 5, Universal Studios - 100 Universal City Plaza, Universal City, California, USA",,,,
275,/title/tt0312172/,,"San Francisco, California, USA",,"San Francisco, San Francisco City and County, California, United States of America",37.7790262,-122.4199061
276,/title/tt0312172/,,"Santa Clarita, California, USA",,"Santa Clarita, Los Angeles County, California, United States of America",34.3916641,-118.542586
277,/title/tt0312172/,,"Elm Street, Backlot, Universal Studios - 100 Universal City Plaza, Universal City, California, USA",,,,
278,/title/tt0312172/,,"Ren-Mar Studios - 846 N. Cahuenga Blvd., Hollywood, Los Angeles, California, USA",(studio) (studio: seasons 2 to 5),,,
279,/title/tt0312172/,,"999 Broadway - Taylor, San Francisco, California, USA",(Adrian Monk's apartment; exteriors),,,
280,/title/tt8580274/,,"Expo Tel Aviv, Tel Aviv, Israel",(Eurovision Song Contest stage),"אקספו תל אביב, שדרות רוקח, תל אביב - יפו, מרכז הירידים, תל אביב-יפו, מחוז תל אביב, 61210, ישראל",32.105601899999996,34.80859080476674
281,/title/tt8580274/,,"Edinburgh, Scotland, UK",(various exterior sequences),"Edinburgh, City of Edinburgh, Scotland, EH1 3EG, United Kingdom",55.9533456,-3.1883749
282,/title/tt8580274/,,"Chobham Rugby Club, Surrey, England, UK",(Captain's Galley Pub interior),"Chobham Rugby Club, Windsor Road, Chobham, Surrey Heath, Surrey, South East, England, GU24 8NA, United Kingdom",51.35239885,-0.6033355163461539
283,/title/tt8580274/,,"Glasgow Airport, Glasgow, Scotland, UK",(Edinburgh Airport interiors and exteriors),,,
284,/title/tt8580274/,,"Princes Street Gardens, Edinburgh, Scotland, UK",(Fountain scene in Edinburgh),"Princes Street, Bellevue, New Town/Broughton, Edinburgh, City of Edinburgh, Scotland, EH2 2DQ, United Kingdom",55.9523659,-3.1948577
285,/title/tt8580274/,,"Gullfoss Falls, Iceland",(Waterfall aerial shot in first scene),"Gullfoss, Gullfossvegur, Brattholt, Bláskógabyggð, Suðurland, Ísland",64.3266103,-20.1216821
286,/title/tt6905696/,,"Chislehurst Caves, Chislehurst, Kent, England, UK",,,,
287,/title/tt0106004/,,"Seattle, Washington, USA",(establishing shots),"Seattle, King County, Washington, United States of America",47.6038321,-122.3300624
288,/title/tt0264235/,,"553 Moreno Avenue, Los Angeles, California, USA","(Larry's house, season 1, since demolished)","553, Moreno Avenue, Brentwood Park, Brentwood, Santa Monica, Los Angeles County, California, 90049, United States of America",34.04652251819214,-118.48741300562061
289,/title/tt0264235/,,"Don Cuco Mexican Restaurant - 214 N. Brand Blvd., Glendale, California, USA",,,,
290,/title/tt0264235/,,"Santa Monica, California, USA",,"Santa Monica, Los Angeles County, California, United States of America",34.0250724,-118.4965129
291,/title/tt0264235/,,"Byzantine Greek Restaurant - 208 N. Brand Blvd., Glendale, California, USA",,,,
292,/title/tt8064302/,,"Laguna Beach, California, USA",,"Laguna Beach, Orange County, California, United States of America",33.5426975,-117.785366
293,/title/tt8064302/,,"Los Angeles, California, USA",,"Los Angeles, Los Angeles County, California, United States of America",34.0536909,-118.2427666
294,/title/tt8064302/,,"California, USA",,"California, United States of America",36.7014631,-118.7559974
295,/title/tt5691552/,,"20th Century Fox Studios - 10201 Pico Blvd., Century City, Los Angeles, California, USA",(studio),,,
296,/title/tt1219024/,,"Raleigh Studios - 5300 Melrose Avenue, Hollywood, Los Angeles, California, USA",(studio),,,
297,/title/tt6474378/,,"Doraville, Georgia, USA",(season 1),"Doraville, DeKalb County, Georgia, United States of America",33.8981579,-84.2832564
298,/title/tt6474378/,,"Chatsworth, California, USA",,"Chatsworth, Los Angeles, Los Angeles County, California, United States of America",34.2595715,-118.6023247
299,/title/tt9484998/,,"Palmdale, California, USA",,"Palmdale, Los Angeles County, California, United States of America",34.5793131,-118.1171108
300,/title/tt0173886/,,"St. Helens, Oregon, USA",,"Saint Helens, Columbia County, Oregon, 97051, United States of America",45.8640034,-122.8064922
301,/title/tt0173886/,,"Beaverton, Oregon, USA",,"Beaverton, Washington County, Oregon, United States of America",45.4871723,-122.8037804
302,/title/tt0173886/,,"3814 SE Martins St, Portland, Oregon, USA",(Aggie's house),"3814, Southeast Martins Street, Eastmoreland, Portland, Multnomah County, Oregon, 97202, United States of America",45.478226250000006,-122.62327829984537
303,/title/tt2660806/,,"Los Angeles, California, USA",,"Los Angeles, Los Angeles County, California, United States of America",34.0536909,-118.2427666
304,/title/tt7826376/,,"Vancouver, British Columbia, Canada",,"Vancouver, Metro Vancouver Regional District, British Columbia, Canada",49.2608724,-123.1139529
305,/title/tt7826376/,,"Cecil Green Park House - 6251 Cecil Green Park Road, Vancouver, British Columbia, Canada",,"Cecil Green Park House, Cecil Green Park Road, University of British Columbia, Electoral Area A, Metro Vancouver Regional District, British Columbia, V6T 1Z2, Canada",49.27137675,-123.25770394938536
306,/title/tt2712740/,,"3071 Earlmar Drive, Cheviot Hills, Los Angeles, California, USA",(Goldberg family home - exteriors),"3071, Earlmar Drive, Cheviot Hills, Los Angeles, Los Angeles County, California, 90064, United States of America",34.03662514285714,-118.40481628571429
307,/title/tt0144084/,,"Toronto, Ontario, Canada",,"Toronto, Golden Horseshoe, Ontario, Canada",43.6534817,-79.3839347
308,/title/tt0144084/,,"Montana Restaurant Bar - 145 John Street, Toronto, Ontario, Canada",,,,
309,/title/tt0144084/,,"Phoenix Concert Theater - 410 Sherbourne Street, Toronto, Ontario, Canada",,,,
310,/title/tt0144084/,,"Cabbagetown, Toronto, Ontario, Canada",,"Cabbagetown, Old Toronto, Toronto, Golden Horseshoe, Ontario, M5A 3A3, Canada",43.6644734,-79.3669861
311,/title/tt0144084/,,"Alley at 51 Nassau Street, New York, USA","(Patrick murders homeless man. This is the alley between Maiden Ln. You can see address painted on plywood ""51 Nassau"" This is just around the corner a block away from where Patrick is seen walking past George Washington's statue at Federal Hall)",,,
312,/title/tt0144084/,,"New York, USA",(only exterior shots),"New York, United States of America",40.7127281,-74.0060152
313,/title/tt0144084/,,"Solomon R. Guggenheim Museum - 1071 Fifth Avenue, Manhattan, New York City, New York, USA",(only one exterior shot) (at night),,,
314,/title/tt0144084/,,"Manhattan, New York City, New York, USA",(only exterior shots),"Manhattan, New York County, New York, United States of America",40.7896239,-73.9598939
315,/title/tt0118715/,,"Venice, Los Angeles, California, USA",(Dude's Crib),"Venice, Los Angeles, Los Angeles County, California, United States of America",33.995044,-118.4668875
316,/title/tt0118715/,,"Hollywood Star Lanes - 5227 Santa Monica Boulevard, East Hollywood, Los Angeles, California, USA",,,,
317,/title/tt0118715/,,"1824 Stearns Drive, Los Angeles, California, USA",(Little Larry's house),"1824, Stearns Drive, Carthay, Mid-City, Los Angeles, Los Angeles County, California, 90035, United States of America",34.04339106122449,-118.37355924489796
318,/title/tt0118715/,,"606 Venezia Avenue, Venice, Los Angeles, California, USA",(The Dude's apartment),"606, Venezia Avenue, Venice, Los Angeles, Los Angeles County, California, 90291, United States of America",33.989748530612246,-118.45944326530612
319,/title/tt0118715/,,"10231 Charing Cross Road, Beverly Hills, California, USA",(Lebowski mansion - exteriors),,,
320,/title/tt0118715/,,"6333 La Mirada Avenue, Los Angeles, California, USA",(The Dude crashes his car when trying to extinguish his Marijuana Joint.),"6333, La Mirada Avenue, Hollywood, Los Angeles, Los Angeles County, California, 90028, United States of America",34.0933624,-118.3278421
321,/title/tt0118715/,,"Point Dume, Malibu, California, USA",(Jackie's bonfire party),"Point Dume, Malibu, Los Angeles County, California, United States of America",34.001631,-118.8066756
322,/title/tt0118715/,,"Greystone Park & Mansion - 905 Loma Vista Drive, Beverly Hills, California, USA",(Lebowski mansion - interiors),,,
323,/title/tt0118715/,,"Jefferson Blvd. at Duquesne Avenue, Culver City, California, USA",(The Dude gets kicked out of the taxi),,,
324,/title/tt0118715/,,"Hollywood Palace Theater - 1735 N. Vine Street, Hollywood, Los Angeles, California, USA",(Maude Lebowski's artist loft),,,
325,/title/tt0118715/,,"Santa Monica, California, USA",,"Santa Monica, Los Angeles County, California, United States of America",34.0250724,-118.4965129
326,/title/tt0118715/,,"Simi Valley, California, USA",,"Simi Valley, Ventura County, California, United States of America",34.2694474,-118.781482
327,/title/tt0118715/,,"606 Venezia Ave, Venice, Los Angeles, California, USA",(The Dude's abode),"606, Venezia Avenue, Venice, Los Angeles, Los Angeles County, California, 90291, United States of America",33.989748530612246,-118.45944326530612
328,/title/tt0118715/,,"Fairfax, Los Angeles, California, USA",,"Fairfax, Los Angeles, Los Angeles County, California, 90036-2829, United States of America",34.0791555,-118.3522844
329,/title/tt0118715/,,"Hollywood Hills, Los Angeles, California, USA",,"Hollywood Hills, Los Angeles, Los Angeles County, California, United States of America",34.1311792,-118.3355474
330,/title/tt0118715/,,"Downtown, Los Angeles, California, USA",,"Downtown, Los Angeles, Los Angeles County, California, United States of America",34.0428494,-118.2476732
331,/title/tt0118715/,,USA,,United States,39.7837304,-100.4458825
332,/title/tt0068098/,,"Stage 9, 20th Century Fox Studios - 10201 Pico Blvd., Century City, Los Angeles, California, USA",(studio),,,
333,/title/tt2235759/,,"Hatfield House, Hatfield, Hertfordshire, England, UK",,"Hatfield House, The Stable Yard, Hatfield, Welwyn Hatfield, Hertfordshire, East of England, England, AL9 5NF, United Kingdom",51.7605139,-0.20879851305478084
334,/title/tt2235759/,,"Belvoir Castle, Belvoir, Leicestershire, England, UK",,"Belvoir Castle, Woolsthorpe Road, Belvoir, Melton, Leicestershire, East Midlands, England, NG32 1PH, United Kingdom",52.8947417,-0.7823103203821613
335,/title/tt2235759/,,"Ham House, Richmond, Surrey, England, UK",,,,
336,/title/tt2235759/,,"St Clere Estate, Kent, England, UK",(Location),,,
337,/title/tt2235759/,,"Hever, Kent, England, UK",,"Hever, Sevenoaks, Kent, South East, England, United Kingdom",51.19346535,0.11045206572088995
338,/title/tt2235759/,,"London, England, UK",,"London, Greater London, England, United Kingdom",51.5073219,-0.1276474
339,/title/tt2235759/,,"York, North Yorkshire, England, UK",,"York, Yorkshire and the Humber, England, YO1 8SG, United Kingdom",53.9590555,-1.0815361
340,/title/tt2235759/,,UK,,United Kingdom,54.7023545,-3.2765753
341,/title/tt0098800/,,"Columbia/Sunset Gower Studios - 1438 N. Gower Street, Hollywood, Los Angeles, California, USA",,,,
342,/title/tt0446029/,,"Artscape Wychwood Barns, Toronto, Ontario, Canada",,"Artscape Wychwood Barns, 76, Wychwood Avenue, Toronto—St. Paul's, Old Toronto, Toronto, Golden Horseshoe, Ontario, M6C 1A3, Canada",43.680062050000004,-79.42377804328564
343,/title/tt0446029/,,"Cinespace Film Studios, Toronto, Ontario, Canada",,"Cinespace Film Studios, 777, Kipling Avenue, Etobicoke—Lakeshore, Etobicoke, Toronto, Golden Horseshoe, Ontario, M8Z 5G5, Canada",43.630009799999996,-79.52817339890174
344,/title/tt0446029/,,"27 Alberta Avenue, Toronto, Ontario, Canada",(Scott's home),"27, Alberta Avenue, Davenport, Old Toronto, Toronto, Golden Horseshoe, Ontario, M6H 2M1, Canada",43.67551385,-79.43169511666666
345,/title/tt0446029/,,"Honest Ed's, Toronto, Ontario, Canada",(seen in background from pizza scene),,,
346,/title/tt0446029/,,"Lee's Palace, Toronto, Ontario, Canada","(as itself, exterior)","Lee's Palace, 529, Bloor Street West, University—Rosedale, Old Toronto, Toronto, Golden Horseshoe, Ontario, M5S 1Y5, Canada",43.665315,-79.409429
347,/title/tt0446029/,,"Cabbagetown, Toronto, Ontario, Canada",(Romona's neighbourhood),"Cabbagetown, Old Toronto, Toronto, Golden Horseshoe, Ontario, M5A 3A3, Canada",43.6644734,-79.3669861
348,/title/tt0446029/,,"St. Michael's College School, Toronto, Ontario, Canada",(Knives Chau's school),"St. Michael's College School, 1515, Bathurst Street, Toronto—St. Paul's, York, Old Toronto, Toronto, Golden Horseshoe, Ontario, M6C 1A1, Canada",43.685006200000004,-79.41686592589446
349,/title/tt0446029/,,"Canary Restaurant, Toronto, Ontario, Canada","(Next to Chaos theatre, with ""Canary Restaurant"" sign removed.)",,,
350,/title/tt0096928/,,"Showbiz Pizza Place - 8039 N. 35th Avenue, Phoenix, Arizona, USA",(The Ice Cream Parlor),,,
351,/title/tt0096928/,,"Golfland-Sunsplash Waterpark - 155 W. Hampton Avenue, Mesa, Arizona, USA",,,,
352,/title/tt0096928/,,"Southwestern Studios, Carefree, Arizona, USA",,,,
353,/title/tt0096928/,,"Mesa, Arizona, USA",,"Mesa, Maricopa County, Arizona, United States of America",33.4151117,-111.8314773
354,/title/tt0096928/,,"Phoenix, Arizona, USA","(San Dimas, California, USA)","Phoenix, Maricopa County, Arizona, United States of America",33.4484367,-112.0741417
355,/title/tt0096928/,,"Coconino National Forest, Arizona, USA",,"Coconino National Forest, Tempe Camp, Coconino County, Arizona, United States of America",34.9455958,-111.4330018089496
356,/title/tt0096928/,,"Flagstaff, Arizona, USA",(environs),"Flagstaff, Coconino County, Arizona, United States of America",35.1987522,-111.6518229
357,/title/tt0096928/,,"Raging Waters, San Dimas, California, USA",,"Raging Waters, San Dimas Avenue, San Dimas, Los Angeles County, California, 91773, United States of America",34.094317950000004,-117.8111071331366
358,/title/tt0096928/,,"San Dimas High School - 800 W. Corvina Boulevard, San Dimas, California, USA",,,,
359,/title/tt0096928/,,"Six Points Texas, Backlot, Universal Studios - 100 Universal City Plaza, Universal City, California, USA",,,,
360,/title/tt0096928/,,"California, USA",,"California, United States of America",36.7014631,-118.7559974
361,/title/tt0096928/,,USA,,United States,39.7837304,-100.4458825
362,/title/tt0377092/,,"Convocation Hall, University of Toronto-St.George Campus, Toronto, Ontario, Canada",,,,
363,/title/tt0377092/,,"Front Campus, University of Toronto-St.George Campus, Toronto, Ontario, Canada",,,,
364,/title/tt0377092/,,"Toronto, Ontario, Canada",,"Toronto, Golden Horseshoe, Ontario, Canada",43.6534817,-79.3839347
365,/title/tt0377092/,,"Convocation Hall, University of Toronto-St.George Campus, Toronto, Ontario, Canada",(Mathletes competition),,,
366,/title/tt0377092/,,"Santa Clarita, California, USA",,"Santa Clarita, Los Angeles County, California, United States of America",34.3916641,-118.542586
367,/title/tt0106220/,,"Camp Sequoia, Sequoia Lake, Sequoia National Forest, California, USA",,,,
368,/title/tt0106220/,,"Palos Verdes Peninsula, California, USA",(Addams Family Mansion),"Palos Verdes Peninsula High School, Silver Spur Road, Rancho Palos Verdes, Los Angeles County, California, 90274, United States of America",33.77984925,-118.37219683021539
369,/title/tt0106220/,,"Sequoia Lake, Sequoia National Forest, California, USA",,,,
370,/title/tt0106220/,,"4222 Agnes Avenue, Studio City, California, USA",(Debbie's childhood home in photo slideshow),"4222, Agnes Avenue, Studio City, Los Angeles, Los Angeles County, California, 91604, United States of America",34.14736267108373,-118.39530431343948
371,/title/tt0106220/,,"California, USA",,"California, United States of America",36.7014631,-118.7559974
372,/title/tt0213847/,,"Syracuse, Sicily, Italy",,"Siracusa, Sicilia, Italia",37.0646139,15.2907196
373,/title/tt0213847/,,"Messina, Sicily, Italy",,"Messina, Sicilia, Italia",38.1937571,15.5542082
374,/title/tt0213847/,,"San Domenico Palace, Taormina, Messina, Sicily, Italy",,,,
375,/title/tt0112642/,,"Colonial Mansion, Backlot, Universal Studios - 100 Universal City Plaza, Universal City, California, USA",,,,
376,/title/tt0112642/,,"Singapore Lake, Backlot, Universal Studios - 100 Universal City Plaza, Universal City, California, USA",,,,
377,/title/tt0112642/,,"Stage 12, Universal Studios - 100 Universal City Plaza, Universal City, California, USA",(studio),,,
378,/title/tt0106677/,,"Top Notch Restaurant - 7525 Burnet Road, Austin, Texas, USA",(hamburger shop),"Top Notch, 7525, Burnet Road, Crestview, Austin, Travis County, Texas, 78757, United States of America",30.3511441,-97.7335205
379,/title/tt0106677/,,"Toney Burger Center, Sunset Valley TX",(football stadium near end of film),,,
380,/title/tt0106677/,,"West Enfield Park, Austin, Texas, USA",(party),,,
381,/title/tt0106677/,,"2513 Great Oaks Parkway, Austin, Texas, USA",(Mike Newhouse's house),"2513, Great Oaks Parkway, The Grove, Austin, Travis County, Texas, 78756, United States of America",30.3193105,-97.74701062996579
382,/title/tt0106677/,,"6409 Wilbur Drive, Austin, Texas, USA",(Carl Burnett's house),"6409, Wilbur Drive, Allandale, Austin, Travis County, Texas, 78757, United States of America",30.342805499999997,-97.74430555485233
383,/title/tt0106677/,,"Texas, USA",,"Texas, United States of America",31.8160381,-99.5120986
384,/title/tt0106677/,,"6507 Burnet Rd, Austin, Texas, USA",(Emporium interior),"6507, Burnet Road, Allandale, Austin, Travis County, Texas, 78757, United States of America",30.340303,-97.73856
385,/title/tt6226232/,,"Columbia/Warner Bros. Ranch - 411 North Hollywood Way, Burbank, California, USA",(Meemaw's house),,,
386,/title/tt0212671/,,"Walter Reed Middle School - 4525 Irvine Avenue, North Hollywood, Los Angeles, California, USA",,,,
387,/title/tt0212671/,,"20th Century Fox Studios - 10201 Pico Blvd., Century City, Los Angeles, California, USA",,,,
388,/title/tt0212671/,,"Santa Clarita, California, USA",,"Santa Clarita, Los Angeles County, California, United States of America",34.3916641,-118.542586
389,/title/tt4520988/,,"Iceland, Sagaøya","(beach, forest)",,,
390,/title/tt5503686/,,"New York City, New York, USA",,"New York, United States of America",40.7127281,-74.0060152
391,/title/tt5503686/,,"Trading Post, 170 John St, New York City, New York, USA",(location),,,
392,/title/tt0163651/,,"California State University Long Beach - 1250 N. Bellflower Boulevard, Long Beach, California, USA",,,,
393,/title/tt0163651/,,"Long Beach, California, USA",,"Long Beach, Los Angeles County, California, United States of America",33.7690164,-118.1916048
394,/title/tt0163651/,,"4153 Cedar Avenue, Long Beach, California, USA",(Jim's house),"4153, Cedar Avenue, Vista del Mar, Long Beach, Los Angeles County, California, 90807, United States of America",33.83140848142888,-118.1966633856677
395,/title/tt0163651/,,"1090 Rubio Street, Altadena, California, USA",(Stifler's house - interiors),"1090, Rubio Street, Altadena, Los Angeles County, California, 91001, United States of America",34.191674415584416,-118.12747098701298
396,/title/tt0163651/,,"Pacific Palms Resort - 1 Industry Hills Parkway, City of Industry, California, USA",(Michigan State University MSUConcert Hall),,,
397,/title/tt0163651/,,"402 S. Myrtle, Monrovia, California, USA",(Dog Years coffee shop),"402, South Myrtle Avenue, Monrovia, Los Angeles County, California, 91016, United States of America",34.14792793844267,-118.00091664717607
398,/title/tt0163651/,,"Long Beach Polytechnic High School - 1600 Atlantic Avenue, Long Beach, California, USA",,,,
399,/title/tt0163651/,,"California, USA",,"California, United States of America",36.7014631,-118.7559974
400,/title/tt0163651/,,"410 Lake Sherwood Drive, Westlake Village, California, USA",(Stifler's lakehouse),"410, Lake Sherwood Drive, Westlake Village, Ventura County, California, 91361, United States of America",34.14102698334665,-118.8709369333866
401,/title/tt0163651/,,"El Dorado Regional Park - 7550 E. Spring Street, Long Beach, California, USA",,,,
402,/title/tt0163651/,,"Southern California, California, USA",,"University of Southern California, Flower Street, University Park, Los Angeles, Los Angeles County, California, 90089-0871, United States of America",34.0218833,-118.28586726915088
403,/title/tt0163651/,,USA,,United States,39.7837304,-100.4458825
404,/title/tt0367594/,,"York, North Yorkshire, England, UK",,"York, Yorkshire and the Humber, England, YO1 8SG, United Kingdom",53.9590555,-1.0815361
405,/title/tt0367594/,,"England, UK",,"England, United Kingdom",52.7954791,-0.5402402866174321
406,/title/tt0367594/,,"Buford, Georgia, USA",(Violet's house),"Buford, Gwinnett County, Georgia, United States of America",34.1206564,-84.0043513
407,/title/tt0367594/,,"Armory, Hatfield House, Hatfield, Hertfordshire, England, UK",(interior of Veruca's house),,,
408,/title/tt0367594/,,"A Stage, Pinewood Studios, Iver Heath, Buckinghamshire, England, UK",,,,
409,/title/tt0367594/,,"E Stage, Pinewood Studios, Iver Heath, Buckinghamshire, England, UK",,,,
410,/title/tt0367594/,,"Wrotham Park, Barnet, Hertfordshire, England, UK",(exterior of Veruca's house),"Wrotham Park, Hertsmere, Hertfordshire, East of England, England, EN5 4RY, United Kingdom",51.6775134,-0.1957087
411,/title/tt0367594/,,UK,,United Kingdom,54.7023545,-3.2765753
412,/title/tt0367594/,,"R Stage, Shepperton Studios, Shepperton, Surrey, England, UK",,,,
413,/title/tt0367594/,,"C Stage, Pinewood Studios, Iver Heath, Buckinghamshire, England, UK",(interior of Boutique Department Store),,,
414,/title/tt0367594/,,"Bab al-Yaman, Sana'a, Yemen","(Marrakesh, Morocco)","باب اليمن, مديرية صنعاء القديمة, مدينة صنعاء, أمانة العاصمة, 14050, اليَمَن al-Yaman",15.35121,44.21465
415,/title/tt6966692/,,"McAlister Auditorium, Tulane University, New Orleans, LA 70118, USA",(Indiana performance hall),,,
416,/title/tt6966692/,,"Ruby's Roadhouse, Mandeville, Louisiana, USA",(Orange Bird),"Ruby's Roadhouse, 840, Lamarque Street, Mandeville, St. Tammany Parish, Louisiana, 70448, United States of America",30.361515400000002,-90.05857095172229
417,/title/tt6966692/,,"International House Hotel, Camp Street, New Orleans, Louisiana, USA",(Copacabana exterior),,,
418,/title/tt6966692/,,"Carver Theater, New Orleans, Louisiana, USA",(Copacabana interior),,,
419,/title/tt6966692/,,"New Orleans Athletic Club, New Orleans, Louisiana, USA",(YMCA),,,
420,/title/tt6966692/,,"Orpheum Theater - 129 Roosevelt Way, New Orleans, Louisiana, USA",(Macon concert venue),"Orpheum Theater, 129, Roosevelt Way, Vieux Carre Historic District, Storyville, New Orleans, Orleans Parish, Louisiana, 70112, United States of America",29.95454275,-90.07282732986516
421,/title/tt6966692/,,"Amite, Louisiana, USA",(Tony writes a letter to his wife at Miss Ann's diner),"Amite, Tangipahoa Parish, Louisiana, 70422, United States of America",30.7265747,-90.5089815
422,/title/tt6966692/,,"Saenger Theater, New Orleans, Louisiana, USA","(Hotel lobby ""diction"" scene, Carnegie Hall exteriors)",,,
423,/title/tt6966692/,,"W.P. Brown House, 4717 St. Charles Ave., New Orleans, Louisiana, USA",('Pittsburgh' private party attended by Tony and Donald),,,
424,/title/tt6966692/,,"Burnside, Louisiana, USA",,"Burnside, Ascension Parish, Louisiana, 70725, United States of America",30.1388095,-90.9239868
425,/title/tt6966692/,,"New Orleans, Louisiana, USA",,"New Orleans, Orleans Parish, Louisiana, United States of America",29.9499323,-90.0701156
426,/title/tt6966692/,,"Metairie, Louisiana, USA",,"Metairie, Jefferson Parish, Louisiana, 70011, United States of America",29.9899926,-90.1505426
427,/title/tt0073629/,,"Berkshire, England, UK",(church exterior),"Berkshire, Churchend, Reading, South East, England, United Kingdom",51.453488899999996,-1.0318729593399247
428,/title/tt0093437/,,"Cliffs, Marineland of the Pacific - 6610 Palos Verdes Drive South, Rancho Palos Verdes, California, USA",(Vampire cave entrance.),,,
429,/title/tt0093437/,,"333 Golf Club Drive, Santa Cruz, California, USA",(Grandpa's house),"333, Golf Club Drive, Residential and Urban Agriculture, Downtown, Santa Cruz, Santa Cruz County, California, 95060, United States of America",36.98991964662217,-122.03652739543665
430,/title/tt0093437/,,"526 Seabright Avenue, Santa Cruz, California, USA","(Whale snout protruding from building, opening credits.)","526, Seabright Avenue, Seabright Commercial District, Seabright, Santa Cruz, Santa Cruz County, California, 95062, United States of America",36.968028294166885,-122.0078024808826
431,/title/tt0093437/,,"17 Municipal Wharf Suite D, Santa Cruz, California, USA",(Max's Video Store),,,
432,/title/tt0093437/,,"49 Municipal Wharf Suite B, Santa Cruz, California, USA",(Max and Lucy's dinner date.),,,
433,/title/tt0093437/,,"Stage 12, Warner Brothers Burbank Studios - 4000 Warner Boulevard, Burbank, California, USA",(Cave interiors),,,
434,/title/tt0091042/,,"22 West Schiller Street, Chicago, Illinois, USA",(Chez Quis Restaurant - exteriors),"22, West Schiller Street, Near North Side, Chicago, Cook County, Illinois, 60610, United States of America",41.9078741,-87.62976428698947
435,/title/tt0091042/,,"Wrigley Field - 1060 West Addison Street, Lake View, Chicago, Illinois, USA",(Baseball game),"Wrigley Field, 1060, West Addison Street, Lake View, Lakeview, Chicago, Cook County, Illinois, 60613, United States of America",41.9481225,-87.6563513145702
436,/title/tt0091042/,,"Sears Tower - 233 S. Wacker Drive, Downtown, Chicago, Illinois, USA",,,,
437,/title/tt0091042/,,"Lake Forest, Illinois, USA",,"Lake Forest, Illinois, 60045, United States of America",42.2586342,-87.840625
438,/title/tt0091042/,,"4160 Country Club Drive, Long Beach, California, USA","(Bueller home, exterior)","4160, Country Club Drive, Vista del Mar, Long Beach, Los Angeles County, California, 90807, United States of America",33.831792240274254,-118.19895085435816
439,/title/tt0091042/,,"Glenbrook North High School - 2300 Shermer Road, Northbrook, Illinois, USA",(school exteriors),"Glenbrook North High School, 2300, Shermer Road, Northfield Township, Cook County, Illinois, 60062, United States of America",42.1112449,-87.8321867
440,/title/tt0091042/,,"Glencoe, Illinois, USA",,"Glencoe, New Trier Township, Cook County, Illinois, 60022, United States of America",42.1350268,-87.7581188
441,/title/tt0091042/,,"Northbrook, Illinois, USA",,"Northbrook, Cook County, Illinois, 60062, United States of America",42.12753095,-87.8318855309532
442,/title/tt0091042/,,"Adams Street, The Loop, Downtown, Chicago, Illinois, USA",,,,
443,/title/tt0091042/,,"Chicago Mercantile Exchange - 30 S. Wacker Drive, Downtown, Chicago, Illinois, USA",,,,
444,/title/tt0091042/,,"Dearborn Street, The Loop, Downtown, Chicago, Illinois, USA",,,,
445,/title/tt0091042/,,"Highland Park, Illinois, USA",,"Highland Park, Illinois, 60035, United States of America",42.1816919,-87.8003438
446,/title/tt0091042/,,"L'Orangerie - 903 North La Cienega Boulevard, Los Angeles, California, USA",(Chez Quis Restaurant - interiors),,,
447,/title/tt0091042/,,"Long Beach, California, USA",,"Long Beach, Los Angeles County, California, United States of America",33.7690164,-118.1916048
448,/title/tt0091042/,,"Winnetka, Illinois, USA",,"Winnetka, New Trier Township, Cook County, Illinois, 60043, United States of America",42.1080703,-87.7365286
449,/title/tt0091042/,,"Gold Coast, Near North Side, Chicago, Illinois, USA",,,,
450,/title/tt0091042/,,"Virginia Country Club neighborhood of Long Beach, California, USA",(Ferris Bueller house),,,
451,/title/tt0091042/,,"Chicago, Illinois, USA",,"Chicago, Cook County, Illinois, United States of America",41.8755616,-87.6244212
452,/title/tt0091042/,,"Woodland Hills, Los Angeles, California, USA",,"Woodland Hills, Los Angeles, Los Angeles County, California, 91364, United States of America",34.1684364,-118.6058382
453,/title/tt0091042/,,"Downtown, Chicago, Illinois, USA",,"Residence Inn Chicago Downtown/Loop, 11, West Madison Street, Loop, Chicago, Cook County, Illinois, 60603, United States of America",41.881644,-87.63209480891294
454,/title/tt2194499/,,"Abbey Road, St. John's Wood, London, England, UK",,"Abbey Road, St. John's Wood, City of Westminster, London, Greater London, England, NW8, United Kingdom",51.5319494,-0.1772181
455,/title/tt2194499/,,"102 Golborne Road, London, England, UK",(Mary's apartment),"102, Golborne Road, North Kensington, Royal Borough of Kensington and Chelsea, London, Greater London, England, W10 5NP, United Kingdom",51.52146705,-0.20941920499999894
456,/title/tt2194499/,,"Royal Courts of Justice, Strand, Holborn, London, England, UK",,"Royal Courts of Justice, Strand, St Clement Danes, Covent Garden, City of Westminster, London, Greater London, England, WC2A 2LL, United Kingdom",51.51419575,-0.11347677488453559
457,/title/tt2194499/,,"Zorba's Greek Taverna - 36 Leinster Gardens, London, England, UK",(Tim and Mary go for a meal after the party),,,
458,/title/tt2194499/,,"Notting Hill, London, England, UK",,"Notting Hill, Royal Borough of Kensington and Chelsea, London, Greater London, England, W11 2PA, United Kingdom",51.5109995,-0.2055267
459,/title/tt2194499/,,"Whitehouse Apartments, 9 Belvedere Road, South Bank, London, England, UK",,"Whitehouse Apartments, 9, Belvedere Road, South Bank, Lambeth, London Borough of Lambeth, London, Greater London, England, SE1 8YP, United Kingdom",51.5054799,-0.11519654543549024
460,/title/tt2194499/,,"Cornwall, England, UK",,"Cornwall, Broadoak, Cornwall, South West England, England, United Kingdom",50.443348900000004,-4.62465658489158
461,/title/tt2194499/,,"St. Michael Penkivel, Cornwall, England, UK",(Church),,,
462,/title/tt2194499/,,"Lincoln's Inn Fields, Holborn, London, England, UK",(Tim trains as a lawyer),"Lincoln's Inn Fields, Gray's Inn, Holborn, London Borough of Camden, London, Greater London, England, WC2, United Kingdom",51.5162019,-0.11659812249398233
463,/title/tt2194499/,,"1 Newburgh Street, Soho, London, England, UK",(Restaurant),"The Ugly Dumplings, 1, Newburgh Street, Soho, City of Westminster, London, Greater London, England, W1F 7RB, United Kingdom",51.513363600000005,-0.13837874625756738
464,/title/tt7587890/,,"Los Angeles, California, USA",,"Los Angeles, Los Angeles County, California, United States of America",34.0536909,-118.2427666
465,/title/tt0102057/,,"Kaua'i, Hawaii, USA",(Neverland exteriors),"Kauaʻi, Kauaʻi County, Hawaii, United States of America",22.050466550000003,-159.55876775017003
466,/title/tt0102057/,,"Culver Studios - 9336 W. Washington Blvd., Culver City, California, USA",(studio),,,
467,/title/tt0102057/,,"Ballroom, Park Plaza Hotel - 607 S. Park View Street, Los Angeles, California, USA",(Great Ormond Street banquet),,,
468,/title/tt0102057/,,"Los Angeles, California, USA",,"Los Angeles, Los Angeles County, California, United States of America",34.0536909,-118.2427666
469,/title/tt0102057/,,"Stage 12, Sony Pictures Studios - 10202 W. Washington Blvd., Culver City, California, USA",(exterior of Nevertree),,,
470,/title/tt0102057/,,"Stage 30, Sony Pictures Studios - 10202 W. Washington Blvd., Culver City, California, USA",(Lost Boys playground),,,
471,/title/tt0102057/,,USA,,United States,39.7837304,-100.4458825
472,/title/tt10584608/,,"Duluth, Georgia, USA",,"Duluth, Gwinnett County, Georgia, 30095, United States of America",34.0028569,-84.1441046
473,/title/tt10584608/,,"Forsyth County, Georgia, USA",,"Forsyth County, Georgia, United States of America",34.235309,-84.1335644
474,/title/tt10584608/,,"Doraville, Georgia, USA",,"Doraville, DeKalb County, Georgia, United States of America",33.8981579,-84.2832564
475,/title/tt0099785/,,"656 Lincoln Avenue, Winnetka, Illinois, USA",(Mitch Murphy's house),"656, Lincoln Avenue, Lake View, Winnetka, New Trier Township, Cook County, Illinois, 60093, United States of America",42.10907789732686,-87.73350336798259
476,/title/tt0099785/,,"Trinity Methodist Church - 1024 W. Lake Avenue, Wilmette, Illinois, USA",,,,
477,/title/tt0099785/,,"Hubbard Woods Metra Station - 1065 Gage Street, Winnetka, Illinois, USA",(railroad track bridge scene),,,
478,/title/tt0099785/,,"Grand Food Center - 606 Green Bay Rd., Winnetka, Illinois, USA",,"The Grand Food Center, 606, Green Bay Road, Hubbard Woods, Winnetka, New Trier Township, Cook County, Illinois, 60093, United States of America",42.107993449999995,-87.73588881841029
479,/title/tt0099785/,,"Winnetka, Illinois, USA",,"Winnetka, New Trier Township, Cook County, Illinois, 60043, United States of America",42.1080703,-87.7365286
480,/title/tt0099785/,,"Grace Episcopal Church - 924 Lake Street, Oak Park, Illinois, USA",,"Grace Episcopal Church, Lake Street, Samuel A Rothermel Houses, Oak Park, Cook County, Illinois, 60301, United States of America",41.889253,-87.79869585964678
481,/title/tt0099785/,,"Wilmette, Illinois, USA",,"Wilmette, New Trier Township, Cook County, Illinois, 60091, United States of America",42.0757315,-87.7193768
482,/title/tt0099785/,,"Paris, France",(archive footage),"Paris, Île-de-France, France métropolitaine, 75004, France",48.8566969,2.3514616
483,/title/tt0099785/,,USA,,United States,39.7837304,-100.4458825
484,/title/tt2216156/,,"Ripponden, Calderdale, West Yorkshire, England, UK",,"Ripponden, Calderdale, West Yorkshire, Yorkshire and the Humber, England, HX6, United Kingdom",53.6730133,-1.9425882
485,/title/tt2216156/,,"St John's Road, Atrincham, Greater Manchester, England, UK",(Celia's and Caroline's house in Harrogate),,,
486,/title/tt1358522/,,"New York City, New York, USA",,"New York, United States of America",40.7127281,-74.0060152
487,/title/tt0088847/,,"Glenbrook North High School - 2300 Shermer Road, Northbrook, Illinois, USA",(school interior),"Glenbrook North High School, 2300, Shermer Road, Northfield Township, Cook County, Illinois, 60062, United States of America",42.1112449,-87.8321867
488,/title/tt0088847/,,"Chicago, Illinois, USA",,"Chicago, Cook County, Illinois, United States of America",41.8755616,-87.6244212
489,/title/tt0088847/,,"Northbrook, Illinois, USA",,"Northbrook, Cook County, Illinois, 60062, United States of America",42.12753095,-87.8318855309532
490,/title/tt0088847/,,USA,,United States,39.7837304,-100.4458825
491,/title/tt0934814/,,"Los Angeles, California, USA",,"Los Angeles, Los Angeles County, California, United States of America",34.0536909,-118.2427666
492,/title/tt2557490/,,"Santa Fe, New Mexico, USA",(primary shooting location),"Santa Fe, Santa Fe County, New Mexico, United States of America",35.6869996,-105.9377997
493,/title/tt2557490/,,"Jemez Pueblo, New Mexico, USA","(Introduction of Anna, and Clinch's Gang)","Jemez Pueblo, Sandoval County, New Mexico, United States of America",35.606398,-106.73083769182949
494,/title/tt2557490/,,"Mexican Water, Arizona, USA",,"Mexican Water, Apache County, Arizona, United States of America",36.9669462,-109.6378902
495,/title/tt0092400/,,"Chicago, Illinois, USA",,"Chicago, Cook County, Illinois, United States of America",41.8755616,-87.6244212
496,/title/tt0092400/,,"Los Angeles, California, USA",,"Los Angeles, Los Angeles County, California, United States of America",34.0536909,-118.2427666
497,/title/tt0092400/,,"ABC Television Center - 4151 Prospect Avenue, Los Angeles, California, USA",(studio) (studio - seasons 1 and 2),,,
498,/title/tt1131734/,,"British Columbia, Canada",,"British Columbia, Canada",55.001251,-125.002441
499,/title/tt1131734/,,"Langley Secondary School, Langley, British Columbia, Canada",(school scenes),"Langley Secondary School, 56 Avenue, Murrayville, Township of Langley, Metro Vancouver Regional District, British Columbia, V3A 4H1, Canada",49.105526999999995,-122.6303793831947
500,/title/tt1131734/,,"North Shore Studios, North Vancouver, British Columbia, Canada",(studio),,,
501,/title/tt1131734/,,"Riverview Hospital, Coquitlam, British Columbia, Canada",(interiors),,,
502,/title/tt1131734/,,"Surrey, British Columbia, Canada",,"Surrey, Metro Vancouver Regional District, British Columbia, Canada",49.1913033,-122.8491439
503,/title/tt1131734/,,"University Hill Secondary School, Vancouver, British Columbia, Canada",(school scenes),"University Hill Secondary School, 3250, East Mall, University of British Columbia, Electoral Area A, Metro Vancouver Regional District, British Columbia, V6S 0B4, Canada",49.2542564,-123.23876029359235
504,/title/tt1131734/,,"Minnesota, USA",,"Minnesota, United States of America",45.9896587,-94.6113288
505,/title/tt1131734/,,"North Surrey Secondary School - 15945 96 Avenue, Surrey, British Columbia, Canada",,,,
506,/title/tt7401588/,,"Chicago Illinois, USA",,"Chicago, Cook County, Illinois, United States of America",41.8755616,-87.6244212
507,/title/tt3896198/,,"Atlanta, Georgia, USA",,"Atlanta, Georgia, United States of America",33.7490987,-84.3901849
508,/title/tt3896198/,,"Fayetteville, Georgia, USA",,"Fayetteville, Fayette, Georgia, United States of America",33.4487257,-84.4549262
509,/title/tt3896198/,,USA,,United States,39.7837304,-100.4458825
510,/title/tt3896198/,,"5039 Memorial Drive, Stone Mountain, Georgia, USA",(Meredith and Ego at diner),"Memorial Drive, Stone Mill Run, DeKalb County, Georgia, 80083, United States of America",33.8109321,-84.1812349
511,/title/tt3609352/,,"Paramount Studios - 5555 Melrose Avenue, Hollywood, Los Angeles, California, USA",(studio),,,
512,/title/tt9054904/,,"Los Angeles, California, USA",,"Los Angeles, Los Angeles County, California, United States of America",34.0536909,-118.2427666
513,/title/tt3104988/,,"Penang, Malaysia",,"Pulau Pinang, Malaysia",5.4065013,100.2559077
514,/title/tt3104988/,,"The Raffles Hotel, 1 Beach Rd, Singapore",(Nick & Rachel's hotel accomodations),"Raffles Hotel, 1, Beach Road, Downtown Core, Singapore, Central, 189764, Singapore",1.2949410000000001,103.85430271441548
515,/title/tt3104988/,,"Convent of the Holy Infant Jesus Middle Education School, Caldwell House, Victoria Street, Central Singapore",(Colin & Araminta's wedding),,,
516,/title/tt3104988/,,"The St Regis Kuala Lumpur, No 6, Jalan Stesen Sentral 2, Kuala Lumpur, Malaysia",(Boutique setting for Astrid's entrance),"The St. Regis Kuala Lumpur, 6, Jalan Stesen Sentral 2, Brickfields, Kuala Lumpur, 50470, Malaysia",3.1368709,101.6886196
517,/title/tt3104988/,,"Chinatown, Bukit Pasoh Road, Singapore",(Peik Lin coaches Rachel to fight back against Eleanor),,,
518,/title/tt3104988/,,"Gardens by the Bay, 18 Marina Gardens Dr, Central Singapore",(Colin & Ariminta's wedding reception),"Gardens by the Bay, 18, Marina Gardens Drive, Marina South, Singapore, Central, 18953, Singapore",1.2793092000000001,103.8680427232139
519,/title/tt3104988/,,"Belanda house, Kuala Lumpur, Malaysia","(Eleanor's Malaysian tropical villa, Bible study group location)",,,
520,/title/tt3104988/,,"International Exhibition & Convention Centre, Jalan Dulang, Mines Resort City, Selangor, Malaysia","(Container ship deck dance club, Bernard Tai's bachelor party for Colin Khoo)",,,
521,/title/tt6911608/,,Croatia,,Hrvatska,45.5643442,17.0118954
522,/title/tt6911608/,,"Church of St. Jeronim, Vis Island, Croatia",,,,
523,/title/tt6911608/,,"New College, New College Lane, Oxford, Oxfordshire, England, UK",(Graduation scenes),,,
524,/title/tt6911608/,,"Wytham, Oxfordshire, England, UK",(Cycling),"Wytham, Oxfordshire, South East, England, OX2 8QP, United Kingdom",51.7748176,-1.3116013
525,/title/tt6911608/,,"Queen's Lane, Oxford, Oxfordshire, England, UK",(young Donna leaves for the airport),"Queens Lane, St Ebbes, City Centre, Oxford, Oxfordshire, South East, England, OX1 3SU, United Kingdom",51.7541641,-1.2525439
526,/title/tt6911608/,,"Southborough House, Surbiton, England, UK",(Paris Hotel Lobby),"Southborough Road, Oakhill, Surbiton, Royal Borough of Kingston upon Thames, London, Greater London, England, KT6 6RE, United Kingdom",51.3834097,-0.302258
527,/title/tt6911608/,,"Sandown Park Racecourse, Esher, Surrey, England, UK",(Heathrow Airport),"Sandown Park Racecourse, More Lane, Lower Green Esher, Elmbridge, Surrey, South East, England, KT10 8HA, United Kingdom",51.3770513,-0.3635511
528,/title/tt4649466/,,"Courmayeur, Aosta, Valle d'Aosta, Italy",(snow sequence) (Skyway rope),"Courmayeur, Valle d'Aosta/Vallée d'Aoste, 11013, Italia",45.7874248,6.9730618
529,/title/tt4649466/,,"Chapel, Old Royal Naval College, Greenwich, London, England, UK",(Eggsy and Tilde's Wedding),"Old Royal Naval College, Park Row, East Greenwich, Royal Borough of Greenwich, London, Greater London, England, SE10 9NL, United Kingdom",51.4829661,-0.006257671681354558
530,/title/tt4649466/,,"(Victoria Square, Colmore Row, Birmingham, England, UK",,,,
531,/title/tt4649466/,,"Berry Brothers and Rudd - 3 St. James's Street, London, England, UK",(New Kingsman headquarters),,,
532,/title/tt4649466/,,"Central Middlesex Hospital, Acton, London, England, UK",,"Central Middlesex Hospital, Acton Lane, Park Royal, London Borough of Ealing, London, Greater London, England, NW10 7NS, United Kingdom",51.53129905,-0.2677995527145506
533,/title/tt4649466/,,"11 Savile Row, London, England, UK",(Original Kingsman headquarters),"11, Savile Row, St. James's, Mayfair, City of Westminster, London, Greater London, England, W1S 3PF, United Kingdom",51.5109328,-0.14003461408205933
534,/title/tt4649466/,,UK,,United Kingdom,54.7023545,-3.2765753
535,/title/tt4649466/,,"Backlot, Pinewood Studios, Iver Heath, Buckinghamshire, England, UK",(studio),,,
536,/title/tt4649466/,,"Longcross Studios, Chobham Lane, Longcross, Surrey, England, UK",(studio),,,
537,/title/tt9214832/,,"Leith Hill, Dorking, Surrey, England, UK",(Box Hill picnic),"Leith Hill Tower, Leith Hill Lane, Wotton, Mole Valley, Surrey, South East, England, RH5 6LY, United Kingdom",51.1763433,-0.3711721
538,/title/tt9214832/,,"Firle Place, Lewes BN8 6LP, UK","(Hartfield, Mr. Woodhouse's home)","Firle Place, Lane Wall, Firle, Lewes, East Sussex, South East, England, BN8 6NP, United Kingdom",50.84493775,0.09133006192724352
539,/title/tt9214832/,,"Ramster Hall, Chiddingfold, Godalming, England, UK",(the ball at the Crown Inn),,,
540,/title/tt9214832/,,"Kingston Bagpuize House, Kingston Bagpuize, Abingdon, Oxfordshire, England, UK",(Mrs. Goddard's school),,,
541,/title/tt0104694/,,"Evansville, Indiana, USA",,"Evansville, Vanderburgh County, Indiana, United States of America",37.9747645,-87.5558483
542,/title/tt0104694/,,"Wrigley Field - 1060 W. Addison St., Lake View, Chicago, Illinois, USA",,"Wrigley Field, 1060, West Addison Street, Lake View, Lakeview, Chicago, Cook County, Illinois, 60613, United States of America",41.9481225,-87.6563513145702
543,/title/tt0104694/,,"Illinois Railway Museum - 7000 Olson Rd., Union, Illinois, USA",(Nebraska Zephyr train scenes),,,
544,/title/tt0104694/,,"Cooperstown, New York, USA",,"Cooperstown, Town of Otsego, Otsego County, New York, 13326, United States of America",42.7006303,-74.924321
545,/title/tt0104694/,,"New Harmony, Indiana, USA",,"New Harmony, Posey County, Indiana, United States of America",38.129656,-87.9354109
546,/title/tt0104694/,,"Henderson, Kentucky, USA","(uncredited, rooming house)","Henderson, Henderson County, Kentucky, 42419, United States of America",37.8367513,-87.5907631
547,/title/tt0104694/,,"Fitzgerald's - 6615 West Roosevelt Road, Berwyn, Illinois, USA",(The Sud's Bucket),"Fitzgerald's, 6615, West Roosevelt Road, Berwyn, Cook County, Illinois, 60402, United States of America",41.8650687,-87.7899056
548,/title/tt0104694/,,"Dedeaux Field - 1021 Childs Way, University of Southern California, Los Angeles, California, USA",,,,
549,/title/tt3906732/,,"Dundas, Ontario, Canada",,"Dundas, Hopkins Survey, Hamilton, Golden Horseshoe, Ontario, L9H 1T5, Canada",43.2661904,-79.9546341
550,/title/tt3906732/,,"Pinewood Toronto Studios, Port Lands, Toronto, Ontario, Canada",,"Pinewood Toronto Studios, Munition Street, Toronto—Danforth, Old Toronto, Toronto, Golden Horseshoe, Ontario, M4M 3P2, Canada",43.6465663,-79.35106457413957
551,/title/tt3906732/,,"Cinespace Film Studios, Toronto, Ontario, Canada",,"Cinespace Film Studios, 777, Kipling Avenue, Etobicoke—Lakeshore, Etobicoke, Toronto, Golden Horseshoe, Ontario, M8Z 5G5, Canada",43.630009799999996,-79.52817339890174
552,/title/tt5027774/,,"Black Mountain, North Carolina, USA",(billboards on North Fork Left Fork Road),"Black Mountain, Buncombe County, North Carolina, 28711, United States of America",35.6178951,-82.3212302
553,/title/tt5027774/,,"Maggie Valley, North Carolina, USA",(Restaurant scene),"Maggie Valley, Haywood County, North Carolina, United States of America",35.5181575,-83.0976419
554,/title/tt5027774/,,"Cullowhee, North Carolina, USA",(Cullowhee Valley Elementary as Ebbing's High School),"Cullowhee, Jackson County, North Carolina, 28723, United States of America",35.3137739,-83.1765814
555,/title/tt5027774/,,"Clyde, North Carolina, USA",(hospital scenes at Haywood Regional Medical Center),"Clyde, Haywood County, North Carolina, United States of America",35.5334379,-82.910691
556,/title/tt5027774/,,USA,,United States,39.7837304,-100.4458825
557,/title/tt4925292/,,"410 El Camino Ave, Sacramento, California, USA",(Thrift Town store where Lady Bird and her mom shop),"410, El Camino Avenue, River Gardens, North Sacramento, Sacramento, Sacramento County, California, 95815, United States of America",38.611051897959186,-121.45708063265306
558,/title/tt4925292/,,"South Pasadena, California, USA",,"South Pasadena, Los Angeles County, California, 91030, United States of America",34.1133062,-118.1478291
559,/title/tt4925292/,,"Kaldi Coffee & Tea - 1019 El Centro St, South Pasadena, California, USA",(Coffee shop where Lady Bird works),,,
560,/title/tt4925292/,,"6701 Orion Avenue, Van Nuys, California, USA",(Lady Bird's house),,,
561,/title/tt4925292/,,"First Presbyterian Church, New York City, New York. USA",(Church where Lady Bird calls her mom),"First Presbyterian Church, 48, 5th Avenue, Greenwich Village, Manhattan Community Board 2, Manhattan, New York County, New York, 10011, United States of America",40.734494850000004,-73.99520422712013
562,/title/tt4925292/,,"New York, USA",,"New York, United States of America",40.7127281,-74.0060152
563,/title/tt4925292/,,"Sacramento, California, USA",(filmed on location),"Sacramento, Sacramento County, California, United States of America",38.5815719,-121.4943996
564,/title/tt4925292/,,"New York City, New York, USA",(filmed on location),"New York, United States of America",40.7127281,-74.0060152
565,/title/tt4925292/,,USA,,United States,39.7837304,-100.4458825
566,/title/tt5814534/,,"Los Angeles, California, USA",(20th Century Fox Animation),"Los Angeles, Los Angeles County, California, United States of America",34.0536909,-118.2427666
567,/title/tt5814534/,,"Sydney, New South Wales, Australia",(street scenes),"Sydney, New South Wales, Australia",-33.8548157,151.2164539
568,/title/tt0120791/,,"Coupeville, Whidbey Island, Washington, USA",,,,
569,/title/tt0120791/,,"4 Front St NW, Coupeville, Washington, USA",(Sally's store),,,
570,/title/tt0120791/,,"San Juan Island, San Juan Islands, Washington, USA",,,,
571,/title/tt0120791/,,"Shell Puget Sound Refinery, 8505 S Texas Rd, Anacortes, Washington, USA",(Jimmy urinating),,,
572,/title/tt0120791/,,"Washington, USA",,"Washington, District of Columbia, 20230, United States of America",38.8949924,-77.0365581
573,/title/tt4998212/,,"Los Angeles, California, USA",,"Los Angeles, Los Angeles County, California, United States of America",34.0536909,-118.2427666
574,/title/tt0362357/,,"London, England, UK",,"London, Greater London, England, United Kingdom",51.5073219,-0.1276474
575,/title/tt0083399/,,"Boston, Massachusetts, USA",(establishing shots),"Boston, Suffolk County, Massachusetts, United States of America",42.3602534,-71.0582912
576,/title/tt0083399/,,"13 Chestnut St, Boston, MA 02108, USA",(Frasier and Lilith Crane's Home),"13, Chestnut Street, Charles River Square, Beacon Hill, Boston, Suffolk County, Massachusetts, 02108, United States of America",42.357825000000005,-71.06681729118348
577,/title/tt10556022/,,"New Mexico, USA",,"New Mexico, United States of America",34.5708167,-105.993007
578,/title/tt0113041/,,"Grand Avenue & Arbor Street, Pasadena, California, USA",(woman in car intersection),,,
579,/title/tt0113041/,,"843 S. El Molino Avenue, Pasadena, California, USA",,"843, South El Molino Avenue, Oak Knoll, Pasadena, Los Angeles County, California, 91106, United States of America",34.131312,-118.13685127272727
580,/title/tt0113041/,,"Pasadena, California, USA",,"Pasadena, Los Angeles County, California, United States of America",34.1476452,-118.1444779
581,/title/tt1416765/,,"Mill Valley, California, USA",,"Mill Valley, Marin County, California, 94941, United States of America",37.9060368,-122.5449763
582,/title/tt1416765/,,"Chinatown, Los Angeles, California, USA",,"Chinatown, Los Angeles, Los Angeles County, California, 90012, United States of America",34.0638402,-118.2358676
583,/title/tt1416765/,,"Stage 44, Universal Studios - 100 Universal City Plaza, Universal City, California, USA",,,,
584,/title/tt1560220/,,"Jackson, Georgia",(Opening Scene),"Jackson County, Georgia, United States of America",34.1282559,-83.5753386
585,/title/tt5439796/,,"Clayton County, Georgia, USA",(Clayton County Landfill),"Clayton County, Georgia, United States of America",33.5204959,-84.3591713
586,/title/tt5439796/,,"Concord, North Carolina, USA",(Charlotte Motor Speedway),"Concord, Cabarrus County, North Carolina, United States of America",35.4093772,-80.5797416
587,/title/tt0087332/,,"Hook & Ladder Company #8 - 14 North Moore Street, Manhattan, New York City, New York, USA",(Ghostbusters headquarters exteriors),,,
588,/title/tt0087332/,,"Biltmore Hotel - 506 S. Grand Avenue, Downtown, Los Angeles, California, USA",(Sedgewick Hotel),,,
589,/title/tt0087332/,,"New York Public Library - Fifth Avenue & 42nd Street, Manhattan, New York City, New York, USA",(Library exterior and main floor),,,
590,/title/tt0087332/,,"Los Angeles Central Library - 630 W. Fifth Street, Downtown, Los Angeles, California, USA",(interiors: Library basement),,,
591,/title/tt0087332/,,"Stage 12, Warner Brothers Burbank Studios - 4000 Warner Boulevard, Burbank, California, USA",(studio),,,
592,/title/tt0087332/,,"Stage 16, Warner Brothers Burbank Studios - 4000 Warner Boulevard, Burbank, California, USA",(studio),,,
593,/title/tt0087332/,,"420 East 78th Street, New York, USA",(Town House),"420, East 78th Street, Upper East Side, Manhattan Community Board 8, Manhattan, New York County, New York, 10075, United States of America",40.771052850000004,-73.95215819050034
594,/title/tt0087332/,,"U.S. Customs House, New York City, New York, USA",,,,
595,/title/tt3553976/,,"Las Cruces, New Mexico, USA",(New Mexico Film Office),"Las Cruces, Doña Ana County, New Mexico, United States of America",32.3140354,-106.7798078
596,/title/tt3553976/,,"Sultan, Washington, USA",(Coastal Community Bank),"Sultan, Snohomish County, Washington, 98294, United States of America",47.862282,-121.8147315
597,/title/tt3553976/,,"Gold Bar, Washington, USA",(Gold Bar Elementary School),"Gold Bar, Snohomish County, Washington, United States of America",47.8540432,-121.6932029
598,/title/tt3553976/,,"St. Jude Thaddeus Catholic Church, Albuquerque, New Mexico, USA",(location),"Saint Jude Thaddeus Catholic Church, 5712, Paradise Boulevard Northwest, Albuquerque, Bernalillo County, New Mexico, 87114, United States of America",35.194741,-106.70764256616377
599,/title/tt3553976/,,"Kirkland, Washington, USA",(Hospital/ER scenes at Evergreenhealth hospital),"Kirkland, King County, Washington, United States of America",47.6859573,-122.1920249
600,/title/tt3553976/,,"O'Sullivan Sportsman Resort, Potholes Reservoir, Othello, Washington, USA",(RV park scene with girl),,,
601,/title/tt3553976/,,"Index, Washington, USA",(Index General Store),"Index, Snohomish County, Washington, United States of America",47.8208311,-121.5538914
602,/title/tt2278388/,,"Kraków, Malopolskie, Poland",(cemetery scene),"Kraków, województwo małopolskie, Polska",50.0619474,19.9368564
603,/title/tt2278388/,,"Hainewalde, Saxony, Germany",(castle Hainewalde),"Hainewalde, Großschönau-Hainewalde, Görlitz, Sachsen, Deutschland",50.9101231,14.7040523
604,/title/tt2278388/,,"Dresden, Saxony, Germany",,"Dresden, Sachsen, 01067, Deutschland",51.0493286,13.7381437
605,/title/tt2278388/,,"Sächsische Schweiz, Saxony, Germany",(wedding scene),"Sächsische Schweiz, Bad Schandau, Sächsische Schweiz-Osterzgebirge, Sachsen, Deutschland",50.92164735,14.140843951849806
606,/title/tt2278388/,,Poland,,Polska,52.215933,19.134422
607,/title/tt2278388/,,"Burg Kriebstein, Kriebstein, Saxony, Germany",(Prison Break scene),"Burg Kriebstein, 7, Kriebsteiner Straße, Ehrenberg, Kriebstein, Mittelsachsen, Sachsen, 09648, Deutschland",51.0425019,13.017595925406887
608,/title/tt3783958/,,"The Lighthouse Cafe - 30 Pier Ave, Hermosa Beach, California, USA",,,,
609,/title/tt3783958/,,"Angels Flight Railway - 351 S Hill St, Los Angeles, California, USA",(Mia & Sebastian ride the funicular railway),"Angels Flight, South Hill Street, Bunker Hill, Downtown, Los Angeles, Los Angeles County, California, 90071, United States of America",34.0511576,-118.2499232
610,/title/tt3783958/,,"Chateau Marmont - 8221 Sunset Blvd., Hollywood, Los Angeles, California, USA","(Exterior: Future Mia arrives home, driving)","Chateau Marmont, 8221, West Sunset Boulevard, Sunset Strip, Hollywood Hills West, West Hollywood, Los Angeles County, California, 90046, United States of America",34.098249749999994,-118.36840487975618
611,/title/tt3783958/,,"Century Freeway I-105/Harbor Freeway I-110 Interchange, South Los Angeles, Los Angeles, California, USA",(opening number),,,
612,/title/tt3783958/,,"Colorado Street Bridge, Pasadena, California, USA",(Mia & Sebastian walk along bridge sidewalk),"Colorado Street Bridge, Colorado Boulevard, Pasadena, Los Angeles County, California, 91123, United States of America",34.1445005,-118.1652411
613,/title/tt3783958/,,"Mount Hollywood Dr, Los Angeles, California, USA","(""Lovely Night"" Dance at Sunset)","Mount Hollywood Drive, Griffith Park, Los Angeles, Los Angeles County, California, 90068, United States of America",34.1380076,-118.3050561
614,/title/tt3783958/,,"Vine St, Los Angeles, California, USA",(1900 Vine St; Mia walks down road after losing her car),"Vine Street, Whitley Heights Historic District, Hollywood, Los Angeles, Los Angeles County, California, 90028, United States of America",34.102698,-118.3267072
615,/title/tt3783958/,,"Grand Central Market - 317 S. Broadway, Downtown, Los Angeles, California, USA",(Mia & Sebastian eat at a bar-style restaurant),"Grand Central Market, 315, South Broadway, Historic Core District, Downtown, Los Angeles, Los Angeles County, California, 90013, United States of America",34.050924949999995,-118.2489634996624
616,/title/tt3783958/,,"Bernard St, Chinatown, Los Angeles, California, USA",(Mia calls Sebastian and leaves a voicemail),"Bernard Street, Elysian Park, Chinatown, Los Angeles, Los Angeles County, California, 90012, United States of America",34.0679288,-118.2404463
617,/title/tt3783958/,,"4403 W. Magnolia Blvd, Burbank, California, USA","(""Van Beek Tapas and Tunes"")","West Magnolia Boulevard, McNeil, Burbank, Los Angeles County, California, 91505, United States of America",34.1686563,-118.3446849
618,/title/tt3783958/,,"6202 Santa Monica Blvd, Los Angeles, California, USA",(Seb's - exterior),"Santa Monica Boulevard, East Hollywood, Los Angeles, Los Angeles County, California, 90029-1831, United States of America",34.0908737,-118.2892189
619,/title/tt3783958/,,"Warner Brothers Burbank Studios - 4000 Warner Boulevard, Burbank, California, USA",(studio) (exteriors on studio backlot),,,
620,/title/tt3783958/,,"Jar, 8225 Beverly Blvd, Los Angeles, California, USA",(restaurant scene),,,
621,/title/tt3783958/,,"Langham Apartments, Normandy, Koreatown, Los Angeles, California, USA",(interior of Mia's apartment),,,
622,/title/tt3783958/,,"8404 Willis Ave, Panorama City, Los Angeles, California, USA",(Sebastian's apartment),"8404, Willis Avenue, Panorama City, Los Angeles, Los Angeles County, California, 91402, United States of America",34.22343717241379,-118.45518910344828
623,/title/tt3783958/,,"Hayworth Theatre, 2511 Wilshire Blvd, Los Angeles, California, USA",(Del Rio Theater - interior),,,
624,/title/tt3783958/,,"Los Angeles, California, USA",,"Los Angeles, Los Angeles County, California, United States of America",34.0536909,-118.2427666
625,/title/tt3783958/,,"16210 Dorilee Ln, Encino, California, USA",(1980s pool party),,,
626,/title/tt3783958/,,"25851 Mendoza Dr, Santa Clarita, California, USA",(Mia's parent's Boulder City home),"25851, Mendoza Drive, Pardee, Santa Clarita, Los Angeles County, California, 91355, United States of America",34.40745823236756,-118.54656918441903
627,/title/tt3783958/,,"Willis Avenue, Panorama City, Los Angeles, California, USA",(exterior of Sebastian's apartment),"Willis Avenue, Panorama City, Los Angeles, Los Angeles County, California, 91402, United States of America",34.2152059,-118.4553009
628,/title/tt3783958/,,USA,,United States,39.7837304,-100.4458825
629,/title/tt7772602/,,"Ontario, Canada",,"Ontario, Canada",50.000678,-86.000977
630,/title/tt7772602/,,"Chicago Illinois, USA",,"Chicago, Cook County, Illinois, United States of America",41.8755616,-87.6244212
631,/title/tt1250777/,,"London, England, UK",,"London, Greater London, England, United Kingdom",51.5073219,-0.1276474
632,/title/tt1250777/,,"Cinespace Film Studios, Toronto, Ontario, Canada",(studio),"Cinespace Film Studios, 777, Kipling Avenue, Etobicoke—Lakeshore, Etobicoke, Toronto, Golden Horseshoe, Ontario, M8Z 5G5, Canada",43.630009799999996,-79.52817339890174
633,/title/tt1250777/,,"Dip 'n Sip Donuts - 663 Kingston Road, Toronto, Ontario, Canada",,,,
634,/title/tt1250777/,,"Charles Street, Hamilton, Ontario, Canada",,"Charles Street, Durand, Hamilton, Golden Horseshoe, Ontario, L8P 3C2, Canada",43.2541403,-79.8729924
635,/title/tt1250777/,,"Capri Pizza, John St. North, Hamilton, Ontario, Canada",(Dave gets beat up in the ally),,,
636,/title/tt1250777/,,"All Star Lanes, Whiteleys Shopping Centre, Bayswater, London, England, UK",,,,
637,/title/tt1245526/,,"Cambridge, Ontario, Canada",,"Cambridge, Region of Waterloo, Southwestern Ontario, Ontario, N1R 1T7, Canada",43.3600536,-80.3123023
638,/title/tt1245526/,,"Cruickston Park, Cambridge, Ontario, Canada","(as Alexander Dunning's mansion, exterior)",,,
