,Code,Show Name,Location,Scene,geocodedLocation,latitude,longitude
0,/title/tt7846844/,,"Minley manor, Minley Rd, Fleet GU17 9JT, United Kingdom",(Mrs Harrison's finishing school),,,
1,/title/tt7846844/,,"Maughan Library, King's College London, Chancery Lane, Holborn, London, England, UK",(The exterior of the Houses of Parliament),,,
2,/title/tt7846844/,,"Severn Valley Railway Station, Kidderminster, Station Dr, Kidderminster DY10 1QX, United Kingdom",(Railway Station when Enola runs away from home),,,
3,/title/tt7846844/,,"Benthall Hall, The Avenue, Broseley, TF12 5RX, UK",(Exterior of Ferndell),,,
4,/title/tt7846844/,,"Fournier Street, Spitalfields, London, England, UK",,"Fournier Street, Spitalfields, Whitechapel, London Borough of Tower Hamlets, London, Greater London, England, E1 6QG, United Kingdom",51.5192431,-0.0744826
5,/title/tt7846844/,,"Ashridge, Hertfordshire, England, UK",(Tree house and woods),"Ashridge, Dacorum, Hertfordshire, East of England, England, HP4 1LU, United Kingdom",51.8062413,-0.5806941
6,/title/tt8111088/,,"MBS Media Campus - 1600 Rosecrans Avenue, Manhattan Beach, California, USA",(studio),,,
7,/title/tt8111088/,,"Los Angeles, California, USA",,"Los Angeles, Los Angeles County, California, United States of America",34.0536909,-118.2427666
8,/title/tt0944947/,,"Vrsno, Sibenik, Croatia",,"Vrsno, Grad Šibenik, Šibensko-kninska županija, Hrvatska",43.6282207,16.0537446
9,/title/tt0944947/,,"Marrakech, Morocco",,"Marrakech ⵎⵕⵕⴰⴽⵛ مراكش, Pachalik de Marrakech, Préfecture de Marrakech عمالة مراكش, Marrakech-Safi ⵎⵕⵕⴰⴽⵛ-ⴰⵙⴼⵉ مراكش-أسفي, 40034, Maroc",31.6258257,-7.9891608
10,/title/tt0944947/,,"Atlas Corporation Studios, Ouarzazate, Morocco","(studio) (CLA Studios, Ouarzazate, Morocco)",,,
11,/title/tt0944947/,,Iceland,,Ísland,64.9841821,-18.1059013
12,/title/tt0944947/,,"Mdina, Malta",,"Mdina, Labini, Rabat, Ir-Rabat, Tramuntana, RBT 1202, Malta",35.8858588,14.40273861581985
13,/title/tt0944947/,,"Castle Ward, Strangford, County Down, Northern Ireland, UK",(Winterfell),"Castle Ward, Ballyculter Avenue, Castleward, Strangford, County Down, Northern Ireland, BT30 7LS, United Kingdom",54.37296875,-5.578774700849649
14,/title/tt0944947/,,"Magheramorne Quarry, Larne, County Antrim, Northern Ireland, UK",,,,
15,/title/tt0944947/,,"Dwejra, Gozo Island, Malta",,"collapsed Azure Window, Triq Wied Merill, San Lawrenz, Għawdex, GRB 1506, Malta",36.0535616,14.1882582
16,/title/tt0944947/,,"Shane's Castle, County Antrim, Northern Ireland, UK",,"Shane's Castle, Castle Road, Shanes's Castle, Antrim, County Antrim, Northern Ireland, BT41 4LZ, United Kingdom",54.7274716,-6.2678393075051275
17,/title/tt0944947/,,"Tollymore Forest Park, Bryansford, County Down, Northern Ireland, UK",,"Tollymore Forest Park, Tollymore Park, Bryansford, County Down, Northern Ireland, United Kingdom",54.2185591,-5.947888546573736
18,/title/tt0944947/,,"Volcano, Skaftafell National Park, Iceland",,,,
19,/title/tt0944947/,,"Gerona, Catalonia, Spain",(City of Braavos),"Girona, Gironès, Girona, Catalunya, España",41.9793006,2.8199439
20,/title/tt0944947/,,"Castle of Zafra, Guadalajara, Castilla-La Mancha, Spain",(Tower of Joy),"Castillo de Zafra, N-211, Castellar de la Muela, Guadalajara, Castilla-La Mancha, España",40.8350795,-1.7062882414440443
21,/title/tt0944947/,,"Sierra de la Alhamilla, Almeria, Andalucia, Spain",(Outskirts of Vaes Dothrak exterior scenes),"Paraje Natural de Sierra Alhamilla, Almería, Andalucía, España",37.0029343,-2.337104636268122
22,/title/tt0944947/,,"Tower of Mesa Roldan, Carboneras, Almeria, Spain",(Peak of Meereen),,,
23,/title/tt0944947/,,"San Juan de Gaztelugatxe, Bermeo, Vizcaya, País Vasco, Spain",(Dragonstone exterior scenes),"San Juan de Gaztelugatxe, Bermeo, Bizkaia, Euskadi, 48130, España",43.4471192,-2.7846899
24,/title/tt0944947/,,"Trujillo, Cáceres, Extremadura, Spain",(Casterly Rock),"Trujillo, Cáceres, Extremadura, 10200, España",39.4605118,-5.8812406
25,/title/tt0944947/,,"Osuna, Sevilla, Andalucía, Spain",(Fighting pit of Meereen),"Osuna, Sevilla, Andalucía, 41640, España",37.2373532,-5.1033306
26,/title/tt0944947/,,"Cáceres, Cáceres, Extremadura, Spain",,"Cáceres, Extremadura, España",39.4745175,-6.3716761
27,/title/tt0944947/,,"Zumaia, Guipúzcoa, País Vasco, Spain",(Dragonstone beach exterior scenes),"Zumaia, Urola-Kosta, Gipuzkoa, Euskadi, 20750, España",43.296653,-2.2571182
28,/title/tt0944947/,,"Wolf Hill Quarry, Belfast, County Antrim, Northern Ireland, UK",(Frozen lake beyond the wall scenes),,,
29,/title/tt0944947/,,"Kastilac Fort, Kastel Gomilica, Kastela, Croatia",,,,
30,/title/tt0944947/,,"Reales Atarazanas de Sevilla, Sevilla, Sevilla, Andalucía, Spain",(Underground storage with skeletons of dragons in King's Landing),"Reales Atarazanas, Calle Temprado, El Arenal, Casco Antiguo, Sevilla, Andalucía, 41001, España",37.384705,-5.995454014889108
31,/title/tt0944947/,,"Sierra de Caldereros, Guadalajara, Castilla-La Mancha, Spain",(Daenerys brings Jorah Mormont back together after the rescue of Vaes Dothrak),,,
32,/title/tt2306299/,,Ireland,,Éire / Ireland,52.865196,-7.9794599
33,/title/tt2306299/,,"Prince, Ontario, Canada",,"Prince Edward County, Central Ontario, Ontario, Canada",44.031827,-77.246933
34,/title/tt2306299/,,"Morroco, Africa",,,,
35,/title/tt2306299/,,Iceland,,Ísland,64.9841821,-18.1059013
36,/title/tt10324122/,,"Casa Loma, Toronto, ON, Canada",(building entrance shown at 1: 04),"Casa Loma, 1, Austin Terrace, Toronto—St. Paul's, Old Toronto, Toronto, Golden Horseshoe, Ontario, M5R 1X9, Canada",43.6781015,-79.409415775
37,/title/tt10324122/,,"University of Toronto Mississauga, 3359 Mississauga Rd, Mississauga, ON L5L 1C6, Canada",,,,
38,/title/tt10324122/,,"Prince's Gate, 11 Princes' Blvd, Toronto, ON M6K 3C3, Canada","(grand arch shown at 1: 15, fake electric sign covers inscription, building to right is fake)",,,
39,/title/tt1160419/,,"Abu Dhabi, United Arab Emirates",,"أبوظبي, أبو ظبي, United Arab Emirates",24.4747961,54.3705762
40,/title/tt1160419/,,Jordan,,الأردن,31.1667049,36.941628
41,/title/tt1160419/,,"Stadlandet, Norway",(the planet Caladan),"Stadlandet, Leikong, Stad, Vestland, Norge",62.1019744,5.3068003
42,/title/tt1160419/,,Hungary,,Magyarország,47.1817585,19.5060937
43,/title/tt1160419/,,Slovakia,,Slovensko,48.7411522,19.4528646
44,/title/tt4566758/,,"Kumeu Film Studios, 116 Access Road, Kumeu, Auckland, New Zealand",(studio),,,
45,/title/tt4566758/,,China,,中国,35.000074,104.999927
46,/title/tt5180504/,,"Budapest, Hungary",,"Budapest, Közép-Magyarország, 1011, Magyarország",47.4983815,19.0404707
47,/title/tt5180504/,,"El Paso, La Palma, Canary Islands, Spain",(filming location),"Calle El Paso, Urbanización la Palma, Aroba, Candelaria, Santa Cruz de Tenerife, Canarias, 38509, España",28.3535484,-16.3710369
48,/title/tt5180504/,,"Cuevas Blancas, Gran Canaria, Canary Islands, Spain",,,,
49,/title/tt5180504/,,"San Andrés y Sauces, La Palma, Canary Islands, Spain",(filming location),,,
50,/title/tt5180504/,,"New York City, New York, USA",,"New York, United States of America",40.7127281,-74.0060152
51,/title/tt5180504/,,"Garafía, La Palma, Canary Islands, Spain",(filming location),,,
52,/title/tt5180504/,,"Agaete, Gran Canaria, Canary Islands, Spain",,"Calle de Agaete, La Atalaya, Las Palmas, Canarias, 35450, España",28.1511569,-15.6336852
53,/title/tt5180504/,,"Vajdahunyad castle, Budapest, Hungary",,"Vajdahunyad vára, Vázsonyi Vilmos sétány, Városliget, Budapest, Közép-Magyarország, 1146, Magyarország",47.5153549,19.0818753
54,/title/tt1843230/,,"Fort Langley Community Hall, Fort Langley, Langley Township, British Columbia, Canada",(Community Hall),"Fort Langley Community Hall, 9167, Glover Road, Fort Langley, Township of Langley, Metro Vancouver Regional District, British Columbia, V1M 2R9, Canada",49.1691359,-122.57987876348461
55,/title/tt1843230/,,"Richmond, British Columbia, Canada",,"Richmond, Metro Vancouver Regional District, British Columbia, V6Y, Canada",49.163168,-123.137414
56,/title/tt1843230/,,"New Westminster, British Columbia, Canada",(Hyperion Heights),"New Westminster, Metro Vancouver Regional District, British Columbia, Canada",49.2067726,-122.9108818
57,/title/tt2382320/,,"Faroe Islands, Føroyar",(small island),"Føroyar, Skálabotnur, Eysturoyar sýsla, 485, Føroyar/Færøerne",62.19850045,-6.817412433412175
58,/title/tt2382320/,,"Matera, Basilicata, Italy",(location),"Matera, Basilicata, Italia",40.447641899999994,16.47357384028852
59,/title/tt2382320/,,"Kalsoy, Faroe Islands",(location),"Kalsoy, Húsar, Norðoyar sýsla, 796, Føroyar/Færøerne",62.2981508,-6.742989818875409
60,/title/tt2382320/,,"Bari, Apulia, Italy",,"Bari, Puglia, Italia",41.1257843,16.8620293
61,/title/tt2382320/,,"Marina di Pisticci, Matera, Basilicata, Italy",(beach),"Marina di Pisticci, Pisticci, Matera, Basilicata, Italia",40.2966412,16.7824438
62,/title/tt2382320/,,"London, England, UK",,"London, Greater London, England, United Kingdom",51.5073219,-0.1276474
63,/title/tt2382320/,,"Pall Mall, St. James's, London, England, UK",,"Pall Mall, St. James's, Covent Garden, City of Westminster, London, Greater London, England, SW1Y 5AY, United Kingdom",51.5077509,-0.1309304
64,/title/tt2382320/,,"Highlands, Scotland, UK",,"Scottish Highlands, Highland, Scotland, United Kingdom",56.8,-5.0
65,/title/tt2382320/,,"Piazza San Pietro Caveoso, Matera, Basilicata, Italy",,"Piazza San Pietro Caveoso, Sasso Caveoso, Rione Spine Bianche, Matera, Basilicata, 75100, Italia",40.6647426,16.6118988
66,/title/tt2382320/,,"Fv64 10, 6530 Averøy, Norway",,,,
67,/title/tt2382320/,,"Port Antonio, Jamaica",(location),"Port Antonio, Portland, Surrey County, +1876, Jamaika",18.1763606,-76.4459288
68,/title/tt2382320/,,"Åndalsnes, Rauma, Møre og Romsdal, Norway",(location),"Åndalsnes, Rauma, Møre og Romsdal, 6310, Norge",62.5678096,7.6891801
69,/title/tt2382320/,,"Whitehall, Westminster, London, England, UK",,"Whitehall, City of Westminster, London, Greater London, England, SW1A 2NH, United Kingdom",51.5023278,-0.1260826
70,/title/tt2382320/,,"Central London, London, England, UK",,"The Central, 150, Barking Road, Upton Park, London Borough of Newham, London, Greater London, England, E6 3BD, United Kingdom",51.5313615,0.0452445
71,/title/tt2382320/,,"Hammersmith Bridge, Hammersmith, London, England, UK",,"Hammersmith Bridge, Brook Green, London Borough of Hammersmith and Fulham, London, Greater London, England, W6 9XF, United Kingdom",51.4892421,-0.2293402
72,/title/tt2382320/,,"Harbour Street, Port Antonio, Jamaica",(environs) (alleyway),"Harbour Street, Folly, Spring Bank, Port Antonio, Portland, Surrey County, +1876, Jamaika",18.1795311,-76.451831
73,/title/tt2382320/,,"Portland, Jamaica",,"Portland, Surrey County, Jamaika",18.1253511,-76.53478198304708
74,/title/tt2382320/,,"Ardverikie Estate, Highland, Scotland, UK",,"Ardverikie Estate Office, A86, Kinloch Laggan, Highland, Scotland, PH20 1BY, United Kingdom",56.974626,-4.386000295682102
75,/title/tt2382320/,,"Salisbury Plain, Wiltshire, England, UK",,"Salisbury Plain Training Area, Wiltshire, South West England, England, SP3 4RT, United Kingdom",51.2486531,-1.893483044497956
76,/title/tt2382320/,,"Isle of Wight, England, UK",,"Isle of Wight, South East, England, United Kingdom",50.6710482,-1.3327111133199459
77,/title/tt2382320/,,Jamaica,,"Jamaica, Spanish Town, Saint Catherine, Middlesex County, Jamaika",18.1152958,-77.1598454610168
78,/title/tt2382320/,,"Scotland, UK",,"Scotland, United Kingdom",56.7861112,-4.1140518
79,/title/tt2382320/,,"Potenza, Basilicata, Italy",,"Potenza, Basilicata, Italia",40.5183188,15.820959951106293
80,/title/tt2382320/,,"Puglia, Italy",,"Puglia, Italia",40.9842539,16.6210027
81,/title/tt2382320/,,"Piazzetta Giovanni Pascoli, Matera, Basilicata, Italy",,,,
82,/title/tt2382320/,,"Viaduct Bridge, Acquedotto Madonna della Stella, Gravina in Puglia, Bari, Apulia, Italy",(location: bridge in motorbike chase),,,
83,/title/tt2382320/,,"Calata Domenico Ridola, Matera, Basilicata, Italy",,"Calata Domenico Ridola, Sasso Caveoso, Rione Spine Bianche, Matera, Basilicata, 75100, Italia",40.663237,16.6106582
84,/title/tt2382320/,,"Kingston, Jamaica",,"Kingston, Surrey County, KINGSTON 14, Jamaika",17.9712148,-76.7928128
85,/title/tt2382320/,,"Ardverikie House, Ardverikie Estate, Highland, Scotland, UK",,,,
86,/title/tt2382320/,,"Loch Laggan, Newtonmore, Highland, Scotland, UK",,,,
87,/title/tt2382320/,,"Newtonmore, Highland, Scotland, UK",,"Newtonmore, Highland, Scotland, PH20 1DF, United Kingdom",57.0634084,-4.1238869
88,/title/tt9140560/,,"Los Angeles, California, USA",,"Los Angeles, Los Angeles County, California, United States of America",34.0536909,-118.2427666
89,/title/tt7713068/,,"Hawthorne Plaza - 12124 Hawthorne Blvd., Hawthorne, California, USA",(reshoots),"Hawthorne Plaza, Hawthorne Boulevard, Hawthorne, Los Angeles County, California, 90250, United States of America",33.91967925,-118.35166192995533
90,/title/tt7713068/,,"Corey Helford Gallery, 571 South Anderson Street, Los Angeles, California, USA",,,,
91,/title/tt7713068/,,"Warner Brothers Burbank Studios - 4000 Warner Boulevard, Burbank, California, USA",(studio),,,
92,/title/tt0241527/,,"Gloucester Cathedral, 12 College Green, Gloucester, Gloucestershire, England, UK",(Hogwarts School of Witchcraft and Wizardry: exterior scenes),,,
93,/title/tt0241527/,,"Australia House, Strand, London, England, UK",(Gringotts Bank: interior),"Australian High Commission, Strand, St Clement Danes, Covent Garden, City of Westminster, London, Greater London, England, WC2B 4LA, United Kingdom",51.5128944,-0.11558798861757774
94,/title/tt0241527/,,"King's Cross Station, King's Cross, London, England, UK",(Platform 9¾),"King's Cross Station, York Way, Pentonville, King's Cross, London Borough of Islington, London, Greater London, England, N1 9SJ, United Kingdom",51.5330741,-0.1224766
95,/title/tt0241527/,,"Lacock Abbey, Lacock, Wiltshire, England, UK",(Snape's classroom; Defense Against the Dark Arts classroom; mirror room),"Lacock Abbey, Hither Way, Lacock, Wiltshire, South West England, England, SN15 2LL, United Kingdom",51.414805799999996,-2.116884983623922
96,/title/tt0241527/,,"Pickering Railway Station, 12 Park Street, Pickering, North Yorkshire, England, UK",,"Pickering, Park Street, Pickering, Ryedale, North Yorkshire, Yorkshire and the Humber, England, YO18 7AJ, United Kingdom",54.2472695,-0.7784454
97,/title/tt0241527/,,"Durham Cathedral, The College, Durham, County Durham, England, UK",(Harry flies his owl),"Durham Cathedral Shop, The College, City of Durham, Durham, County Durham, North East England, England, DH1 3EQ, United Kingdom",54.7731923,-1.5773052
98,/title/tt0241527/,,"Christ Church College, St Aldate's, Oxford, Oxfordshire, England, UK",(staircase leading to Great Hall),,,
99,/title/tt0241527/,,"St. Pancras Station, St. Pancras, London, England, UK",(exterior of King's Cross Station),"Boots, Pancras Road, London Borough of Camden, London, Greater London, England, N1C 4QL, United Kingdom",51.5327386,-0.1264236
100,/title/tt0241527/,,"Harrow School, Harrow, Middlesex, England, UK","(""Wingardium Leviosa"" scene)",,,
101,/title/tt0241527/,,"London Zoo, Regent's Park, London, England, UK",(Harry releases the snake from the Reptile House),,,
102,/title/tt0241527/,,"Ashridge, Hertfordshire, England, UK",,"Ashridge, Dacorum, Hertfordshire, East of England, England, HP4 1LU, United Kingdom",51.8062413,-0.5806941
103,/title/tt0241527/,,"C Stage, Leavesden Studios, Leavesden, Hertfordshire, England, UK",(Dudley falls into snake tank; Potter House at Godric's Hollow interior; forbidden room on third floor),"C Stage, Essex Lane, Warner Bros. Studios Leavesden, Abbots Langley, Three Rivers, Hertfordshire, East of England, England, WD25 7LP, United Kingdom",51.6921033,-0.4211576813951589
104,/title/tt0241527/,,"Flight Shed, Leavesden Studios, Leavesden, Hertfordshire, England, UK",(Diagon Alley; Hagrid's hut interior; staircase underneath Devil's Snare; Key Room; Giant Chessboard; final battle),,,
105,/title/tt0241527/,,"B Stage, Leavesden Studios, Leavesden, Hertfordshire, England, UK",(Great Hall),,,
106,/title/tt0241527/,,"I Stage, Leavesden Studios, Leavesden, Hertfordshire, England, UK",(Quidditch scenes; partial),"C Stage, Essex Lane, Warner Bros. Studios Leavesden, Abbots Langley, Three Rivers, Hertfordshire, East of England, England, WD25 7LP, United Kingdom",51.6921033,-0.4211576813951589
107,/title/tt0241527/,,"York Railway Station, Station Road, York, North Yorkshire, England, UK",,"Duke of York, Station Road, Leeman Road, Bishophill, York, Yorkshire and the Humber, England, YO24 1AY, United Kingdom",53.9582318,-1.0924664
108,/title/tt0436992/,,"Millennium Stadium, Cardiff, Wales, UK",,"Principality Stadium, Fitzhamon Embankment, Riverside, Cardiff, Cymru / Wales, CF, United Kingdom",51.4782102,-3.182612680480002
109,/title/tt0436992/,,"Newport, Newport, Wales, UK",,"Newport, Queensway, Stow Hill, Newport, Gwent, Cymru / Wales, NP20 4AX, United Kingdom",51.5887675,-3.000425
110,/title/tt0436992/,,"Ragley Hall, Alcester, Warwickshire, England, UK",,"Ragley Hall, Park View, Arrow with Weethley CP, Stratford-on-Avon, Warwickshire, England, B49 5PN, United Kingdom",52.2036147,-1.8854968
111,/title/tt0436992/,,"Westminster Bridge, Westminster, London, England, UK",,"Westminster Bridge, Westminster, City of Westminster, London, Greater London, England, SW1A 2JH, United Kingdom",51.5008995,-0.1227571
112,/title/tt0436992/,,"Gwinnutt Ltd, Cardiff, Wales, UK",,,,
113,/title/tt0436992/,,"Black Hangar Studios, Alton GU34 5SR, United Kingdom",,,,
114,/title/tt5171438/,,"Toronto, Ontario, Canada",,"Toronto, Golden Horseshoe, Ontario, Canada",43.6534817,-79.3839347
115,/title/tt4154796/,,"Atlanta, Georgia, USA",,"Atlanta, Georgia, United States of America",33.7490987,-84.3901849
116,/title/tt4154796/,,"St Abbs, Eyemouth, TD14 5PL, UK",(Tønsberg/New Asgard),,,
117,/title/tt4154796/,,UK,,United Kingdom,54.7023545,-3.2765753
118,/title/tt4154796/,,"SANY America, 318 Cooper Circle, Peachtree City, Georgia, USA",(Avengers HQ interiors and exteriors),,,
119,/title/tt4154796/,,Japan,,日本,36.5748441,139.2394179
120,/title/tt0100944/,,"Bergen, Hordaland, Norway",,,,
121,/title/tt0100944/,,"Bray Studios, Bray, Berkshire, England, UK",,,,
122,/title/tt0100944/,,"Old Bergen Museum - Nyhavnsveien 4, Sandviken, Bergen, Hordaland, Norway",(Opening scenes),,,
123,/title/tt0100944/,,"Cookham Dean Primary School - Bigfrith Lane, Cookham, Berkshire, UK",(School),,,
124,/title/tt0100944/,,UK,,United Kingdom,54.7023545,-3.2765753
125,/title/tt0100944/,,Norway,,"Norge, Namsos, Trøndelag, Norge",64.5731537,11.52803643954819
126,/title/tt0411008/,,"Hawaii Film Studio - 18th Avenue & Diamond Head Road, Honolulu, O'ahu, Hawaii, USA",,,,
127,/title/tt0411008/,,"Honolulu Convention Centre, Honolulu, O'ahu, Hawaii, USA",,,,
128,/title/tt0411008/,,"Honolulu, O'ahu, Hawaii, USA",,,,
129,/title/tt0092455/,,"Laramie Street, Warner Brothers Burbank Studios - 4000 Warner Boulevard, Burbank, California, USA",,,,
130,/title/tt2364582/,,"California, USA",,"California, United States of America",36.7014631,-118.7559974
131,/title/tt2364582/,,"Culver City, California, USA",,"Culver City, Los Angeles County, California, United States of America",34.0211224,-118.3964665
132,/title/tt3107288/,,"Vancouver, British Columbia, Canada",,"Vancouver, Metro Vancouver Regional District, British Columbia, Canada",49.2608724,-123.1139529
133,/title/tt3107288/,,"Surrey, British Columbia, Canada",,"Surrey, Metro Vancouver Regional District, British Columbia, Canada",49.1913033,-122.8491439
134,/title/tt3107288/,,"Vancouver City Hall - 453 W 12th Ave, Vancouver, British Columbia, Canada","(Central City Police Department Main Headquarters, exterior shot)","Vancouver City Hall, West 12th Avenue, Mount Pleasant, Vancouver, Metro Vancouver Regional District, British Columbia, V5Z 3X0, Canada",49.260889000000006,-123.11395711738979
135,/title/tt2193021/,,"Squamish, British Columbia, Canada",(Lian Yu),"Squamish, Squamish-Lillooet Regional District, British Columbia, Canada",49.6980743,-123.1558612
136,/title/tt2193021/,,"Coquitlam, British Columbia, Canada",,"Coquitlam, Metro Vancouver Regional District, British Columbia, Canada",49.2842958,-122.793281
137,/title/tt0816692/,,"Calgary, Alberta, Canada",,"Calgary, Strathmore (town), Alberta, Canada",51.0534234,-114.0625892
138,/title/tt0816692/,,"Nanton, Alberta, Canada",,"Nanton, Town of Nanton, Alberta, T0L 1R0, Canada",50.3481989,-113.7702564
139,/title/tt0816692/,,"Westin Bonaventure Hotel & Suites - 404 S. Figueroa Street, Downtown, Los Angeles, California, USA",(interiors: space research center),,,
140,/title/tt0816692/,,"200 block of 24th St, Fort Macleod, Alberta, Canada",(exterior scenes: street in dust storm),,,
141,/title/tt0816692/,,"Sony Pictures Studios - 10202 W. Washington Blvd., Culver City, California, USA",(studio),,,
142,/title/tt0816692/,,"Torrance, California, USA",,"Torrance, Los Angeles County, California, United States of America",33.8358492,-118.3406288
143,/title/tt0816692/,,"Downtown, Los Angeles, California, USA",,"Downtown, Los Angeles, Los Angeles County, California, United States of America",34.0428494,-118.2476732
144,/title/tt0816692/,,"1525 Industrial St, Los Angeles, California, USA",,"1525, Industrial Street, Arts District, Downtown, Los Angeles, Los Angeles County, California, 90021, United States of America",34.03616886577181,-118.2380794295302
145,/title/tt0816692/,,"Alberta, Canada",,"Alberta, Canada",55.001251,-115.002136
146,/title/tt0816692/,,Canada,,Canada,61.0666922,-107.9917071
147,/title/tt0816692/,,"New York City, New York, USA",,"New York, United States of America",40.7127281,-74.0060152
148,/title/tt8416494/,,"Conyers, Georgia, USA",(house scene),"Conyers, Rockdale County, Georgia, 30013-2028, United States of America",33.6676103,-84.0176904
149,/title/tt1825683/,,"High Museum of Art - 1280 Peachtree Street, Atlanta, Georgia, USA","(Exterior and interior of ""Museum of Great Britain"")","High Museum of Art, 1280, Peachtree Street Northeast, Atlanta, Georgia, 30309, United States of America",33.78945245,-84.38623130831695
150,/title/tt1825683/,,"Stage 7, EUE Screen Gems Studios Atlanta, 175 Lakewood Way SW, Atlanta, GA 30315, United States",(craps table on first floor of casino),,,
151,/title/tt1825683/,,"Wheat Street Towers, 375 Auburn Avenue NE, Atlanta, Georgia, USA",(basketball court and Killmonger's childhood apartment),,,
152,/title/tt1825683/,,"Busan, South Korea",(filmed on location in),"부산, 대한민국",35.1799528,129.0752365
153,/title/tt1825683/,,"Gwangan Bridge, Busan, South Korea",,"광안대교, 광안대로, 수영구, 부산, 48060, 대한민국",35.145690099999996,129.1283872
154,/title/tt1825683/,,"Jagalchi Market, Busan, South Korea",,"Jalgachi Market, 자갈치해안로, 중구, 부산, 48982, 대한민국",35.0967974,129.0312173
155,/title/tt1825683/,,"Haeundae Gwajeong Bridge, Busan, South Korea",,,,
156,/title/tt1825683/,,"The north side of the Sajik Baseball Stadium, Busan, South Korea",,,,
157,/title/tt1825683/,,"EUE/Screen Gems Studios - 222 E. 44th Street, Manhattan, New York City, New York, USA",(studio),,,
158,/title/tt1825683/,,South Korea,,대한민국,36.638392,127.6961188
159,/title/tt1825683/,,USA,,United States,39.7837304,-100.4458825
160,/title/tt0087182/,,"Samalayuca, Chihuahua, Mexico",,"Samalayuca, Juárez, Chihuahua, México",31.3438489,-106.4783433
161,/title/tt0087182/,,"Zzyzx, California, USA",,"Zzyzx, San Bernardino County, California, United States of America",35.1427607,-116.1047353
162,/title/tt0087182/,,"Pinacate and Grand Desert of Altar, Sonora, Mexico",,,,
163,/title/tt0087182/,,"Altar, Sonora, Mexico",,"Altar, Sonora, México",31.09381305,-111.88979063990689
164,/title/tt0087182/,,"Arizona, USA",,"Arizona, United States of America",34.395342,-111.7632755
165,/title/tt0087182/,,USA,,United States,39.7837304,-100.4458825
166,/title/tt0087182/,,Mexico,,"Ciudad de México, 06060, México",19.4326296,-99.1331785
167,/title/tt1375666/,,"Fortress Mountain, Kananaskis Country, Alberta, Canada",,,,
168,/title/tt1375666/,,"Tokyo, Japan",,"東京都, 日本 (Japan)",35.6828387,139.7594549
169,/title/tt1375666/,,"Alberta, Canada",,"Alberta, Canada",55.001251,-115.002136
170,/title/tt1375666/,,"Spring Street, Downtown, Los Angeles, California, USA",,"Spring Street, El Pueblo, Downtown, Los Angeles, Los Angeles County, California, 90012, United States of America",34.0577025,-118.2400318
171,/title/tt1375666/,,"Kananaskis Village, Kananaskis Country, Alberta, Canada",,,,
172,/title/tt1375666/,,Morocco,,Maroc / ⵍⵎⵖⵔⵉⴱ / المغرب,31.1728205,-7.3362482
173,/title/tt1375666/,,"University College London, Bloomsbury, London, England, UK",,"University College London, University Street, Somers Town, London Borough of Camden, London, Greater London, England, WC1E 6DE, United Kingdom",51.52412645,-0.13293023735954784
174,/title/tt1375666/,,"Rancho Palos Verdes, California, USA",,"Rancho Palos Verdes, Los Angeles County, California, 90274, United States of America",33.7483311,-118.3707683
175,/title/tt1375666/,,"Bedfordshire, England, UK",,"Bedfordshire, Haynes, Central Bedfordshire, East of England, England, United Kingdom",52.064003400000004,-0.41111375560310925
176,/title/tt1375666/,,"Stage 16, Warner Brothers Burbank Studios - 4000 Warner Boulevard, Burbank, California, USA",(studio),,,
177,/title/tt1375666/,,"453 S Spring St, Los Angeles, California, USA",,"The Last Bookstore, 453, South Spring Street, Historic Core District, Downtown, Los Angeles, Los Angeles County, California, 90013, United States of America",34.0476682,-118.2497228
178,/title/tt1375666/,,"Leo Carrillo State Beach - 35000 W. Pacific Coast Highway, Malibu, California, USA",,,,
179,/title/tt1375666/,,"Paris 15, Paris, France",,"Paris, Île-de-France, France métropolitaine, 75004, France",48.8566969,2.3514616
180,/title/tt1375666/,,"New York City, New York, USA",,"New York, United States of America",40.7127281,-74.0060152
181,/title/tt1375666/,,"Los Angeles, California, USA",,"Los Angeles, Los Angeles County, California, United States of America",34.0536909,-118.2427666
182,/title/tt1375666/,,"Paris, France",,"Paris, Île-de-France, France métropolitaine, 75004, France",48.8566969,2.3514616
183,/title/tt1375666/,,"Ark Mori Building - 1-12-32, Akasaka, Minato, Tokyo, Japan",(rooftop heliport),,,
184,/title/tt6334354/,,"Georgia, USA",,"Georgia, United States of America",32.3293809,-83.1137366
185,/title/tt7556122/,,Morocco,(Kenya),Maroc / ⵍⵎⵖⵔⵉⴱ / المغرب,31.1728205,-7.3362482
186,/title/tt7556122/,,"Sandwich, Kent, England, UK",(French ville),"Sandwich, Kent, South East, England, CT13 9ED, United Kingdom",51.2752527,1.3408309
187,/title/tt7556122/,,"Watlington, UK",(on location),"Watlington, Oxfordshire, South East, England, OX49 5PS, United Kingdom",51.6451586,-1.0043458
188,/title/tt7556122/,,"Shirburn Castle, Watlington, Oxfordshire, England, UK",(Middle Ages scene),"Shirburn Castle, Castle Road, Shirburn, South Oxfordshire, Oxfordshire, South East, England, OX49 5DJ, United Kingdom",51.6583828,-0.9943401519552595
189,/title/tt7556122/,,"All Saints Church, Shirburn, Watlington, Oxfordshire, England, UK",(Abandoned church in the french town of Goussainville),"All Saints, Castle Road, Shirburn, South Oxfordshire, Oxfordshire, South East, England, OX49 5DJ, United Kingdom",51.6577147,-0.994520964376598
190,/title/tt4016454/,,"Los Angeles, California, USA",(Season 1),"Los Angeles, Los Angeles County, California, United States of America",34.0536909,-118.2427666
191,/title/tt4016454/,,"20146 100a Avenue, Langley, British Columbia, Canada",(studio),"20146, 100A Avenue, Walnut Grove, Township of Langley, Metro Vancouver Regional District, British Columbia, V1M 0B1, Canada",49.1840481,-122.66246142171815
192,/title/tt6450804/,,"Cartagena, Murcia, Spain",(Mexican town scenes),"Cartagena, Región de Murcia, España",37.6267868,-1.0006184
193,/title/tt6450804/,,"Murcia, Murcia, Spain",(Mexico road exterior scenes),"Murcia, Región de Murcia, España",37.9923795,-1.1305431
194,/title/tt6450804/,,"Madrid, Spain",,"Madrid, Área metropolitana de Madrid y Corredor del Henares, Comunidad de Madrid, 28001, España",40.4167047,-3.7035825
195,/title/tt6450804/,,Spain,,España,39.3262345,-4.8380649
196,/title/tt6450804/,,"Budapest Ferihegy International Airport, Budapest, Hungary",(location),"Budapest Liszt Ferenc Nemzetközi Repülőtér, Rákóczi Ferenc utca, Nagyhangács, Rákoshegy, XVII. kerület, Budapest, Közép-Magyarország, 1174, Magyarország",47.43527295,19.25351003145765
197,/title/tt6450804/,,"RM-16, 30156 Murcia, Spain",(Highway scene),"Acceso al Aeropuerto Internacional de la Región de Murcia, Pedanía de Valladolises y Lo Jurado, Murcia, Región de Murcia, España",37.836465,-1.107783
198,/title/tt6450804/,,"Aldeadávila de la Ribera, Salamanca, Castilla y León, Spain",(Dam scene),"Aldeadávila de la Ribera, Vitigudino, Castilla y León, España",41.2185533,-6.6197619
199,/title/tt6450804/,,"Sacedón, Guadalajara, Castilla-La Mancha, Spain",(Crossing river exterior scene),"Sacedón, Guadalajara, Castilla-La Mancha, 19120, España",40.481085,-2.732881
200,/title/tt6450804/,,"Villaseca de la Sagra, Toledo, Castilla-La Mancha, Spain",(Train station scene),"Villaseca de la Sagra, La Sagra, Toledo, Castilla-La Mancha, España",39.9623605,-3.8829959
201,/title/tt6450804/,,"Chicago, Illinois, USA",,"Chicago, Cook County, Illinois, United States of America",41.8755616,-87.6244212
202,/title/tt7126948/,,"Landmark Mall, Alexandria, Virginia, USA",,"Landmark Mall, Henry G. Shirley Memorial Highway, William Ramsay, Springfield, Alexandria, Virginia, 22312, United States of America",38.816246050000004,-77.13155304658272
203,/title/tt7126948/,,"Georgetown, Washington, District of Columbia, USA",(Commander Salamander),"Georgetown, Washington, District of Columbia, 20057, United States of America",38.90871335,-77.06534937613658
204,/title/tt7126948/,,"Canary Islands, Spain",,"Canarias, La Orotava, Santa Cruz de Tenerife, Canarias, España",28.2935785,-16.621447121144122
205,/title/tt7126948/,,USA,,United States,39.7837304,-100.4458825
206,/title/tt7126948/,,"La Alcazaba, Almería, Almería, Andalucia, Spain",(Themiscyra scenes),"La Alcazaba, Calle Sereno, La Chanca, Almedina, Almería, Andalucía, 04071, España",36.841286,-2.4723476
207,/title/tt7126948/,,"Almería, Spain",,"Almería, Andalucía, España",36.8414197,-2.4628135
208,/title/tt7126948/,,Spain,,España,39.3262345,-4.8380649
209,/title/tt0407362/,,"Pinecone Burke Provincial Park, British Columbia, Canada",(forests of Caprica and Kobol),"Pinecone Burke Provincial Park, Electoral Area A, Metro Vancouver Regional District, British Columbia, Canada",49.52000665,-122.66408471407357
210,/title/tt0407362/,,"Orpheum Theatre - 601 Smithe St, Vancouver, British Columbia, Canada",(Opera House),,,
211,/title/tt0407362/,,"Simon Fraser University, Burnaby, British Columbia, Canada",(Delphi Museum of the Colonies),"Simon Fraser University, University Crescent, Burnaby, Metro Vancouver Regional District, British Columbia, V5A 0A1, Canada",49.276709600000004,-122.91780296438841
212,/title/tt0407362/,,"Burnaby, British Columbia, Canada",,"Burnaby, Metro Vancouver Regional District, British Columbia, Canada",49.2433804,-122.9725459
213,/title/tt0407362/,,"Thompson-Nicola Region, British Columbia, Canada",,,,
214,/title/tt0407362/,,"Vancouver Film Studios, Vancouver, British Columbia, Canada",(studio),"Vancouver Film Studios, Renfrew-Collingwood, Vancouver, Metro Vancouver Regional District, British Columbia, Canada",49.2612189,-123.02658531247799
215,/title/tt3501632/,,"Village Roadshow Studios, Oxenford, Queensland, Australia",,"Village Roadshow Studios, Entertainment Road, Oxenford, Gold Coast City, Queensland, 4210, Australia",-27.910527700000003,153.3118145855983
216,/title/tt3501632/,,"Brisbane, Queensland, Australia",,"Brisbane City, Queensland, Australia",-27.4689682,153.0234991
217,/title/tt3501632/,,Australia,,Australia,-24.7761086,134.755
218,/title/tt0106145/,,"Paramount Studios - 5555 Melrose Avenue, Hollywood, Los Angeles, California, USA",,,,
219,/title/tt0053125/,,"Old Westbury Gardens - 71 Old Westbury Road, Old Westbury, Long Island, New York, USA",(The Townsend home),,,
220,/title/tt0053125/,,"Southern Pacific Railroad Tunnel between Santa Susana & Chatsworth, California, USA",(closing train shot),,,
221,/title/tt0053125/,,"Grand Central Station, Manhattan, New York City, New York, USA",,"Grand Central Terminal, 89, East 42nd Street, Midtown East, Manhattan Community Board 5, Manhattan, New York County, New York, 10017, United States of America",40.752701200000004,-73.97724987363358
222,/title/tt0053125/,,"Potrero Valley, Thousand Oaks, California, USA",(drunk driving scene),"Potrero Creek, Thousand Oaks, Ventura County, California, 91361, United States of America",34.1450524,-118.8351918
223,/title/tt0053125/,,"Old Westbury Gardens - 71 Old Westbury Road, Old Westbury, Long Island, New York, USA",,,,
224,/title/tt0053125/,,"Glen Cove, Long Island, New York, USA",,,,
225,/title/tt0053125/,,"Chicago, Illinois, USA",,"Chicago, Cook County, Illinois, United States of America",41.8755616,-87.6244212
226,/title/tt0053125/,,"Park Avenue, Manhattan, New York City, New York, USA",,"Park Avenue, Murray Hill, Manhattan Community Board 5, Manhattan, New York County, New York, 10037, United States of America",40.7509833,-73.9786564
227,/title/tt0053125/,,"650 Madison Avenue, New York City, New York, USA","(Opening credits & first scene, Thornhill's office building exterior)","650 Madison Avenue, 650, Madison Avenue, Upper East Side, Manhattan Community Board 8, Manhattan, New York County, New York, 10022, United States of America",40.763879700000004,-73.97161599331548
228,/title/tt0053125/,,"Manhattan, New York City, New York, USA",,"Manhattan, New York County, New York, United States of America",40.7896239,-73.9598939
229,/title/tt0053125/,,"Near North Side, Chicago, Illinois, USA",,"Near North Side, Chicago, Cook County, Illinois, United States of America",41.9000327,-87.6344975
230,/title/tt0088763/,,"Gamble House - 4 Westmoreland Place, Pasadena, California, USA",(Doc Emmett's house: exteriors),"The Gamble House, Westmoreland Place, Pasadena, Los Angeles County, California, 91105-1825, United States of America",34.15161875,-118.16095474532985
231,/title/tt0088763/,,"Walt Disney's Golden Oak Ranch - 19802 Placerita Canyon Road, Newhall, California, USA",(Marty arriving in 1955),,,
232,/title/tt0088763/,,"1727 Bushnell Avenue, South Pasadena, California, USA",(Lorraine's house),"1727, Bushnell Avenue, South Pasadena, Los Angeles County, California, 91030, United States of America",34.105706,-118.14152424760314
233,/title/tt0088763/,,"Courthouse Square, Backlot, Universal Studios - 100 Universal City Plaza, Universal City, California, USA",,,,
234,/title/tt0088763/,,"1809 Bushnell Avenue, South Pasadena, California, USA",(Biff Tannen's house),"1809, Bushnell Avenue, South Pasadena, Los Angeles County, California, 91030, United States of America",34.105185391827234,-118.14133128375025
235,/title/tt0088763/,,"Burger King - 535 North Victory Boulevard, Burbank, California, USA",(opening credits),"Burger King, 545, North Victory Boulevard, Burbank, Los Angeles County, California, 91502, United States of America",34.1793367,-118.31966921533424
236,/title/tt0088763/,,"McCambridge Recreation Center, 1515 N. Glenoaks Blvd., Burbank, California, USA",(Marty's band audition.),,,
237,/title/tt0088763/,,"Griffith Park - 4730 Crystal Springs Drive, Los Angeles, California, USA",,,,
238,/title/tt0088763/,,"Burbank Community Center, Burbank, California, USA",(Band Auditions),,,
239,/title/tt0088763/,,"Santa Clarita, California, USA",,"Santa Clarita, Los Angeles County, California, United States of America",34.3916641,-118.542586
240,/title/tt0088763/,,USA,,United States,39.7837304,-100.4458825
241,/title/tt0120737/,,"Hinuera Valley, Matamata, Waikato, New Zealand",(Hobbiton),"Hinuera, Matamata Piako District, Waikato, New Zealand",-37.8798977,175.7608705
242,/title/tt0120737/,,"Queenstown, Otago, New Zealand",(Ford of Bruinen) (River Anduin) (Amon Hen),"Queenstown, Queenstown-Lakes District, Otago, 9348, New Zealand",-45.0321923,168.661
243,/title/tt0120737/,,"Fernside, Featherston, Wairarapa, New Zealand",(Lothlorien),"Fernside, Featherston Community, South Wairarapa District, Wellington, 5710, New Zealand",-41.0885537,175.3505731
244,/title/tt0120737/,,"Rangipo Desert, Waiouru, Tongariro National Park, Central Plateau, New Zealand",,,,
245,/title/tt0120737/,,"Lake Wakatipu, Queenstown, Otago, New Zealand",(Amon Hen),"Lake Wakatipu, Queenstown-Lakes District, Otago, New Zealand",-45.08880415,168.52111077909876
246,/title/tt0120737/,,"Mavora Lakes, Southland, New Zealand",(Amon Hen),"Mavora Lakes Road, Southland District, Southland, New Zealand",-45.4564394,168.0797643
247,/title/tt0120737/,,"Canterbury, New Zealand",(Edoras),"Canterbury, New Zealand",-43.49417615,171.8098447584145
248,/title/tt0120737/,,"Harcourt Park, Upper Hutt, Wellington, New Zealand",(Gardens of Isengard),"Harcourt Park, Brown Owl, Upper Hutt, Upper Hutt City, Wellington, New Zealand",-41.10165085,175.09427325890724
249,/title/tt0120737/,,"Camperdown Studios, Camperdown Road, Miramar, Wellington, New Zealand",(studio),,,
250,/title/tt0120737/,,"South Island, New Zealand",(waterfalls scenes of Rivendell),"South Island / Te Waipounamu, Ashburton District, Canterbury, New Zealand",-43.586562,171.21232939964904
251,/title/tt0120737/,,"Paradise, Glenorchy, Otago, New Zealand",(Lothlorien) (Amon Hen),"Glenorchy, Queenstown-Lakes District, Otago, 9372, New Zealand",-44.8495067,168.3900502
252,/title/tt0120737/,,"Te Anau, Southland District, Southland, New Zealand",(the Fellowship's river journey),"Te Anau, Southland District, Southland, 9600, New Zealand",-45.41449,167.717489
253,/title/tt0120737/,,"Otaki Gorge Road, Kapiti Coast District, North Island, New Zealand",(the Shire woods),"Otaki Gorge Road, Te Horo, Otaki, Kapiti Coast District, Wellington, 5512, New Zealand",-40.7740414,175.1435323
254,/title/tt0120737/,,"Kepler Mire, Te Anau, South Island, New Zealand",(Dead Marshes),,,
255,/title/tt0120737/,,"Paradise, Glenorchy, Otago, New Zealand",(Parth Galen),"Glenorchy, Queenstown-Lakes District, Otago, 9372, New Zealand",-44.8495067,168.3900502
256,/title/tt0120737/,,"Fort Dorset, Miramar, Wellington, New Zealand",(Inn of the Prancing Pony's exteriors),,,
257,/title/tt0120737/,,"Whakapapa skifield, Mount Ruapehu, Tongariro National Park, New Zealand",(Mordor prologue scene),,,
258,/title/tt0120737/,,"Waitarere Forest, Horowhenua District, North Island, New Zealand",(Trollshaws),"Waitārere Forest, Waitarere, Horowhenua District, Manawatū-Whanganui, New Zealand",-40.5124433,175.22055518989308
259,/title/tt0120737/,,"Upper Waiau River, Fiordland National Park, South Island, New Zealand",(River Anduin),,,
260,/title/tt7975244/,,"Newnan, Georgia, USA",(street scenes),"Newnan, Coweta, Georgia, 30263, United States of America",33.3806716,-84.7996573
261,/title/tt7975244/,,"New Mexico, USA",,"New Mexico, United States of America",34.5708167,-105.993007
262,/title/tt7975244/,,"Georgia State University, Atlanta, Georgia, USA",,"Georgia State University, 33, Gilmer Street Southeast, Five Points, Atlanta, Georgia, 30303, United States of America",33.75360285,-84.38546024104502
263,/title/tt7975244/,,Canada,,Canada,61.0666922,-107.9917071
264,/title/tt7975244/,,"West Washington Street & Jackson Street - Newman, Georgia, USA",(Diner),,,
265,/title/tt7975244/,,USA,,United States,39.7837304,-100.4458825
266,/title/tt0279600/,,"University of British Columbia, Robson Square Campus - 800 Robson Street, Vancouver, British Columbia, Canada",,,,
267,/title/tt0279600/,,"Aldergrove, British Columbia, Canada",,"Aldergrove, Township of Langley, Metro Vancouver Regional District, British Columbia, V2Y 0Y7, Canada",49.0596635,-122.4922381
268,/title/tt0279600/,,"Cloverdale, Surrey, British Columbia, Canada",,"Cloverdale, Surrey, Metro Vancouver Regional District, British Columbia, Canada",49.1242883,-122.72942984609227
269,/title/tt0279600/,,"Merritt, British Columbia, Canada",(parade scene in pilot),"Merritt, Thompson-Nicola Regional District, British Columbia, V0K 2B0, Canada",50.111704,-120.7884227
270,/title/tt0279600/,,"Thompson-Nicola Region, British Columbia, Canada",,,,
271,/title/tt0279600/,,"Richmond, British Columbia, Canada",,"Richmond, Metro Vancouver Regional District, British Columbia, V6Y, Canada",49.163168,-123.137414
272,/title/tt1345836/,,"Wollaton Hall, Nottingham, Nottinghamshire, England, UK",(Wayne Manor),"Wollaton Hall, Lime Tree Avenue, Wollaton Park, Wollaton, East Midlands, England, NG8 2AE, United Kingdom",52.9479602,-1.209770975032371
273,/title/tt1345836/,,"Pittsburgh, Pennsylvania, USA",(Gotham City),"Pittsburgh, Allegheny County, Pennsylvania, United States of America",40.4416941,-79.9900861
274,/title/tt1345836/,,"Chand Baori, Abhaneri, Rajasthan, India",(Well Prison),"Chand Baori Step Well, MDR151, Nayagaon Bolka, Abhaneri, Baswa Tehsil, Dausa, Rajasthan, 303313, India",27.00726285,76.60664524943806
275,/title/tt1345836/,,"Osterley Park House, Isleworth, Middlesex, England, UK",(Wayne Manor),,,
276,/title/tt1345836/,,"Scotland, UK",(aerial shots: prologue),"Scotland, United Kingdom",56.7861112,-4.1140518
277,/title/tt1345836/,,"Downtown, Los Angeles, California, USA",,"Downtown, Los Angeles, Los Angeles County, California, United States of America",34.0428494,-118.2476732
278,/title/tt1345836/,,"Carnegie Mellon University - 5000 Forbes Avenue, Pittsburgh, Pennsylvania, USA",(Blackgate Prison),"Carnegie Mellon University, 5000, Forbes Avenue, Squirrel Hill North, Pittsburgh, Allegheny County, Pennsylvania, 15213, United States of America",40.4441619,-79.942728259225
279,/title/tt1345836/,,"Queensboro Bridge, Manhattan, New York City, New York, USA",,"Queensboro Bridge, West Road, Manhattan Community Board 8, Manhattan, New York County, New York, 10044, United States of America",40.75573455,-73.95189258066381
280,/title/tt1345836/,,"George Farmiloe Building - 28-36 St John Street, Clerkenwell, London, England, UK",(Gotham City Police Department),,,
281,/title/tt1345836/,,"The Farmiloe Building, 34 St John Street, London, England, UK","(Gotham City Police Department, Dive Bar, and Selina Kyle and Jen's Apartment)",,,
282,/title/tt1345836/,,"550 S Hope St, Los Angeles, California, USA",(Ninth floor boardroom was adapted to look like the Ludwig Mies van der Rohe boardroom from the previous film),"550, South Hope Street, Financial District, Downtown, Los Angeles, Los Angeles County, California, 90071, United States of America",34.04974214285714,-118.25593640816327
283,/title/tt1345836/,,"Cardington Airship Hangars, Bedfordshire, England, UK",(studio),,,
284,/title/tt1345836/,,"Nottingham, Nottinghamshire, England, UK",,"City of Nottingham, East Midlands, England, United Kingdom",52.9534193,-1.1496461
285,/title/tt1345836/,,"Senate House, University College London, Malet Street, Bloomsbury, London, England, UK",(costume ball),,,
286,/title/tt1345836/,,"London, England, UK",,"London, Greater London, England, United Kingdom",51.5073219,-0.1276474
287,/title/tt1345836/,,"Union Station - 800 N. Alameda Street, Downtown, Los Angeles, California, USA",(kangaroo court),,,
288,/title/tt1345836/,,"Sony Pictures Studios - 10202 W. Washington Blvd., Culver City, California, USA",(studio),,,
289,/title/tt7016936/,,Romania,,România,45.9852129,24.6859225
290,/title/tt7016936/,,"Southwark, London, England, UK",(Guy's Hospital),"Southwark, London Borough of Southwark, London, Greater London, England, SE1 0QB, United Kingdom",51.5029222,-0.103458
291,/title/tt7016936/,,"Haringey, London, England, UK","(Hornsey Town Hall - hotel lobby, restaurant, hotel bedroom miscellaneous scenes)","London Borough of Haringey, London, Greater London, England, United Kingdom",51.587929849999995,-0.10541010599099046
292,/title/tt7016936/,,"Templewood Avenue, Hampstead, London, England, UK",(Bus stop scene),"Templewood Avenue, North End, West Hampstead, London Borough of Camden, London, Greater London, England, NW3 7XA, United Kingdom",51.5601655,-0.1866628
293,/title/tt7016936/,,"Holborn, London, England, UK",(Old Nick pub rendezvous),"Holborn, London Borough of Camden, London, Greater London, England, WC1V 6DW, United Kingdom",51.5179341,-0.1195284
294,/title/tt7016936/,,"Newington Green, Islington, London, England, UK",(Mildmay Club card game scene),"Newington Green, Canonbury, London Borough of Islington, London, Greater London, England, United Kingdom",51.5516624,-0.08510186700000161
295,/title/tt7016936/,,"Gray's Inn Road, London, England, UK",(Andrews Cafe scenes),"Gray's Inn Road, Gray's Inn, London Borough of Camden, London, Greater London, England, WC1X 8UL, United Kingdom",51.5266665,-0.1180113
296,/title/tt7016936/,,"Barcelona, Catalonia, Spain",,"Barcelona, Barcelonès, Catalunya, 08001, España",41.3828939,2.1774322
297,/title/tt7016936/,,"Turfelde, Holloway Road, Turville, Buckinghamshire, England, UK",(home of Frank Haleton),,,
298,/title/tt7016936/,,"Royal Albert Hall, London, England, UK",,"Royal Albert Hall, 4, Kensington Gore, Knightsbridge, City of Westminster, London, Greater London, England, SW7 2AP, United Kingdom",51.501004449999996,-0.17739457896545874
299,/title/tt7016936/,,"Place Vendôme, 1er arrondissement, Paris, France",(Meeting place for Konstantin and Villanelle.),"Place Vendôme, Quartier Vendôme, Paris, Île-de-France, France métropolitaine, 75001, France",48.867463400000005,2.329428116825194
300,/title/tt7016936/,,"Weberweise Station, Berlin, Germany","(Bill and Villanelle's first meeing, by yellow U-Bahn trains.)",,,
301,/title/tt7016936/,,"Romanian Athenaeum, Strada Benjamin Franklin 1-3, Bucharest, Romania","(Cafe Radozhny, Moscow)",,,
302,/title/tt6587640/,,"Universal City, California, USA",(DreamWorks),"Universal City, Los Angeles County, California, 91608, United States of America",34.1412926,-118.3584364
303,/title/tt2527338/,,"Pinewood Studios, Iver Heath, Buckinghamshire, England, UK",,"Pinewood Studios, Pinewood Green, Iver, Iver Heath, Buckinghamshire, South East, England, SL0 0QJ, United Kingdom",51.54831515,-0.5346765566753087
304,/title/tt2527338/,,"Los Angeles, California, USA",,"Los Angeles, Los Angeles County, California, United States of America",34.0536909,-118.2427666
305,/title/tt0172495/,,"Bourne Woods, Farnham, Surrey, England, UK",(Opening battle scenes),,,
306,/title/tt0172495/,,"Ouarzazate, Morocco",,"Ouarzazate ⵡⴰⵔⵣⴰⵣⴰⵜ ورزازات, Pachalik d'Ouarzazate, Province de Ouarzazate ⵍⵉⵇⵍⵉⵎ ⵏ ⵡⴰⵔⵣⴰⵣⴰⵜ إقليم ورززات, Drâa-Tafilalet ⴷⴰⵔⵄⴰ-ⵜⴰⴼⵉⵍⴰⵍⵜ درعة تافيلالت, 45005, Maroc",30.920193,-6.910923
307,/title/tt0172495/,,"Atlas Corporation Studios, Ouarzazate, Morocco",(studio),,,
308,/title/tt0172495/,,"Shepperton Studios, Shepperton, Surrey, England, UK",(studio),,,
309,/title/tt0172495/,,USA,,United States,39.7837304,-100.4458825
310,/title/tt0172495/,,Italy,,Italia,42.6384261,12.674297
311,/title/tt1431045/,,"No 5 Orange - 205 Main St, Vancouver, British Columbia, Canada",(strip club),"No. 5 Orange, 205, Main Street, Downtown Eastside, Strathcona, Vancouver, Metro Vancouver Regional District, British Columbia, V6A 1K7, Canada",49.2830338,-123.0998209
312,/title/tt1431045/,,"Detroit, Michigan, USA",(Joe Louis Arena),"Detroit, Wayne County, Michigan, United States of America",42.3315509,-83.0466403
313,/title/tt1431045/,,Canada,,Canada,61.0666922,-107.9917071
314,/title/tt1431045/,,"Chinatown, Vancouver, British Columbia, Canada",(disfigured Wade following Vanessa as she shops),"Chinatown, Downtown, Vancouver, Metro Vancouver Regional District, British Columbia, Canada",49.2799809,-123.10408941422125
315,/title/tt4881806/,,"Cragside, Rothbury, Northumberland, England, UK",(Exterior shots of Lockwood's mansion),"Cragside, Carriage Drive, Cartington, Rothbury, Northumberland, North East England, England, NE65 7PX, United Kingdom",55.313604299999994,-1.8856735829119962
316,/title/tt4881806/,,"Langley, Buckinghamshire, England, UK",(location),"Langley, Canal Wharf, Canal Wharf Industrial Estate, Wexham, Langley, South East, England, SL3 6EG, United Kingdom",51.5079006,-0.5402415
317,/title/tt4881806/,,"Arrochar, Argyll, Scotland, UK",(Jetty),"Arrochar, Argyll and Bute, Scotland, G83 7AD, United Kingdom",56.1954653,-4.7480746
318,/title/tt4881806/,,"O'ahu, Hawaii, USA",,"Oʻahu, Mililani, Honolulu County, Hawaii, United States of America",21.48349555,-158.03640389298
319,/title/tt4881806/,,"Hawaii, USA",,"Hawaii, United States of America",19.58726775,-155.42688965312746
320,/title/tt4881806/,,UK,,United Kingdom,54.7023545,-3.2765753
321,/title/tt1392170/,,"Pisgah National Forest, North Carolina, USA",(District 12 forest),"Pisgah National Forest, Transylvania County, North Carolina, United States of America",35.30063265,-82.81364145512714
322,/title/tt1392170/,,"Concord, North Carolina, USA",(Capitol scenes),"Concord, Cabarrus County, North Carolina, United States of America",35.4093772,-80.5797416
323,/title/tt1392170/,,"Hildebran, North Carolina, USA",(Henry River Mill: District 12 village),"Hildebran, Burke County, North Carolina, 28637, United States of America",35.7140208,-81.4220334
324,/title/tt1392170/,,"Knight Theatre, Charlotte, North Carolina, USA",(Television set),,,
325,/title/tt1392170/,,"North Carolina, USA",,"North Carolina, United States of America",35.6729639,-79.0392919
326,/title/tt1392170/,,"Barnardsville, North Carolina, USA",,"Barnardsville, Buncombe County, North Carolina, 28709, United States of America",35.777612,-82.4548511
327,/title/tt1392170/,,USA,,United States,39.7837304,-100.4458825
328,/title/tt4633694/,,"New York City, New York, USA",,"New York, United States of America",40.7127281,-74.0060152
329,/title/tt4123430/,,"Highgate Cemetery, Swain's Lane, Highgate, London, England, UK",(Entrance to the Père Lachaise Cemetery in Paris),"Highgate Cemetery, Swain's Lane, Tufnell Park, London Borough of Camden, London, Greater London, England, N6 6PJ, United Kingdom",51.56755695,-0.14853970818419104
330,/title/tt4123430/,,"St. Mary's Gardens, Lambeth, London, England, UK",(Newt Scamander's house),"St Mary's Gardens, Kennington, London Borough of Lambeth, London, Greater London, England, United Kingdom",51.49329,-0.10909905228216019
331,/title/tt4123430/,,"Leadenhall Market, London, England, UK",(French market),"Leadenhall Market, Lime Street Passage, Bishopsgate, City of London, Greater London, England, EC3V 1LR, United Kingdom",51.5126583,-0.08341528161112995
332,/title/tt1442449/,,"Auckland, New Zealand",,"Auckland, 1010, New Zealand",-36.852095,174.7631803
333,/title/tt0330373/,,"Divinity School, Bodleian Library, Broad Street, Oxford, Oxfordshire, England, UK",,,,
334,/title/tt0330373/,,"New College, Holywell Street, Oxford, Oxfordshire, England, UK",,,,
335,/title/tt0330373/,,"Leavesden Studios, Leavesden, Hertfordshire, England, UK",(studio),"Warner Bros. Studios Leavesden, Abbots Langley, Leavesden, Hertfordshire, East of England, England, WD25 7LP, United Kingdom",51.68980175,-0.4226993868476693
336,/title/tt0330373/,,"Eastbourne, East Sussex, England, UK",,"Eastbourne, East Sussex, South East, England, United Kingdom",50.7685761,0.2957854
337,/title/tt0330373/,,"Shepperton Studios, Shepperton, Surrey, England, UK",(studio),,,
338,/title/tt8160834/,,"Moscow, Russia",,"Москва, Центральный административный округ, Москва, Центральный федеральный округ, Россия",55.7504461,37.6174943
339,/title/tt1392190/,,"Cape Town Film Studios, Cape Town, Western Cape, South Africa",(studio),"Cape Town Film Studios, Film City Boulevard, Houghton, Cape Town Ward 16, Eersterivier, City of Cape Town, Western Cape, 7784, South Africa",-34.0315617,18.719156772105897
340,/title/tt1392190/,,"Swakopmund, Erongo, Namibia",,"Swakopmund, Erongo Region, Namibia",-22.6767841,14.5313988
341,/title/tt1392190/,,"Potts Hill, Sydney, New South Wales, Australia",,"Potts Hill, Sydney, Canterbury-Bankstown Council, New South Wales, 2143, Australia",-33.8922191,151.0329222
342,/title/tt0107290/,,Costa Rica,,Costa Rica,10.2735633,-84.0739102
343,/title/tt0107290/,,"Kualoa Ranch - 49560 Kamehameha Highway, Ka'a'awa, O'ahu, Hawaii, USA",(dinosaur stampede),,,
344,/title/tt0107290/,,"Blue Hole, Kaua'i, Hawaii, USA","(large front gate to Jurassic Park, Islar Nublar)","Blue Hole Falls, Kauaʻi County, Hawaii, United States of America",22.0663404,-159.4828966
345,/title/tt0107290/,,"Stage 12, Universal Studios - 100 Universal City Plaza, Universal City, California, USA",(studio) (studio: visitor's center rotunda),,,
346,/title/tt0107290/,,"Olokele Valley, Kaua'i, Hawaii, USA",(electric fence on Islar Nublar),"Olokele, Kauaʻi County, Hawaii, 96747, United States of America",21.9197536,-159.6245473
347,/title/tt0107290/,,"Stage 28, Universal Studios - 100 Universal City Plaza, Universal City, California, USA","(studio) (studio: visitor's center control room, visitor's center hatchery, visitor's center theater)",,,
348,/title/tt0107290/,,"National Tropical Botanical Gardens, Allerton Garden on Kauai, Papalina Rd, Kalaheo, HI 96741, USA",(jeep falls on Tim and Dr. Grant; also where Dr. Grant finds the nest of empty dino eggs),,,
349,/title/tt0107290/,,"Stage 27, Universal Studios - 100 Universal City Plaza, Universal City, California, USA","(studio) (studio: tree scenes, power station exterior, dilophosaurus)",,,
350,/title/tt0107290/,,"Hawaii, USA",,"Hawaii, United States of America",19.58726775,-155.42688965312746
351,/title/tt0107290/,,USA,,United States,39.7837304,-100.4458825
352,/title/tt0107290/,,"Valley House Plantation Estate, 6191 Hauaala Road, Kealia, Kauai, Hawaii, USA",(Visitor Center exterior),,,
353,/title/tt4154756/,,"Banaue Rice Terraces, Ifugao, Philippines",(Thanos closing scene),"Banaue Rice Terraces, Nueva Vizcaya - Ifugao - Mt. Province Road, San Fernando, Banaue, Ifugao, Cordillera Administrative Region, 3601, Philippines",16.92300855,121.06161023465711
354,/title/tt4154756/,,"Cockburn Street, Edinburgh, Scotland, UK",(on location),"Cockburn Street, Old Town, Edinburgh, City of Edinburgh, Scotland, EH1 1BU, United Kingdom",55.9506028,-3.1897391
355,/title/tt4154756/,,"Waverly Train Station, Edinburgh, Scotland, UK",(on location),,,
356,/title/tt4154756/,,"St Abbs Head, Berwickshire, Scotland, UK",,"St.Abb's Head, St. Abbs, Berwickshire, Scotland, TD14 5QF, United Kingdom",55.9184885,-2.1408554
357,/title/tt4154756/,,"Atlanta, Georgia, USA",,"Atlanta, Georgia, United States of America",33.7490987,-84.3901849
358,/title/tt1630029/,,"Los Angeles, California, USA",,"Los Angeles, Los Angeles County, California, United States of America",34.0536909,-118.2427666
359,/title/tt6105098/,,"Los Angeles, California, USA",,"Los Angeles, Los Angeles County, California, United States of America",34.0536909,-118.2427666
360,/title/tt5463162/,,"Royal Roads University - 2005 Sooke Rd, Victoria, British Columbia, Canada",(Castle),"Royal Roads University, 2005, Sooke Road, Colwood, Capital Regional District, British Columbia, V9B 5Y2, Canada",48.43031565,-123.47964930852761
361,/title/tt5463162/,,"British Columbia, Canada",,"British Columbia, Canada",55.001251,-125.002441
362,/title/tt0499549/,,"Playa Vista, California, USA",,"Playa Vista, Los Angeles, Los Angeles County, California, 90094, United States of America",33.9760102,-118.4181654
363,/title/tt0499549/,,"Kaua'i, Hawaii, USA",(rain forest),"Kauaʻi, Kauaʻi County, Hawaii, United States of America",22.050466550000003,-159.55876775017003
364,/title/tt0499549/,,"Stone Street Studios, Stone Street, Miramar, Wellington, New Zealand",(studio),,,
365,/title/tt0499549/,,"Los Angeles, California, USA",,"Los Angeles, Los Angeles County, California, United States of America",34.0536909,-118.2427666
366,/title/tt0112178/,,"Vasquez Rocks Natural Area Park - 10700 W. Escondido Canyon Rd., Agua Dulce, California, USA",,,,
367,/title/tt0112178/,,"Burbank, California, USA",,"Burbank, Los Angeles County, California, United States of America",34.1816482,-118.3258554
368,/title/tt0112178/,,"Stage 8, Paramount Studios - 5555 Melrose Avenue, Hollywood, Los Angeles, California, USA",(bridge),,,
369,/title/tt0089218/,,"Astoria, Oregon, USA",,"Astoria, Clatsop County, Oregon, 97103, United States of America",46.187885,-123.831256
370,/title/tt0089218/,,"Columbia Memorial Hospital - 2111 Exchange Street, Astoria, Oregon, USA",(Andy has cheer practice) (formerly the John Warren Field),"Columbia Memorial Hospital, 2111, Exchange Street, Uppertown, Astoria, Clatsop County, Oregon, 97103, United States of America",46.187931649999996,-123.81935554797019
371,/title/tt0089218/,,"Lower Columbia Bowl - 826 Marine Drive, Astoria, Oregon, USA",(Chunk witnesses the car chase),,,
372,/title/tt0089218/,,"304 38th Street, Astoria, Oregon, USA",(Data's house),"304, 38th Street, Alderbrook, Astoria, Clatsop County, Oregon, 97103, United States of America",46.1928559995254,-123.79978857816208
373,/title/tt0089218/,,"Astoria Coffee Company - 304 37th Street, Astoria, Oregon, USA",(Stop and Snack store),,,
374,/title/tt0089218/,,"3693 Leif Erikson Drive, Astoria, Oregon, USA",(Astoria Country Club tennis courts),,,
375,/title/tt0089218/,,"Stage 20, Warner Brothers Burbank Studios - 4000 Warner Boulevard, Burbank, California, USA",(Walsh attic),,,
376,/title/tt0089218/,,"Stage 15, Warner Brothers Burbank Studios - 4000 Warner Boulevard, Burbank, California, USA",,,,
377,/title/tt0089218/,,"Stage 12, Warner Brothers Burbank Studios - 4000 Warner Boulevard, Burbank, California, USA",,,,
378,/title/tt0089218/,,"Warner Brothers Burbank Studios - 4000 Warner Boulevard, Burbank, California, USA",(studio),,,
379,/title/tt5033998/,,"Istanbul, Turkey",(location),"İstanbul, Beyazıt Meydanı, Beyazıt Mahallesi, Fatih, İstanbul, Marmara Bölgesi, 34126, Türkiye",41.0096215,28.9651867
380,/title/tt5033998/,,Turkey,,Türkiye,38.9597594,34.9249653
381,/title/tt5033998/,,"Studio Babelsberg, Potsdam, Brandenburg, Germany",(studio),"Studio Babelsberg, 15, Babelsberg, Potsdam, Brandenburg, 14482, Deutschland",52.38260355,13.113726021425222
382,/title/tt5033998/,,"Berlin, Germany",,"Berlin, 10117, Deutschland",52.5170365,13.3888599
383,/title/tt0381061/,,"Buena Vista Hotel and Restaurant, Nassau, New Providence Island, Bahamas",(exteriors Madagascar Embassy),,,
384,/title/tt0381061/,,"Cipriani Hotel, Giudecca Island, Venice, Veneto, Italy",(Bond moors yacht),,,
385,/title/tt0381061/,,"Giudecca Island, Venice, Veneto, Italy",(Bond moors yacht),"Giudecca, Venezia, Veneto, Italia",45.42608215,12.318262236791242
386,/title/tt0381061/,,"Mercato, Venice, Veneto, Italy",,"Piazza Mercato, Piazza del Mercato, Marghera, Venezia, Veneto, 30175, Italia",45.4737015,12.2235491
387,/title/tt0381061/,,"Strahov Monastery, Prague, Czech Republic",(House of Commons),"Strahovský klášter, Strahovské nádvoří, Hradčany, Praha, okres Hlavní město Praha, Hlavní město Praha, Praha, Česká republika",50.0862584,14.38906884359085
388,/title/tt0381061/,,"Villa Balbianello, Lake Como, Lombardia, Italy",(exteriors Hospital - James Bond convalesces after being tortured),"Villa Balbianello, Tremezzina, Como, Lombardia, 22025, Italia",45.9647605,9.2022282
389,/title/tt0381061/,,"Gardens, Villa Balbianello, Lake Como, Lombardia, Italy",(James Bond convalesces after being tortured),,,
390,/title/tt0381061/,,"Former Kaiserbad Spa, Karlovy Vary, Czech Republic","(exterior Casino Royale, Montenegro)",,,
391,/title/tt0381061/,,"Palackého Street, Mladá Boleslav, Czech Republic",(road scenes),"Palackého, Mladá Boleslav, okres Mladá Boleslav, Středočeský kraj, Střední Čechy, 29301, Česká republika",50.4191897,14.909113
392,/title/tt0381061/,,"Accademia Bridge, Venice, Veneto, Italy",,"Accademia, Marghera, Venezia, Veneto, 30175, Italia",45.4723699,12.2121818
393,/title/tt0381061/,,"Hotel Construction Site, Coral Harbour, New Providence Island, Bahamas",(chase through construction site),,,
394,/title/tt0381061/,,"Nassau International Airport, Nassau, New Providence Island, Bahamas",(interiors Miami International Airport),,,
395,/title/tt0381061/,,"Lake Como, Lombardia, Italy",,"Lago di Como, Como, Lombardia, 23827, Italia",45.9917589,9.264881035005711
396,/title/tt0381061/,,"Paradise Island, Bahamas",,"Paradise Island, New Providence, Bahamas",25.08335515,-77.3063341678734
397,/title/tt0381061/,,"Academy of Music, Venice, Veneto, Italy",(Conservatorio Benedetto Marcello),,,
398,/title/tt0381061/,,"Danube House, Karlín, Prague, Czech Republic",(arrival of Dryden - opening sequence),"Danube House, 650/1, Karolinská, Florenc, Karlín, Praha, okres Hlavní město Praha, Hlavní město Praha, Praha, 18600, Česká republika",50.0944541,14.443567393687795
399,/title/tt0381061/,,"Paddock Tank, Pinewood Studios, Iver Heath, Buckinghamshire, England, UK",(studio) (exteriors: Venetian Sinking house),,,
400,/title/tt0381061/,,"Pupp Hotel, Karlovy Vary, Czech Republic",(Exterior of Hotel Splendid),"Pupp, 310/8, Mírové náměstí, Karlovy Vary, okres Karlovy Vary, Karlovarský kraj, Severozápad, 36001, Česká republika",50.219695,12.8790316
401,/title/tt0381061/,,"Al Palazzo Lion Morosini, Cannaregio 5700, Venice, Veneto, Italy",(the sinking house),,,
402,/title/tt0381061/,,"Canary Wharf, Isle of Dogs, London, England, UK",(M's home),"Canary Wharf, Isle of Dogs, London Borough of Tower Hamlets, London, Greater London, England, E14 5AX, United Kingdom",51.5048954,-0.0190006
403,/title/tt0381061/,,"Wenceslas Square, New Town, Prague, Czech Republic",,"Václavské náměstí, Nové Město, Praha, okres Hlavní město Praha, Hlavní město Praha, Praha, Česká republika",50.0815867,14.427170364227162
404,/title/tt0381061/,,"Kaiserbad - Lázne I, Karlovy Vary, Czech Republic",(exterior Casino Royale),"Císařské lázně, Slovenská, Karlovy Vary, okres Karlovy Vary, Karlovarský kraj, Severozápad, 36000, Česká republika",50.218889450000006,12.881525040445347
405,/title/tt0381061/,,"Ministry of Transport, Quay of Ludvík Svoboda, New Town, Prague, Czech Republic",(Miami Museum exterior - body world exhibit),,,
406,/title/tt0381061/,,"Vaclav Havel Airport Prague, Ruzyne, Prague, Czech Republic",(Miami International Airport),"Letiště Václava Havla Praha, 1019/6, K Letišti, Ruzyně, Praha, okres Hlavní město Praha, Hlavní město Praha, Praha, 16100, Česká republika",50.10203975,14.270569633622053
407,/title/tt0381061/,,"D Stage, Pinewood Studios, Iver Heath, Buckinghamshire, England, UK",(studio) (Miami airport miniatures),,,
408,/title/tt0381061/,,"Houses of the Procurators, St. Mark's Square, Venice, Veneto, Italy",(Procuratie Nuove),,,
409,/title/tt0381061/,,"Modrany Studios, Modrany, Prague, Czech Republic",(studio),,,
410,/title/tt0381061/,,"Ponte di Rialto, San Polo, Venice, Veneto, Italy",,"Ponte di Rialto, Ruga dei Oresi, San Polo, Venezia-Murano-Burano, Venezia, Veneto, 30131, Italia",45.438050700000005,12.335934644610745
411,/title/tt0381061/,,"West Shore, New Providence Island, Bahamas",(beachfront mansion of Dimitrios),,,
412,/title/tt0381061/,,"Tremezzina, Lombardia, Italy",(location: Villa del Balbianello),"Tremezzina, Como, Lombardia, Italia",45.9835245,9.191490924303547
413,/title/tt0381061/,,"Queen's Stand Epsom Racecourse, England, UK",(Frontage of St Petersburg Airport where 007 meets Jack Wade),,,
414,/title/tt2015381/,,"Shepperton Studios, Shepperton, Surrey, England, UK",,,,
415,/title/tt2015381/,,"London, England, UK",,"London, Greater London, England, United Kingdom",51.5073219,-0.1276474
416,/title/tt2015381/,,"England, UK",,"England, United Kingdom",52.7954791,-0.5402402866174321
417,/title/tt2015381/,,"Lloyd's Building, Lime Street, Broadgate, London, England, UK",(exteriors: Xandar street scene),,,
418,/title/tt2015381/,,"Hemel Hempstead, Hertfordshire, England, UK",(opening scene: hospital interiors),"Hemel Hempstead, Hertfordshire, East of England, England, HP1 1EW, United Kingdom",51.7511784,-0.472528
419,/title/tt2015381/,,"B Stage, Shepperton Studios, Shepperton, Surrey, England, UK",,,,
420,/title/tt2015381/,,"J Stage, Shepperton Studios, Shepperton, Surrey, England, UK",,,,
421,/title/tt2015381/,,"R Stage, Shepperton Studios, Shepperton, Surrey, England, UK",,,,
422,/title/tt2015381/,,"T Stage, Shepperton Studios, Shepperton, Surrey, England, UK",,,,
423,/title/tt0060028/,,"Desilu Studios - 9336 W. Washington Blvd., Culver City, California, USA",(first season),,,
424,/title/tt1201607/,,"Shepperton Studios, Shepperton, Surrey, England, UK",(Hogwarts model),,,
425,/title/tt1201607/,,"Cardington Airship Hangars, Bedfordshire, England, UK",,,,
426,/title/tt1201607/,,"Leavesden Studios, Leavesden, Hertfordshire, England, UK",,"Warner Bros. Studios Leavesden, Abbots Langley, Leavesden, Hertfordshire, East of England, England, WD25 7LP, United Kingdom",51.68980175,-0.4226993868476693
427,/title/tt1201607/,,"Ashbridge, Hertfordshire, England, UK",,,,
428,/title/tt0118480/,,"British Columbia, Canada",,"British Columbia, Canada",55.001251,-125.002441
429,/title/tt0118480/,,"The Bridge Studios, Burnaby, British Columbia, Canada",(studio),"Bridge Studios, Burnaby, Metro Vancouver Regional District, British Columbia, Canada",49.2629905,-123.0205448788792
430,/title/tt0118480/,,"Burnaby Hospital, Burnaby, British Columbia, Canada",,"Shell Canada Shellburn Distribution Terminal, 2751, Burnaby, Metro Vancouver Regional District, British Columbia, Canada",49.2630305,-122.92975765610807
431,/title/tt8210856/,,"London, England, UK",,"London, Greater London, England, United Kingdom",51.5073219,-0.1276474
432,/title/tt8210856/,,"England, UK",,"England, United Kingdom",52.7954791,-0.5402402866174321
433,/title/tt3521164/,,Pacific Ocean,,"Pacific Ocean, Gulf View Executive Homes, Talomo, Davao City, Davao Region, 8024, Philippines",7.0427772,125.5367255
434,/title/tt3480822/,,"Sæbø, Ørsta, Møre og Romsdal, Norway",,"Sæbø, Ørsta, Møre og Romsdal, 6166, Norge",62.2095084,6.4746541
435,/title/tt3480822/,,"Hankley Common, Tilford Rd, Farnham, GU10 2LG, UK",,,,
436,/title/tt3480822/,,Hungary,,Magyarország,47.1817585,19.5060937
437,/title/tt3480822/,,"Etyek, Hungary",(on location),"Etyek, Bicskei járás, Fejér megye, Közép-Dunántúl, Dunántúl, 2091, Magyarország",47.4448813,18.7504665
438,/title/tt3480822/,,"Atlanta, Georgia, USA",,"Atlanta, Georgia, United States of America",33.7490987,-84.3901849
439,/title/tt3480822/,,"RAF Upper Heyford, Oxfordshire, England, UK",(Airfield),"Heyford Park, Cherwell, Oxfordshire, South East, England, United Kingdom",51.9374789,-1.2493404984995435
440,/title/tt3480822/,,"Hankley Common, Elstead, Surrey",,,,
441,/title/tt3480822/,,"Los Angeles, California, USA",,"Los Angeles, Los Angeles County, California, United States of America",34.0536909,-118.2427666
442,/title/tt1043813/,,"Toronto, Ontario, Canada",,"Toronto, Golden Horseshoe, Ontario, Canada",43.6534817,-79.3839347
443,/title/tt1638355/,,"Pozzuoli, Naples, Campania, Italy",(exterior scenes),"Golfo di Pozzuoli, Cupa Starza, Agnano, Municipalità 10, Napoli, Campania, 80124, Italia",40.80463775,14.124147666895512
444,/title/tt1638355/,,"Naples, Campania, Italy",(exterior scenes),"Napoli, Campania, Italia",40.8359336,14.2487826
445,/title/tt1638355/,,"Old Royal Naval College, Greenwich, London, England, UK",(exterior scenes),"Old Royal Naval College, Park Row, East Greenwich, Royal Borough of Greenwich, London, Greater London, England, SE10 9NL, United Kingdom",51.4829661,-0.006257671681354558
446,/title/tt1638355/,,"University of Greenwich, Greenwich, London, England, UK",(Car chase),"University of Greenwich, Romney Road, East Greenwich, Royal Borough of Greenwich, London, Greater London, England, SE10 9JW, United Kingdom",51.4825423,-0.0066531
447,/title/tt1638355/,,"Hankley Common, Elstead, Surrey, England, UK",,,,
448,/title/tt1638355/,,"Via dei Fori Imperiali, Rome, Lazio, Italy",(Robbery),"Via dei Fori Imperiali, Rione X Campitelli, Municipio Roma I, Roma, Roma Capitale, Lazio, 00184, Italia",41.8931103,12.4873686
449,/title/tt1638355/,,"London, England, UK",,"London, Greater London, England, United Kingdom",51.5073219,-0.1276474
450,/title/tt1638355/,,"Procida Island, Naples, Campania, Italy",(Vinciguerra Island),"Via Giovanni Da Procida, Rione Luzzati, Municipalità 4, Napoli, Campania, 80143, Italia",40.8578608,14.2911839
451,/title/tt1638355/,,"Goodwood Motor Circuit, Goodwood, Chichester, West Sussex, England, UK",(Car race exterior scene),,,
452,/title/tt1638355/,,"Rome, Lazio, Italy",,"Roma Capitale, Lazio, Italia",41.85223935,12.631036615953583
453,/title/tt1638355/,,"Cape Miseno, Naples, Campania, Italy",(road scenes),"Punta Cavallo, Grotta di Seiano, Municipalità 1, Napoli, Campania, 80124, Italia",40.7939822,14.1809556
454,/title/tt1638355/,,UK,,United Kingdom,54.7023545,-3.2765753
455,/title/tt1638355/,,"Cambrian Mountains, Wales, UK",,,,
456,/title/tt0361748/,,"Görlitz, Saxony, Germany",,"Görlitz, Sachsen, 02826, Deutschland",51.1563185,14.991018
457,/title/tt0361748/,,"Brasserie La Renaissance, 112 rue Championnet, Paris 18, Paris, France",(interior),,,
458,/title/tt0361748/,,"Bad Schandau, Saxony, Germany",,"Bad Schandau, Sächsische Schweiz-Osterzgebirge, Sachsen, 01814, Deutschland",50.918091,14.1534018
459,/title/tt0361748/,,"Rüdersdorf, Brandenburg, Germany",,"Rüdersdorf, Rüdersdorf bei Berlin, Märkisch-Oderland, Brandenburg, Deutschland",52.471293,13.784527
460,/title/tt0361748/,,"Krampnitz, Brandenburg, Germany",,"Krampnitz, Potsdam, Brandenburg, 14476, Deutschland",52.4572623,13.059348
461,/title/tt0361748/,,"Fort Hahneberg, Berlin, Germany",,"Fort Hahneberg, 50, Peter-Herzog-Weg, Staaken, Spandau, Berlin, 13591, Deutschland",52.521930600000005,13.137729308340758
462,/title/tt1386697/,,"151 Front Street West, Toronto, Ontario, Canada","(Deadshot rappels off the roof, on Station St side of building)","Toronto Hippo Tours, 151, Front Street West, Spadina—Fort York, Old Toronto, Toronto, Golden Horseshoe, Ontario, M5J 2L6, Canada",43.6446297,-79.3844357
463,/title/tt1386697/,,"Chicago, Illinois, USA",(aerial shots),"Chicago, Cook County, Illinois, United States of America",41.8755616,-87.6244212
464,/title/tt1386697/,,"Adelaide Street, Toronto, Ontario, Canada",(Snowing scene - Floyd walks in front of the Lumsden Building),,,
465,/title/tt1386697/,,"Downtown, Los Angeles, California, USA",,"Downtown, Los Angeles, Los Angeles County, California, United States of America",34.0428494,-118.2476732
466,/title/tt1386697/,,"Dundas Square, Toronto, Ontario, Canada",(Midway Square),"Yonge-Dundas Square, Toronto Centre, Old Toronto, Toronto, Golden Horseshoe, Ontario, Canada",43.6561162,-79.38016329843242
467,/title/tt1386697/,,"Puerto Viejo de Sarapiqui, Costa Rica",(location),"Puerto Viejo, Cantón Sarapiquí, Provincia Heredia, 41001, Costa Rica",10.4541312,-84.0096613
468,/title/tt1386697/,,"Paramount Studios - 5555 Melrose Avenue, Hollywood, Los Angeles, California, USA",,,,
469,/title/tt1386697/,,"Los Angeles, California, USA",,"Los Angeles, Los Angeles County, California, United States of America",34.0536909,-118.2427666
470,/title/tt1386697/,,"Illinois, USA",,"Illinois, United States of America",40.0796606,-89.4337288
471,/title/tt1386697/,,USA,,United States,39.7837304,-100.4458825
472,/title/tt0093779/,,"Haddon Hall, Bakewell, Derbyshire, England, UK",(Prince Humperdinck's Castle),"Haddon Hall, A6, Nether Haddon CP, Derbyshire Dales, Derbyshire, East Midlands, England, DE45 1LA, United Kingdom",53.193825000000004,-1.649561459834844
473,/title/tt0093779/,,"Hever Castle, Hever, Kent, England, UK",,"Hever Castle, Rhododendron Walk, Hever, Sevenoaks, Kent, South East, England, TN8 7NG, United Kingdom",51.1869031,0.1138706874738442
474,/title/tt0093779/,,"Cave Dale, Peak District National Park, Derbyshire, England, UK",(Buttercup shoves herself and Dread Pirate Roberts down a hill),,,
475,/title/tt0093779/,,"Robin Hood's Stride, Birchover, Derbyshire, England, UK",(Dread Pirate Roberts fights Fezzik),"Robin Hood's Stride, Occupational path, Harthill CP, Derbyshire Dales, Derbyshire, East Midlands, England, DE4 2LZ, United Kingdom",53.1571766,-1.666036920129968
476,/title/tt0093779/,,"Bradley Rocks, Birchover, Derbyshire, England, UK",(Buttercup's farm),,,
477,/title/tt0093779/,,"H Stage, Shepperton Studios, Shepperton, Surrey, England, UK",(Sea of Despair; docking the boat at the Cliffs of Insanity; Fire Swamp),,,
478,/title/tt0093779/,,"L Stage, Shepperton Studios, Shepperton, Surrey, England, UK",(grandfather and grandson scenes),,,
479,/title/tt0093779/,,"D Stage, Shepperton Studios, Shepperton, Surrey, England, UK",(final kiss),,,
480,/title/tt6924650/,,"Hawaii, USA",,"Hawaii, United States of America",19.58726775,-155.42688965312746
481,/title/tt0167260/,,"Fernside, Featherston, Wairarapa, New Zealand",(Lothlórien),"Fernside, Featherston Community, South Wairarapa District, Wellington, 5710, New Zealand",-41.0885537,175.3505731
482,/title/tt0167260/,,"Mt. Potts Station, Erewhon, Canterbury, New Zealand",(Edoras),,,
483,/title/tt0167260/,,"Dry Creek Quarry, Wellington, New Zealand",(Minas Tirith),,,
484,/title/tt0167260/,,"Twizel, Canterbury, New Zealand",(The Pelennor Fields),"Twizel, Mackenzie District, Canterbury, 7901, New Zealand",-44.257483,170.0994145
485,/title/tt0167260/,,"Deer Park Heights, Queenstown, Otago, New Zealand",(the Paths of the Dead ghost soldier scene),,,
486,/title/tt0167260/,,"Stone Street Studios, Stone Street, Miramar, Wellington, New Zealand",(Hobbiton interiors and Grey Havens scenes),,,
487,/title/tt0167260/,,"Mount Ruapehu, Tongariro National Park, Central Plateau, New Zealand",(Mount Doom exteriors),,,
488,/title/tt0167260/,,"Twizel, Canterbury, New Zealand",(Théoden leads the charge into the Orc army),"Twizel, Mackenzie District, Canterbury, 7901, New Zealand",-44.257483,170.0994145
489,/title/tt0167260/,,"Milford Sound, Fiordland National Park, Southland, New Zealand",,,,
490,/title/tt0167260/,,"Chicago Illinois, USA",,"Chicago, Cook County, Illinois, United States of America",41.8755616,-87.6244212
491,/title/tt8041270/,,"The Bridge Studios, Burnaby, British Columbia, Canada",(production office),"Bridge Studios, Burnaby, Metro Vancouver Regional District, British Columbia, Canada",49.2629905,-123.0205448788792
492,/title/tt8041270/,,"Hawaii, USA",,"Hawaii, United States of America",19.58726775,-155.42688965312746
493,/title/tt8041270/,,"Mellieha, Malta",,"Il-Mellieħa, Tramuntana, Malta",35.9599618,14.368367
494,/title/tt8041270/,,Canada,,Canada,61.0666922,-107.9917071
495,/title/tt8041270/,,UK,,United Kingdom,54.7023545,-3.2765753
496,/title/tt8041270/,,"Valletta, Malta",,"Valletta, Xlokk, Malta",35.8989818,14.5136759
497,/title/tt8041270/,,"O'ahu, Hawaii, USA",,"Oʻahu, Mililani, Honolulu County, Hawaii, United States of America",21.48349555,-158.03640389298
498,/title/tt5607976/,,"Plasturton Gardens, Cardiff, UK",(Oxford),"Plasturton Gardens, Pontcanna, Cardiff, Cymru / Wales, CF, United Kingdom",51.4848826,-3.1964282
499,/title/tt5607976/,,"Sharpness Docks, The Docks, Sharpness, Berkeley GL13 9UX, United Kingdom",(Gyptian Boat Scenes),,,
500,/title/tt5607976/,,"Oxford, England, UK",,"Oxford, Oxfordshire, South East, England, United Kingdom",51.7520131,-1.2578499
501,/title/tt5607976/,,"Bristol, England, UK",(Car chase),"Bristol, City of Bristol, South West England, England, United Kingdom",51.4538022,-2.5972985
502,/title/tt0304141/,,"Glen Coe, Highland, Scotland, UK",(Hagrid's Hut),"Glen Coe, A82, Caolasnacon, Highland, Scotland, PH49 4HX, United Kingdom",56.6669243,-5.0228812
503,/title/tt0304141/,,"Glenfinnan Viaduct, Fort William, Highland, Scotland, UK",(Hogwarts Express),,,
504,/title/tt0304141/,,"8 Stoney Street, Borough, London, England, UK",(Exterior - Leaky Cauldron),"Porteña, 8, Stoney Street, Borough, Southwark, London Borough of Southwark, London, Greater London, England, SE1 1TU, United Kingdom",51.5052768,-0.0912367
505,/title/tt0304141/,,"Black Park, Iver Heath, Buckinghamshire, England, UK",(dark forest),"Black Park, Wexham, Iver Heath, Buckinghamshire, South East, England, United Kingdom",51.542492100000004,-0.5441123704462851
506,/title/tt0304141/,,"Wistman's Wood, Dartmoor, England, UK",,"Wistman's Wood (Nature Reserve), B3212, Dartmoor Forest, West Devon, Devon, South West England, England, PL20 6SP, United Kingdom",50.577939150000006,-3.9612094273141425
507,/title/tt0304141/,,"Virginia Water, Surrey, England, UK",,"Virginia Water, Surrey, South East, England, GU25 4DL, United Kingdom",51.4033624,-0.5661711
508,/title/tt0304141/,,"Shepperton Studios, Shepperton, Surrey, England, UK",,,,
509,/title/tt0304141/,,"D Stage, Shepperton Studios, Shepperton, Surrey, England, UK",(Hogsmeade Village; Shrieking Shack exterior),,,
510,/title/tt0304141/,,"H Stage, Shepperton Studios, Shepperton, Surrey, England, UK",(Dark Forest; frozen lake),,,
511,/title/tt0304141/,,"City of London, England, UK",,"City of London, Greater London, England, United Kingdom",51.5156177,-0.0919983
512,/title/tt0372784/,,"Svínafellsjökull, Vatnajökull, Austurland, Iceland",,,,
513,/title/tt0372784/,,"Cardington Airship Hangars, Bedfordshire, England, UK",(studio),,,
514,/title/tt0372784/,,"Lower Wacker Drive, Downtown, Chicago, Illinois, USA",(Batmobile chase),,,
515,/title/tt0372784/,,"Hatfield House, Hatfield, Hertfordshire, England, UK",,"Hatfield House, The Stable Yard, Hatfield, Welwyn Hatfield, Hertfordshire, East of England, England, AL9 5NF, United Kingdom",51.7605139,-0.20879851305478084
516,/title/tt0372784/,,"LaSalle Street, The Loop, Downtown, Chicago, Illinois, USA",(monorail scene),,,
517,/title/tt0372784/,,"Canary Wharf, Isle of Dogs, London, England, UK",,"Canary Wharf, Isle of Dogs, London Borough of Tower Hamlets, London, Greater London, England, E14 5AX, United Kingdom",51.5048954,-0.0190006
518,/title/tt0372784/,,"George Farmiloe Building - 28-36 St John Street, Clerkenwell, London, England, UK",(Police HQ),,,
519,/title/tt0372784/,,"St. Pancras Chambers, St. Pancras Station, St. Pancras, London, England, UK",(Arkham Asylum Stairwell),,,
520,/title/tt0372784/,,"New York City, New York, USA",,"New York, United States of America",40.7127281,-74.0060152
521,/title/tt0372784/,,"ExCeL London, Royal Victoria Dock, London, England, UK",(Tumbler testing scene),,,
522,/title/tt0372784/,,"K Stage, Shepperton Studios, Shepperton, Surrey, England, UK",(young Bruce's bedroom at Wayne Manor; master bedroom at Wayne Manor),,,
523,/title/tt6111130/,,"Santa Clarita Studios - 25135 Anza Drive, Santa Clarita, California, USA",,,,
524,/title/tt0120915/,,"Ksar Hadada, Tataouine, Tunisia","(Slave Quarters, Tatooine)","قصر حدادة, قصر الحدادة, معتمدية غمراسن, ولاية تطاوين, 3220, تونس",33.0995453,10.3124399
525,/title/tt0120915/,,"Ksar Oueld Soltane, Tataouine, Tunisia","(Slave Quarters, Tatooine)",,,
526,/title/tt0120915/,,"Leavesden Studios, Leavesden, Hertfordshire, England, UK",(studio),"Warner Bros. Studios Leavesden, Abbots Langley, Leavesden, Hertfordshire, East of England, England, WD25 7LP, United Kingdom",51.68980175,-0.4226993868476693
527,/title/tt0120915/,,"C Stage, Leavesden Studios, Leavesden, Hertfordshire, England, UK",(Federation Battleship bridge),"C Stage, Essex Lane, Warner Bros. Studios Leavesden, Abbots Langley, Three Rivers, Hertfordshire, East of England, England, WD25 7LP, United Kingdom",51.6921033,-0.4211576813951589
528,/title/tt0120915/,,"FS1 Stage, Leavesden Studios, Leavesden, Hertfordshire, England, UK",(Theed Power Generator laser gates; Theed Power Generator melting pit where Qui-Gon and Darth Maul both die),,,
529,/title/tt0120915/,,"FS1B Stage, Leavesden Studios, Leavesden, Hertfordshire, England, UK",(Federation Battleship conference room),,,
530,/title/tt0120915/,,"MS2 Stage, Leavesden Studios, Leavesden, Hertfordshire, England, UK",(Sidious instructs Darth Maul to kill the Jedi; Palpatine's quarters; Jedi council),"C Stage, Essex Lane, Warner Bros. Studios Leavesden, Abbots Langley, Three Rivers, Hertfordshire, East of England, England, WD25 7LP, United Kingdom",51.6921033,-0.4211576813951589
531,/title/tt0120915/,,"Ksar Medenine, Medenine, Tunisia","(Slave Quarters, Tatooine)","القصر الجديد, معتمدية بني خداش, ولاية مدنين, 4151, تونس",33.2973419,10.282436396656536
532,/title/tt6320628/,,"Hertfordshire, England, UK",,"Hertfordshire, East of England, England, United Kingdom",51.840052299999996,-0.09785519224523963
533,/title/tt6320628/,,"Los Angeles, California, USA",,"Los Angeles, Los Angeles County, California, United States of America",34.0536909,-118.2427666
534,/title/tt6320628/,,"East London, England, UK",,"E, Bombay Street, South Bermondsey, Bermondsey, London Borough of Southwark, London, Greater London, England, SE16, United Kingdom",51.49364075,-0.061909112071185685
535,/title/tt6320628/,,"Liberec, Czech Republic",,"Liberec, okres Liberec, Liberecký kraj, Severovýchod, Česká republika",50.7702648,15.0583947
536,/title/tt6320628/,,"Belchite, Zaragoza, Aragón, Spain",(Mexican town of Ixtenco in ruins),"Belchite, Campo de Belchite, Zaragoza, Aragón, 50130, España",41.3061444,-0.7547209
537,/title/tt6320628/,,"Warner Bros. Studios, Leavesden, Hertfordshire, England, UK","(studio) (Studio, Venice sets and others)","Warner Bros Studios Leavesden, Essex Lane, Warner Bros. Studios Leavesden, Abbots Langley, Three Rivers, Hertfordshire, East of England, England, WD25 7LP, United Kingdom",51.6934642,-0.4205376395864987
538,/title/tt6320628/,,"Isola di San Giorgio Maggiore, Piazza San Marco, 328, 30100 Venezia VE, Italy",,,,
539,/title/tt6320628/,,"Ponte di Rialto, San Polo, Venice, Veneto, Italy",,"Ponte di Rialto, Ruga dei Oresi, San Polo, Venezia-Murano-Burano, Venezia, Veneto, 30131, Italia",45.438050700000005,12.335934644610745
540,/title/tt6320628/,,"Venice, Veneto, Italy",,"Venezia, Veneto, Italia",45.4371908,12.3345898
541,/title/tt6320628/,,"Fondamenta S Anna 507, Venice, Veneto, Italy",(Hotel de Matteis),,,
542,/title/tt6320628/,,"Santa Maria Formosa, Castello, Venice, Veneto, Italy",(Spiderman tries to save a belltower),,,
543,/title/tt6320628/,,"Campo de S. Basegio, Venice, Veneto, Italy","(Campo R. Sterno, the class is going to take a bus to Prague)","Campo de San Basegio, Dorsoduro, Venezia-Murano-Burano, Venezia, Veneto, Italia",45.43121225,12.32081502196758
544,/title/tt6320628/,,"Divadlo na Vinohradech, Prague, Czech Republic",(Opera Theatre scene),"Divadlo na Vinohradech, Ibsenova, Vinohrady, Praha, okres Hlavní město Praha, Hlavní město Praha, Praha, 120 00, Česká republika",50.076337800000005,14.437116709025648
545,/title/tt5691552/,,"20th Century Fox Studios - 10201 Pico Blvd., Century City, Los Angeles, California, USA",(studio),,,
546,/title/tt0173886/,,"St. Helens, Oregon, USA",,"Saint Helens, Columbia County, Oregon, 97051, United States of America",45.8640034,-122.8064922
547,/title/tt0173886/,,"Beaverton, Oregon, USA",,"Beaverton, Washington County, Oregon, United States of America",45.4871723,-122.8037804
548,/title/tt0173886/,,"3814 SE Martins St, Portland, Oregon, USA",(Aggie's house),"3814, Southeast Martins Street, Eastmoreland, Portland, Multnomah County, Oregon, 97202, United States of America",45.478226250000006,-122.62327829984537
549,/title/tt4532368/,,"200-8035 Glenwood Drive, Burnaby, British Columbia, Canada",,,,
550,/title/tt4532368/,,"British Columbia, Canada",,"British Columbia, Canada",55.001251,-125.002441
551,/title/tt4912910/,,New Zealand,(Helicopter chase scenes and Kashmir valley village),New Zealand / Aotearoa,-41.5000831,172.8344077
552,/title/tt4912910/,,Norway,,"Norge, Namsos, Trøndelag, Norge",64.5731537,11.52803643954819
553,/title/tt4912910/,,"Le Grand Palais, Paris, France",(Ethan abseiling from rooftop during party),"Grand Palais, Avenue de Selves, Quartier des Champs-Élysées, Paris, Île-de-France, France métropolitaine, 75008, France",48.86616135,2.312222959669435
554,/title/tt4912910/,,"St Paul's Cathedral, St Paul's Churchyard, City of London, England, UK",(Church chase sequence),,,
555,/title/tt4912910/,,"Arc de Triomphe, Paris 8, Paris, France",(Ethan riding motorcycle),"Arc de Triomphe, Place Charles de Gaulle, Quartier de Chaillot, Paris, Île-de-France, France métropolitaine, 75008, France",48.8737791,2.295037226037673
556,/title/tt4912910/,,"Paris, France",,"Paris, Île-de-France, France métropolitaine, 75004, France",48.8566969,2.3514616
557,/title/tt4912910/,,"Abu Dhabi, United Arab Emirates",(HALO jump scenes),"أبوظبي, أبو ظبي, United Arab Emirates",24.4747961,54.3705762
558,/title/tt4912910/,,"Tate Modern, Bankside, London, England, UK",(Walker runs towards his helicopter pickup - externals),"Tate Modern, Bankside, Southwark, London Borough of Southwark, London, Greater London, England, SE1 9TG, United Kingdom",51.507456649999995,-0.09934365815375101
559,/title/tt4912910/,,"Viaduc d'Austerlitz, Paris, France",,"Viaduc d'Austerlitz, Port de la Rapée, Quartier des Quinze-Vingts, Paris, Île-de-France, France métropolitaine, 75012, France",48.84354725,2.367872603611999
560,/title/tt4912910/,,"Blackfriars Station, London, England, UK",(Ethan runs along the roof across the river),"London Blackfriars, Queen Victoria Street, Blackfriars, City of London, Greater London, England, EC4V 4DY, United Kingdom",51.5104871,-0.1032417
561,/title/tt4912910/,,"RAF Brize Norton, Carterton, Oxfordshire, England, UK",(German Airbase),"RAF Brize Norton, Main Road, Alvescot, West Oxfordshire, Oxfordshire, South East, England, OX18 2PU, United Kingdom",51.7511241,-1.5793933009655508
562,/title/tt4912910/,,"Milford Sound, Fiordland National Park, Southland, New Zealand",(opening scene: dream sequence),,,
563,/title/tt4912910/,,France,,France,46.603354,1.8883335
564,/title/tt4912910/,,UK,,United Kingdom,54.7023545,-3.2765753
565,/title/tt4912910/,,"New York City, New York, USA",(Map and Streets Scenes),"New York, United States of America",40.7127281,-74.0060152
566,/title/tt4912910/,,"Pont de Bercy, Paris 12, Paris, France",(police convoy crossing the Seine),"Pont de Bercy, Quartier de la Salpêtrière, Paris, Île-de-France, France métropolitaine, 75013, France",48.8385921,2.3756371
567,/title/tt4912910/,,"Quai d'Austerlitz, Paris 13, Paris, France",(Solomon Lane's police convoy ambushed; Ethan rears truck onto the street),"Quai d'Austerlitz, Quartier de la Salpêtrière, Paris, Île-de-France, France métropolitaine, 75013, France",48.8376857,2.3735342
568,/title/tt4912910/,,"Leavesden Studios, Leavesden, Hertfordshire, England, UK",(studio),"Warner Bros. Studios Leavesden, Abbots Langley, Leavesden, Hertfordshire, East of England, England, WD25 7LP, United Kingdom",51.68980175,-0.4226993868476693
569,/title/tt0486655/,,"Arlington Row, Bibury, Cirencester, Gloucestershire, England, UK",(street outside Victoria's house),,,
570,/title/tt0486655/,,"Castle Combe, Wiltshire, England, UK",(street scenes in Wall),"Castle Combe, Wiltshire, South West England, England, SN14 7, United Kingdom",51.4929672,-2.230289
571,/title/tt0486655/,,"Britons Arms coffee shop, Elm Hill, Norwich, Norfolk, England, UK",(The Slaughtered Prince pub),,,
572,/title/tt0486655/,,"Kinlochewe, Highland, Scotland, UK",(path),"Kinlochewe, Highland, Scotland, IV22 2PA, United Kingdom",57.6040207,-5.3029818
573,/title/tt0486655/,,"Loch Lomond, Argyll and Bute, Scotland, UK",,"Luss Village, Loch Lomond A82 Bus Bay, A82, Collychippen, Luss, Argyll and Bute, Scotland, G83 8FB, United Kingdom",56.1005705,-4.6425873
574,/title/tt0486655/,,"Stowe Landscape Gardens, Stowe School, Buckingham, Buckinghamshire, England, UK",,,,
575,/title/tt0486655/,,"Keeley Hire Warehouse, Hoddesdon, Hertfordshire, UK",(Captain Shakespeare barters the lightning with Ferdy the Fence),,,
576,/title/tt0486655/,,"Fairy Hills, Skye, Highland, Scotland, UK",(Lamia arrives at Ditchwater Sal's caravan),,,
577,/title/tt0486655/,,"Cotswolds, Oxfordshire, England, UK",,"Cotswolds 39, 39, New Street, Chipping Norton, West Oxfordshire, Oxfordshire, South East, England, OX7 5LP, United Kingdom",51.9418617,-1.5477133500000007
578,/title/tt0486655/,,"Menwith Hill, North Yorkshire, England, UK",,"RAF Menwith Hill, Felliscliffe, Harrogate, North Yorkshire, Yorkshire and the Humber, England, HG3 2RF, United Kingdom",54.0087924,-1.6862057635572945
579,/title/tt0486655/,,"Apsley, Berkhamsted, Hertfordshire, England, UK",,,,
580,/title/tt0486655/,,"Hemel Hempstead, Hertfordshire, England, UK",,"Hemel Hempstead, Hertfordshire, East of England, England, HP1 1EW, United Kingdom",51.7511784,-0.472528
581,/title/tt1446714/,,"The Storr, Isle of Skye, Highland, Scotland, UK",,,,
582,/title/tt1446714/,,"Hekla, Rangárvallasýsla, Iceland",,,,
583,/title/tt1446714/,,"Ciudad de la Luz, Alicante, Comunidad Valenciana, Spain",(water scenes),,,
584,/title/tt1446714/,,"Albert R. Broccoli 007 Stage, Pinewood Studios, Iver Heath, Buckinghamshire, England, UK",(studio),,,
585,/title/tt1446714/,,"Pinewood Toronto Studios, Port Lands, Toronto, Ontario, Canada",,"Pinewood Toronto Studios, Munition Street, Toronto—Danforth, Old Toronto, Toronto, Golden Horseshoe, Ontario, M4M 3P2, Canada",43.6465663,-79.35106457413957
586,/title/tt1446714/,,"Scotland, UK",,"Scotland, United Kingdom",56.7861112,-4.1140518
587,/title/tt1446714/,,Spain,,España,39.3262345,-4.8380649
588,/title/tt1446714/,,Canada,,Canada,61.0666922,-107.9917071
589,/title/tt1677720/,,"Floodgate Street, Digbeth, Birmingham, England, UK",,"Floodgate Street, Digbeth, Birmingham, West Midlands Combined Authority, West Midlands, England, B5, United Kingdom",52.4764094,-1.883668
590,/title/tt1677720/,,"Birmingham, West Midlands, England, UK",(Location Marshal),"Birmingham, West Midlands Combined Authority, West Midlands, England, United Kingdom",52.4796992,-1.9026911
591,/title/tt1677720/,,"Former Sun Microsystems HQ, Guillemont Park, Minley Road, Fleet, England, UK",(Cafe and Office scenes),,,
592,/title/tt1677720/,,UK,,United Kingdom,54.7023545,-3.2765753
593,/title/tt1677720/,,"New York City, New York, USA",(license plate),"New York, United States of America",40.7127281,-74.0060152
594,/title/tt1677720/,,"Leavesden, Hertfordshire, England, UK",,"Leavesden, Hertfordshire, East of England, England, WD25 7GN, United Kingdom",51.6913926,-0.4144152
595,/title/tt1677720/,,"Fleet, England, UK",,"Fleet, Hart, Hampshire, South East, England, United Kingdom",51.2828601,-0.8316334471979006
596,/title/tt1677720/,,"Birmingham, England, UK",,"Birmingham, West Midlands Combined Authority, West Midlands, England, United Kingdom",52.4796992,-1.9026911
597,/title/tt1677720/,,"London, England, UK",,"London, Greater London, England, United Kingdom",51.5073219,-0.1276474
598,/title/tt8806524/,,"The Sunstone Villa and Vineyard, Santa Ynes, California, USA",(Château Picard),,,
599,/title/tt8806524/,,"Santa Clarita Studios - 25135 Anza Drive, Santa Clarita, California, USA",(studio),,,
600,/title/tt0096928/,,"Showbiz Pizza Place - 8039 N. 35th Avenue, Phoenix, Arizona, USA",(The Ice Cream Parlor),,,
601,/title/tt0096928/,,"Golfland-Sunsplash Waterpark - 155 W. Hampton Avenue, Mesa, Arizona, USA",,,,
602,/title/tt0096928/,,"Southwestern Studios, Carefree, Arizona, USA",,,,
603,/title/tt0096928/,,"Mesa, Arizona, USA",,"Mesa, Maricopa County, Arizona, United States of America",33.4151117,-111.8314773
604,/title/tt0096928/,,"Phoenix, Arizona, USA","(San Dimas, California, USA)","Phoenix, Maricopa County, Arizona, United States of America",33.4484367,-112.0741417
605,/title/tt0096928/,,"Coconino National Forest, Arizona, USA",,"Coconino National Forest, Tempe Camp, Coconino County, Arizona, United States of America",34.9455958,-111.4330018089496
606,/title/tt0096928/,,"Flagstaff, Arizona, USA",(environs),"Flagstaff, Coconino County, Arizona, United States of America",35.1987522,-111.6518229
607,/title/tt0096928/,,"Raging Waters, San Dimas, California, USA",,"Raging Waters, San Dimas Avenue, San Dimas, Los Angeles County, California, 91773, United States of America",34.094317950000004,-117.8111071331366
608,/title/tt0096928/,,"San Dimas High School - 800 W. Corvina Boulevard, San Dimas, California, USA",,,,
609,/title/tt0096928/,,"Six Points Texas, Backlot, Universal Studios - 100 Universal City Plaza, Universal City, California, USA",,,,
610,/title/tt0096928/,,"California, USA",,"California, United States of America",36.7014631,-118.7559974
611,/title/tt0096928/,,USA,,United States,39.7837304,-100.4458825
612,/title/tt1831804/,,"British Columbia, Canada",,"British Columbia, Canada",55.001251,-125.002441
613,/title/tt0437086/,,"Dallas, Texas, USA",,"Dallas, Dallas County, Texas, United States of America",32.7762719,-96.7968559
614,/title/tt0437086/,,"Chicago, Illinois, USA",(background scenes),"Chicago, Cook County, Illinois, United States of America",41.8755616,-87.6244212
615,/title/tt0369610/,,"New Orleans, Louisiana, USA",,"New Orleans, Orleans Parish, Louisiana, United States of America",29.9499323,-90.0701156
616,/title/tt0369610/,,"Manoa Falls, Oahu, Hawaii, USA",(waterfall jump),,,
617,/title/tt0369610/,,"Lawai, Kaua'i, Hawaii, USA",,"Lawai, Kauaʻi County, Hawaii, 96765, United States of America",21.9262362,-159.507987
618,/title/tt0369610/,,"Manawaiopuna Falls, Hanapepe Valley, Kaua'i, Hawaii, USA",,,,
619,/title/tt0369610/,,"The Honolulu Zoo, 151 Kapahulu Ave, Honolulu, Hawaii, USA",(Exhibits),"Honolulu Zoo, Lemon Road, Waikiki, Honolulu, Honolulu County, Hawaii, 96815-2518, United States of America",21.271164050000003,-157.81892222467272
620,/title/tt0369610/,,"Oahu, Hawaii, USA",(filmed on location on),"Oʻahu, Mililani, Honolulu County, Hawaii, United States of America",21.48349555,-158.03640389298
621,/title/tt0369610/,,"Na Pali Coast State Park, Kauai, Hawaii, USA",(Approach to Isla Nublar),"Nā Pali Coast State Wilderness Park, Kōkeʻe Road, Kauaʻi County, Hawaii, United States of America",22.167768600000002,-159.64408709663263
622,/title/tt0369610/,,"Hawaii Convention Center - 1801 Kalakaua Avenue, Honolulu, Hawaii, USA",(lobby),"Hawaii Convention Center, 1801, Kalākaua Avenue, McCully, Honolulu, Honolulu County, Hawaii, 96815, United States of America",21.28967435,-157.8365797262847
623,/title/tt0369610/,,"Marin County, California, USA",,"Marin County, California, United States of America",38.0409144,-122.6199638
624,/title/tt0369610/,,"New York City, New York, USA",,"New York, United States of America",40.7127281,-74.0060152
625,/title/tt0369610/,,"Big Easy Studios - 13800 Old Gentilly Rd, New Orleans, Louisiana, USA",(Louisiana sound stages provided by),,,
626,/title/tt0080684/,,"Elstree Studios, Borehamwood, Hertfordshire, England, UK",(studio),"Elstree Studios, Shenley Road, Elstree and Borehamwood, Hertsmere, Hertfordshire, East of England, England, WD6 1JG, United Kingdom",51.657052050000004,-0.2675206399488197
627,/title/tt0080684/,,"San Francisco Armory, 1800 Mission Street, San Francisco, California, USA",(partial explosion scenes),"San Francisco Armory, 1800, Mission Street, Mission District, San Francisco, San Francisco City and County, California, 94103, United States of America",37.7678406,-122.42060619032594
628,/title/tt0974015/,,"Leavesden Studios, Leavesden, Hertfordshire, England, UK",(studio),"Warner Bros. Studios Leavesden, Abbots Langley, Leavesden, Hertfordshire, East of England, England, WD25 7LP, United Kingdom",51.68980175,-0.4226993868476693
629,/title/tt0974015/,,"Skrunda, Latvia",(Antagonist's lair),"Skrunda, Skrundas novads, Kurzeme, LV-3326, Latvija",56.6768396,22.0156057
630,/title/tt0974015/,,"Los Angeles, California, USA",,"Los Angeles, Los Angeles County, California, United States of America",34.0536909,-118.2427666
631,/title/tt0974015/,,"Cardington Airship Hangars, Bedfordshire, England, UK",(Various green screen scenes),,,
632,/title/tt0974015/,,USA,,United States,39.7837304,-100.4458825
633,/title/tt0974015/,,UK,,United Kingdom,54.7023545,-3.2765753
634,/title/tt0974015/,,"England, UK",,"England, United Kingdom",52.7954791,-0.5402402866174321
635,/title/tt0974015/,,Monaco,(filmed on location in),Monaco,43.7323492,7.4276832
636,/title/tt0974015/,,"Central Criminal Courts, The Old Bailey, London EC4M 7EH, United Kingdom","(Terrorists enter the court with bomb, Wonder Woman saved)",,,
637,/title/tt4154664/,,"Oxnard, California, USA",(performance venue),"Oxnard, Ventura County, California, United States of America",34.1976308,-119.1803818
638,/title/tt4154664/,,"Simi Valley, California, USA",,"Simi Valley, Ventura County, California, United States of America",34.2694474,-118.781482
639,/title/tt4154664/,,"Los Angeles, California, USA",,"Los Angeles, Los Angeles County, California, United States of America",34.0536909,-118.2427666
640,/title/tt4154664/,,"Rosamond, California, USA",(Pancho's Bar),"Rosamond, Kern County, California, 93560, United States of America",34.8641446,-118.1634075
641,/title/tt4154664/,,"California, USA",,"California, United States of America",36.7014631,-118.7559974
642,/title/tt4154664/,,USA,,United States,39.7837304,-100.4458825
643,/title/tt4154664/,,"New York City, New York, USA",,"New York, United States of America",40.7127281,-74.0060152
644,/title/tt2395427/,,"Johannesburg, South Africa",(Hulkbuster Street Scenes),"Johannesburg, City of Johannesburg Metropolitan Municipality, Gauteng, 2001, South Africa",-26.205,28.049722
645,/title/tt2395427/,,"Aosta, Valle d'Aosta, Italy","(Novi Grad, capital city of Sokovia)","Aosta, Valle d'Aosta/Vallée d'Aoste, 11100, Italia",45.7370885,7.3196649
646,/title/tt2395427/,,"Sainsburys Centre for Visual Arts, University of East Anglia, Norwich, Norfolk, England, UK",(Avengers Facility Exteriors And Interiors),,,
647,/title/tt2395427/,,"Dover Castle Tunnels, Dover, Kent, England, UK",(Hydra Research Base Interior),,,
648,/title/tt2395427/,,"Bourne Woods, Farnham, Surrey, England, UK",(Motorbike Sequence),,,
649,/title/tt2395427/,,"Floating Island, Seoul, South Korea",,,,
650,/title/tt2395427/,,"Cheongdam Bridge, Seoul, South Korea",(Captain America Descends Onto Ultron's Truck),"청담대교, 강남구, 자양3동, 05094, 대한민국",37.5266132,127.06464
651,/title/tt2395427/,,"Shepperton Studios, Shepperton, Surrey, England, UK",(studio) (studios),,,
652,/title/tt2395427/,,"Mapo Bridge, Seoul, South Korea",(Captain America Hangs Onto Truck By Broken Door),"마포대교, 여의동, 영등포구, 07337, 대한민국",37.5301106,126.9311596
653,/title/tt2395427/,,"Rivoli Ballroom, 350 Brockley Road, Crofton Park, London, England, UK",(Captain America flashback scene),"Rivoli Ballroom, 346-350, Brockley Road, Crofton Park, Brockley, London Borough of Lewisham, London, Greater London, England, SE4 2BY, United Kingdom",51.45533505,-0.03740645234640918
654,/title/tt2395427/,,"B Stage, Shepperton Studios, Shepperton, Surrey, England, UK",,,,
655,/title/tt2395427/,,"D Stage, Shepperton Studios, Shepperton, Surrey, England, UK",,,,
656,/title/tt2395427/,,"F Stage, Shepperton Studios, Shepperton, Surrey, England, UK",,,,
657,/title/tt2395427/,,"K Stage, Shepperton Studios, Shepperton, Surrey, England, UK",,,,
658,/title/tt2395427/,,"Via Roma Bridge, Pont-saint-martin Aosta, Italy",(Sokovia High Bridge),"Via Roma, Maddalena, Pont-Saint-Martin, Valle d'Aosta/Vallée d'Aoste, 11026, Italia",45.5995388,7.8000701
659,/title/tt2395427/,,"Via Martorey & Via Caduti della Libertà 11029 Verrès, AO, Italy",(Hawkeye Takes Aim At Ultron-Bots In Sokovia),,,
660,/title/tt0295297/,,"Glenfinnan Viaduct, Fort William, Highland, Scotland, UK",,,,
661,/title/tt0295297/,,"Alnwick Castle, Alnwick, Northumberland, England, UK",,"Alnwick Castle, Bailiffgate, Alnwick, Northumberland, North East England, England, NE66 1NQ, United Kingdom",55.41546099999999,-1.7065170268123597
662,/title/tt0295297/,,"Black Park, Iver Heath, Buckinghamshire, England, UK",(dark forest),"Black Park, Wexham, Iver Heath, Buckinghamshire, South East, England, United Kingdom",51.542492100000004,-0.5441123704462851
