,Code,Show Name,Location,Scene,geocodedLocation,latitude,longitude
0,/title/tt6905542/,The Dark Crystal: Age of Resistance,UK,,United Kingdom,54.7023545,-3.2765753
1,/title/tt0435625/,The Descent,"Perth and Kinross, Scotland, UK",,"Perth and Kinross, Scotland, United Kingdom",56.5,-3.75
2,/title/tt0435625/,The Descent,"Berkhamsted, Hertfordshire, England, UK",,"Berkhamsted, Dacorum, Hertfordshire, East of England, England, United Kingdom",51.75514375,-0.5557681023902674
3,/title/tt0435625/,The Descent,"Tring, Hertfordshire, England, UK",,"Tring, Hertfordshire, East of England, England, HP23 5AB, United Kingdom",51.7940357,-0.6609205
4,/title/tt0816462/,Conan the Barbarian,Bulgaria,,Бългaрия,42.6073975,25.4856617
5,/title/tt0816462/,Conan the Barbarian,"Blue Grotto, Zurrieq, Malta",(sea side)                        ,"Taħt il-Ħnejja, Triq Wied iż-Żurrieq, Wied iż-Żurrieq, Il-Qrendi, Malta, QRD 3043, Malta",35.8212727,14.456547
6,/title/tt0816462/,Conan the Barbarian,"Vitosha, Bulgaria",,"Витоша, Перник, България",42.56,23.28
7,/title/tt0816462/,Conan the Barbarian,Malta,,Malta,35.8885993,14.4476911
8,/title/tt0816462/,Conan the Barbarian,"New Boyana Film Studios, Sofia, Bulgaria",,,,
9,/title/tt0316654/,Spider-Man 2,"Spring Street Towers - 650 S. Spring Street, Downtown, Los Angeles, California, USA",(bank)                        ,,,
10,/title/tt0316654/,Spider-Man 2,"Ivar Theatre - 1605 N. Ivar Avenue, Hollywood, Los Angeles, California, USA",,"Ivar Theatre, 1605, Ivar Avenue, Hollywood, Los Angeles, Los Angeles County, California, 90028, United States of America",34.10007615000001,-118.32851667899735
11,/title/tt0316654/,Spider-Man 2,"Barclay Inter-Continental Hotel - 111 E. 48th Street, Manhattan, New York City, New York, USA",,,,
12,/title/tt0316654/,Spider-Man 2,"Chicago, Illinois, USA",(train)                        ,"Chicago, Cook County, Illinois, United States of America",41.8755616,-87.6244212
13,/title/tt0316654/,Spider-Man 2,"Cypress Hills Cemetery, Brooklyn, New York City, New York, USA",,"Cypress Hills, Jamaica Avenue, Brooklyn, Kings County, New York, 11208, United States of America",40.6899088,-73.8726597
14,/title/tt0316654/,Spider-Man 2,"Sony Pictures Studios - 10202 W. Washington Blvd., Culver City, California, USA",(studio)                        ,,,
15,/title/tt0316654/,Spider-Man 2,"Sunnyside, Queens, New York City, New York, USA",,"Sunnyside, Queens County, New York, 11101, United States of America",40.7398242,-73.9354153
16,/title/tt0316654/,Spider-Man 2,"Forest Hills, Queens, New York City, New York, USA",,"Forest Hills, 71st Avenue, Forest Hills Gardens, Queens County, New York, 11375, United States of America",40.7195942,-73.8448553
17,/title/tt1320253/,The Expendables,Brazil,,Brasil,-10.3333333,-53.2
18,/title/tt1320253/,The Expendables,"Rio de Janeiro, Brazil",,"Rio de Janeiro, Região Geográfica Imediata do Rio de Janeiro, Região Metropolitana do Rio de Janeiro, Região Geográfica Intermediária do Rio de Janeiro, Rio de Janeiro, Região Sudeste, Brasil",-22.9110137,-43.2093727
19,/title/tt1320253/,The Expendables,"Louisiana, USA",,"Louisiana, United States of America",30.8703881,-92.007126
20,/title/tt1320253/,The Expendables,"Fort Macomb, New Orleans, Louisiana, USA",(Barney's fight scene)                        ,"Fort Macomb State Historic Site, Chef Menteur, New Orleans, Orleans Parish, Louisiana, United States of America",30.06526375,-89.80531559075533
21,/title/tt1320253/,The Expendables,USA,,United States,39.7837304,-100.4458825
22,/title/tt1320253/,The Expendables,"Los Angeles, California, USA",,"Los Angeles, Los Angeles County, California, United States of America",34.0536909,-118.2427666
23,/title/tt3663490/,The Librarians,"Portland, Oregon, USA",,"Portland, Multnomah County, Oregon, United States of America",45.5202471,-122.6741949
24,/title/tt3475734/,Agent Carter,"Los Angeles, California, USA",,"Los Angeles, Los Angeles County, California, United States of America",34.0536909,-118.2427666
25,/title/tt3475734/,Agent Carter,"Warner Brothers Burbank Studios - 4000 Warner Boulevard, Burbank, California, USA",(street scenes)                        ,,,
26,/title/tt0120783/,The Parent Trap,"Napa Valley, California, USA",(Staglin Family Vineyard)                        ,"Napa, Napa County, California, 94559, United States of America",38.2971367,-122.2855293
27,/title/tt0120783/,The Parent Trap,"23 Egerton Terrace, Kensington, London, England, UK",(exterior: Elizabeth James Home)                        ,"23-41, Egerton Terrace, Hans Town, Royal Borough of Kensington and Chelsea, London, Greater London, England, SW3 2BT, United Kingdom",51.49607045,-0.16609411955584424
28,/title/tt0120783/,The Parent Trap,"Lake Gregory, California, USA",,"Lake Gregory, Horst Court, Arrowhead Highlands, San Bernardino County, California, 92325, United States of America",34.24382275,-117.26763037399245
29,/title/tt0120783/,The Parent Trap,"RMS Queen Mary - 1126 Queens Highway, Long Beach, California, USA",,,,
30,/title/tt0120783/,The Parent Trap,"The Langham Huntington Hotel - 1401 South Oak Knoll Avenue, Pasadena, California, USA",(interior: Stafford Hotel)                        ,,,
31,/title/tt0120783/,The Parent Trap,"Shepperton Studios, Shepperton, Surrey, England, UK",,,,
32,/title/tt0120783/,The Parent Trap,"Santa Clarita, California, USA",,"Santa Clarita, Los Angeles County, California, United States of America",34.3916641,-118.542586
33,/title/tt0120783/,The Parent Trap,"Long Beach Airport - 4101 E. Donald Douglas Drive, Long Beach, California, USA",,,,
34,/title/tt0120783/,The Parent Trap,"Los Angeles, California, USA",,"Los Angeles, Los Angeles County, California, United States of America",34.0536909,-118.2427666
35,/title/tt0120783/,The Parent Trap,"California, USA",,"California, United States of America",36.7014631,-118.7559974
36,/title/tt1133985/,Green Lantern,"San Diego, California, USA",(aeriel city shots)                        ,"San Diego, San Diego County, California, United States of America",32.7174209,-117.1627714
37,/title/tt1133985/,Green Lantern,"Main St & St Mary St, Madisonville, Louisiana, USA",,"Saint Mary Street, Madisonville, St. Tammany Parish, Louisiana, 70447, United States of America",30.4070247,-90.1578572
38,/title/tt1133985/,Green Lantern,"Warner Brothers Burbank Studios - 4000 Warner Boulevard, Burbank, California, USA",(studio)                        ,,,
39,/title/tt1133985/,Green Lantern,"Soggy Dry Lake, Lucerne Valley, California, USA",,,,
40,/title/tt1133985/,Green Lantern,"Los Angeles, California, USA",(reshoots)                        ,"Los Angeles, Los Angeles County, California, United States of America",34.0536909,-118.2427666
41,/title/tt1133985/,Green Lantern,USA,,United States,39.7837304,-100.4458825
42,/title/tt1133985/,Green Lantern,"Burbank, California, USA",,"Burbank, Los Angeles County, California, United States of America",34.1816482,-118.3258554
43,/title/tt0480249/,I Am Legend,"USS Intrepid, New York City, New York, USA",(golf practice)                        ,"USS Intrepid, 1, Hudson River Park Esplanade, Hell's Kitchen, Manhattan Community Board 4, Manhattan, New York County, New York, 10019, United States of America",40.76473335,-74.00083980660943
44,/title/tt0480249/,I Am Legend,"West Amwell, New Jersey, USA",,"Amwell, East Amwell Township, Hunterdon County, New Jersey, 08525, United States of America",40.4314941,-74.7521061
45,/title/tt0480249/,I Am Legend,"Dumbo, Brooklyn, New York City, New York, USA",,"DUMBO, Brooklyn, Kings County, New York, 11201-1832, United States of America",40.7029052,-73.9901167
46,/title/tt0480249/,I Am Legend,"Washington Heights, Manhattan, New York City, New York, USA",,"Washington Heights, Manhattan Community Board 12, Manhattan, New York County, New York, United States of America",40.8401984,-73.9402214
47,/title/tt0480249/,I Am Legend,"11 Washington Square North, Greenwich Village, Manhattan, New York City, New York, USA",(exteriors: Robert Neville's house)                        ,"11, Washington Square North, Greenwich Village, Manhattan Community Board 2, Manhattan, New York County, New York, 10003, United States of America",40.7313355,-73.9965091
48,/title/tt0480249/,I Am Legend,"Herald Square, Manhattan, New York City, New York, USA",(Neville driving)                        ,"Herald Square, Manhattan Community Board 5, Manhattan, New York County, New York, United States of America",40.7495023,-73.9879917140461
49,/title/tt0480249/,I Am Legend,"New York City, New York, USA",,"New York, United States of America",40.7127281,-74.0060152
50,/title/tt0480249/,I Am Legend,"20 East Fourth Street, Manhattan, New York City, New York, USA",(video store)                        ,,,
51,/title/tt0480249/,I Am Legend,"Temple of Dendur, Metropolitan Museum of Art, Manhattan, New York City, New York, USA",(Neville fishing)                        ,,,
52,/title/tt0480249/,I Am Legend,"Los Angeles, California, USA",,"Los Angeles, Los Angeles County, California, United States of America",34.0536909,-118.2427666
53,/title/tt0480249/,I Am Legend,"Madison Square Park, Manhattan, New York City, New York, USA",(deer hunting)                        ,"Madison Square Park, Manhattan, New York County, New York, United States of America",40.74220365,-73.9880191041057
54,/title/tt0480249/,I Am Legend,"Mt. Airy, New Jersey, USA",(Vermont survivors settlement)                        ,"Mount Airy, West Amwell Township, Hunterdon County, New Jersey, 08530, United States of America",40.3987166,-74.9071106
55,/title/tt0080455/,The Blues Brothers,"Dixie Square Mall - 151st Street & Dixie Highway, Harvey, Illinois, USA",(Shopping Mall Complex)                        ,,,
56,/title/tt0080455/,The Blues Brothers,"Pilgrim Baptist Church - 9114 S. Burley Avenue, South Chicago, Chicago, Illinois, USA",(Church scene with James Brown)                        ,,,
57,/title/tt0080455/,The Blues Brothers,"22 W. Van Buren Street, The Loop, Downtown, Chicago, Illinois, USA",(Jake and Elwood's apartment)                        ,,,
58,/title/tt0080455/,The Blues Brothers,"West Wind Motel - 28W721 Roosevelt Rd., West Chicago, Illinois, USA",(Motel scene with Twiggy)                        ,,,
59,/title/tt0080455/,The Blues Brothers,"Chez Paul Restaurant - 660 N. Rush Street, Near North Side, Chicago, Illinois, USA",(Restaurant)                        ,,,
60,/title/tt0080455/,The Blues Brothers,"Cooks Picnic Grove, Bangs Lake, Wauconda, Illinois, USA",(beach scene)                        ,,,
61,/title/tt0080455/,The Blues Brothers,"Joliet Prison - Collins Street, Joliet, Illinois, USA",(Prison)                        ,,,
62,/title/tt0080455/,The Blues Brothers,"Daniel Hoan Memorial Bridge, Milwaukee, Wisconsin, USA",(Car chase with Nazis - car hangs off bridge)                        ,,,
63,/title/tt0080455/,The Blues Brothers,"Hollywood Palladium - 6215 Sunset Blvd., Hollywood, Los Angeles, California, USA",(interiors: Palace Hotel Ballroom - First Performance of the Blues Brothers)                        ,,,
64,/title/tt0080455/,The Blues Brothers,"Intersection of W. Talcott & Devon Ave, Park Ridge, Illinois, USA",(Police chase & spin out)                        ,,,
65,/title/tt0080455/,The Blues Brothers,"East 95th Street Bridge, South Deering, Chicago, Illinois, USA",(Bluesmobile car jumps over bridge)                        ,"East 95th Street, South Deering, Chicago, Cook County, Illinois, 60617, United States of America",41.7223644,-87.583645
66,/title/tt0080455/,The Blues Brothers,"1623 S. 51st Court, Cicero, Illinois, USA",(Mrs. Tarantino's House)                        ,,,
67,/title/tt0080455/,The Blues Brothers,"Mannheim Road, Cook County, Illinois, USA",(Holiday Inn - Murph and the Magic Tones)                        ,"Mannheim Road, Franklin Park, Leyden Township, Cook County, Illinois, 60132, United States of America",41.9432782,-87.8856526
68,/title/tt0080455/,The Blues Brothers,"Singapore Lake, Backlot, Universal Studios - 100 Universal City Plaza, Universal City, California, USA",(Good 'Ole Boys motor-home crashes into lake)                        ,,,
69,/title/tt0080455/,The Blues Brothers,"North Lagoon, Jackson Park, Hyde Park, Chicago, Illinois, USA",,,,
70,/title/tt0080455/,The Blues Brothers,"South Side, Chicago, Illinois, USA",,"S, Lakefront Trail, Near South Side, South Loop, Chicago, Cook County, Illinois, 60605, United States of America",41.856439,-87.6110589
71,/title/tt0080455/,The Blues Brothers,"Van Buren & LaSalle Streets, The Loop, Downtown, Chicago, Illinois, USA",,,,
72,/title/tt0080455/,The Blues Brothers,"Hollywood, Los Angeles, California, USA",,"Hollywood, Los Angeles, Los Angeles County, California, 90028-8127, United States of America",34.0980031,-118.329523
73,/title/tt0080455/,The Blues Brothers,"Chicago, Illinois, USA",,"Chicago, Cook County, Illinois, United States of America",41.8755616,-87.6244212
74,/title/tt0080455/,The Blues Brothers,"20 E. Randolph Street, Downtown, Chicago, Illinois, USA",(Bus Station)                        ,,,
75,/title/tt0080455/,The Blues Brothers,"Harvey, Illinois, USA",,"Harvey, Thornton Township, Cook County, Illinois, 60426, United States of America",41.6100344,-87.6467132
76,/title/tt0080455/,The Blues Brothers,"City Hall - 121 N. LaSalle Street, The Loop, Downtown, Chicago, Illinois, USA",(Siege at City Hall-County Building - Steven Spielberg cameo)                        ,,,
77,/title/tt0080455/,The Blues Brothers,"South Lagoon, Jackson Park, Hyde Park, Chicago, Illinois, USA",,,,
78,/title/tt0080455/,The Blues Brothers,"Park Ridge, Illinois, USA",,"Park Ridge, Cook County, Illinois, United States of America",42.0112329,-87.8406031
79,/title/tt0080455/,The Blues Brothers,USA,,United States,39.7837304,-100.4458825
80,/title/tt3040964/,The Jungle Book,"Los Angeles, California, USA",,"Los Angeles, Los Angeles County, California, United States of America",34.0536909,-118.2427666
81,/title/tt1365519/,Tomb Raider,"Wilton House, Wilton, Salisbury, Wiltshire, England, UK",,"Wilton, Wiltshire, South West England, England, SP2 0JP, United Kingdom",51.0805315,-1.8607051
82,/title/tt1365519/,Tomb Raider,"Epping, Cape Town, Western Cape, South Africa",,"Epping Industria 1, Cape Town, City of Cape Town, Western Cape, South Africa",-33.9333695,18.534577
83,/title/tt1365519/,Tomb Raider,"London, England, UK",,"London, Greater London, England, United Kingdom",51.5073219,-0.1276474
84,/title/tt1365519/,Tomb Raider,"Warner Bros. Studios, Leavesden, Hertfordshire, England, UK",(studio)                        ,"Warner Bros Studios Leavesden, Essex Lane, Warner Bros. Studios Leavesden, Abbots Langley, Three Rivers, Hertfordshire, East of England, England, WD25 7LP, United Kingdom",51.6934642,-0.4205376395864987
85,/title/tt1365519/,Tomb Raider,South Africa,,South Africa,-28.8166236,24.991639
86,/title/tt1365519/,Tomb Raider,"Cape Town, Western Cape, South Africa",,"Cape Town, City of Cape Town, Western Cape, 8001, South Africa",-33.928992,18.417396
87,/title/tt0114148/,Pocahontas,"Walt Disney Studios Motion Pictures - 500 S. Buena Vista Street, Burbank, California, USA",,,,
88,/title/tt0114148/,Pocahontas,"Burbank, California, USA",,"Burbank, Los Angeles County, California, United States of America",34.1816482,-118.3258554
89,/title/tt1628033/,Top Gear,"Dunsfold Park Aerodrome, Dunsfold Park, Dunsfold, Surrey, England, UK",(studio)                        ,,,
90,/title/tt1628033/,Top Gear,"Black Hangar Studios, Alton GU34 5SR, United Kingdom",,,,
91,/title/tt6475714/,Monster Hunter,"Western Cape, South Africa",,"Western Cape, South Africa",-33.546977,20.72753
92,/title/tt6475714/,Monster Hunter,"Cape Town, Western Cape, South Africa",,"Cape Town, City of Cape Town, Western Cape, 8001, South Africa",-33.928992,18.417396
93,/title/tt5807780/,Spider-Man,"New York City, New York, USA",,"New York, United States of America",40.7127281,-74.0060152
94,/title/tt5807780/,Spider-Man,"Chicago Illinois, USA",(Additional Buildings)                        ,"Chicago, Cook County, Illinois, United States of America",41.8755616,-87.6244212
95,/title/tt5807780/,Spider-Man,China,,中国,35.000074,104.999927
96,/title/tt5807780/,Spider-Man,"Shanghai, China",,"上海市, China 中国",31.2322758,121.4692071
97,/title/tt1905041/,Fast & Furious 6,"Tenerife, Canary Islands, Spain",,"Tenerife, La Orotava, Santa Cruz de Tenerife, Canarias, España",28.2935785,-16.621447121144122
98,/title/tt1905041/,Fast & Furious 6,"Liverpool, Merseyside, England, UK",(Portions of the London chase scenes filmed around Water Street.)                        ,,,
99,/title/tt1905041/,Fast & Furious 6,"Wembley Stadium, Wembley, London, England, UK",,"Wembley Stadium, Royal Route, London Borough of Brent, London, Greater London, England, HA9 0BU, United Kingdom",51.55606945,-0.27960339379401444
100,/title/tt1905041/,Fast & Furious 6,"Puente de Silva, Santa María de Guía, Gran Canaria, Spain",,,,
101,/title/tt1905041/,Fast & Furious 6,"Bentwaters Parks, Rendlesham, Suffolk, England, UK",(Airfield Hardened Aircraft Shelter site)                        ,"Bentwaters Parks, Rendlesham, East Suffolk, Suffolk, East of England, England, United Kingdom",52.123254849999995,1.4303430013580778
102,/title/tt1905041/,Fast & Furious 6,"Echo Park, Los Angeles, California, USA",,"Echo Park, Los Angeles, Los Angeles County, California, United States of America",34.0779819,-118.2567824
103,/title/tt1905041/,Fast & Furious 6,"Longcross Studios, Chobham Lane, Longcross, Surrey, England, UK",,,,
104,/title/tt1905041/,Fast & Furious 6,"Canary Islands, Spain",,"Canarias, La Orotava, Santa Cruz de Tenerife, Canarias, España",28.2935785,-16.621447121144122
105,/title/tt1905041/,Fast & Furious 6,"722 E Kensington Rd, Los Angeles, California, USA",(Dom's house)                        ,"722, East Kensington Road, Echo Park, Los Angeles, Los Angeles County, California, 90026, United States of America",34.068863050000004,-118.25148819110248
106,/title/tt1905041/,Fast & Furious 6,"A Stage, Shepperton Studios, Shepperton, Surrey, England, UK",,,,
107,/title/tt1905041/,Fast & Furious 6,"D Stage, Shepperton Studios, Shepperton, Surrey, England, UK",,,,
108,/title/tt0078935/,Cannibal Holocaust,"Amazon Rainforest, Colombia",,,,
109,/title/tt0078935/,Cannibal Holocaust,"Guri, Venezuela",(Court house)                        ,"Guri, Alta Vista Norte, Alta Vista Sur, Ciudad Guayana (Puerto Ordaz), Parroquia Universidad, Municipio Caroní, Bolívar, 8050, Venezuela",8.2871451,-62.7317539
110,/title/tt0078935/,Cannibal Holocaust,Colombia,,Colombia,2.8894434,-73.783892
111,/title/tt0078935/,Cannibal Holocaust,"Empire State Building - 350 Fifth Avenue, Manhattan, New York City, New York, USA",,,,
112,/title/tt0078935/,Cannibal Holocaust,"New York City, New York, USA",,"New York, United States of America",40.7127281,-74.0060152
113,/title/tt0078935/,Cannibal Holocaust,"New York, USA",,"New York, United States of America",40.7127281,-74.0060152
114,/title/tt0163025/,Jurassic Park III,"Nevada, USA",,"Nevada, United States of America",39.5158825,-116.8537227
115,/title/tt0163025/,Jurassic Park III,"El Mirage Dry Lake, California, USA",,"El Mirage Dry Lake, Alegre Lane, San Bernardino County, California, United States of America",34.642436599999996,-117.59821798766575
116,/title/tt0163025/,Jurassic Park III,"Occidental College - 1600 Campus Road, Eagle Rock, Los Angeles, California, USA",,"Occidental College, 1600, Campus Road, Eagle Rock, Los Angeles, Los Angeles County, California, 90041, United States of America",34.12719495,-118.20992029989196
117,/title/tt0163025/,Jurassic Park III,"Kern River, California, USA",,"Kern River, Tulare County, California, United States of America",36.6916633,-118.4075848
118,/title/tt0163025/,Jurassic Park III,"South Pasadena, California, USA",,"South Pasadena, Los Angeles County, California, 91030, United States of America",34.1133062,-118.1478291
119,/title/tt0163025/,Jurassic Park III,"Falls Lake, Backlot, Universal Studios - 100 Universal City Plaza, Universal City, California, USA",,,,
120,/title/tt0163025/,Jurassic Park III,"Stage 12, Universal Studios - 100 Universal City Plaza, Universal City, California, USA",,,,
121,/title/tt0163025/,Jurassic Park III,"Stage 27, Universal Studios - 100 Universal City Plaza, Universal City, California, USA",,,,
122,/title/tt0163025/,Jurassic Park III,"Stage 44, Universal Studios - 100 Universal City Plaza, Universal City, California, USA",,,,
123,/title/tt0102798/,Robin Hood: Prince of Thieves,"Hadrian's Wall, Northumberland, England, UK",(Where Robin fights some sheriffs men before arriving at his father's castle)                        ,"Hadrian's Wall, Hexham Road, Heddon-on-the-Wall, Newcastle upon Tyne, Northumberland, North East England, England, NE15 9QY, United Kingdom",54.9964942,-1.7865646
124,/title/tt0102798/,Robin Hood: Prince of Thieves,"Alnwick Castle, Alnwick, Northumberland, England, UK",,"Alnwick Castle, Bailiffgate, Alnwick, Northumberland, North East England, England, NE66 1NQ, United Kingdom",55.41546099999999,-1.7065170268123597
125,/title/tt0102798/,Robin Hood: Prince of Thieves,"Hardraw Force Waterfall, Hardraw, Hawes, North Yorkshire, England, UK",(Where Marion sees Robin swimming)                        ,,,
126,/title/tt0102798/,Robin Hood: Prince of Thieves,"Seven Sisters, East Sussex, England, UK",(Where Robin and Azim land from France)                        ,"Seven Sisters, Crowlink Lane, East Dean and Friston, Wealden, East Sussex, South East, England, BN20 0AZ, United Kingdom",50.7515798,0.1744874
127,/title/tt0102798/,Robin Hood: Prince of Thieves,"Hulne Priory, Northumberland, England, UK",(Maid Marion's home)                        ,"Hulne Priory, Alnwick, Northumberland, North East England, England, NE66 2LL, United Kingdom",55.4347676,-1.7433923
128,/title/tt0102798/,Robin Hood: Prince of Thieves,"Burnham Beeches, Buckinghamshire, England, UK",,"Burnham Beeches, Dukes Drive, Burnham, Farnham Common, Buckinghamshire, South East, England, SL2 3LD, United Kingdom",51.5565286,-0.6327670695416168
129,/title/tt0102798/,Robin Hood: Prince of Thieves,"Metz, Moselle, France",,"Metz, Moselle, Grand Est, France métropolitaine, France",49.1196964,6.1763552
130,/title/tt0102798/,Robin Hood: Prince of Thieves,"Calvados, France",,"Calvados, Normandie, France métropolitaine, France",49.09076485,-0.2413950572279802
131,/title/tt0102798/,Robin Hood: Prince of Thieves,"Church of St Bartholomew the Great, Cloth Fair, Barbican, London EC1A 7JQ, United Kingdom",(Nottingham Cathedral)                        ,,,
132,/title/tt0058150/,Goldfinger,"Swimming Pool, Fontainebleau Hilton Resort - 4441 Collins Avenue, Miami Beach, Florida, USA",(Swimming Pool shots at the Miami Fontainebleau Hotel)                        ,,,
133,/title/tt0058150/,Goldfinger,"Furka Road, Furka Pass, Swiss Alps, Switzerland",(James Bond driving Aston Martin in Switzerland)                        ,,,
134,/title/tt0058150/,Goldfinger,"Stoke Poges Golf Course, Stoke Poges, Buckinghamshire, England, UK","(James Bond plays golf game with Goldfinger at the Royal St George's, Sandwich, Kent)                        ",,,
135,/title/tt0058150/,Goldfinger,"Pilatus Aircraft Ltd., Ennetbürgerstrasse, 6370 Stans, Switzerland",(Auric Enterprises exteriors)                        ,"Pilatus Aircraft Ltd., 101, Ennetbürgerstrasse, Ächerli, Stans, Nidwalden, 6371, Switzerland",46.9736731,8.3804517
136,/title/tt0058150/,Goldfinger,"Simplon Tunnel, Lepontine Alps, Switzerland",(James Bond drives Aston Martin along alpine roads in Switzerland - James Bond meets Tilly Masterson)                        ,,,
137,/title/tt0058150/,Goldfinger,"Harris & Main, Muldraugh, Kentucky, USA",(Drive to Fort Knox)                        ,"Muldraugh, Meade County, Kentucky, 40155, United States of America",37.9369155,-85.99180022364493
138,/title/tt0058150/,Goldfinger,"Lexington, Kentucky, USA",(airport scene)                        ,"Lexington, Fayette County, Kentucky, United States of America",38.0464066,-84.4970393
139,/title/tt0058150/,Goldfinger,"Lucerne, Canton Lucerne, Switzerland",(Auric Enterprises exteriors)                        ,"Luzern, Switzerland",47.0505452,8.3054682
140,/title/tt0058150/,Goldfinger,"Realp, Uri, Switzerland",(presented as alpine road near Geneva)                        ,"Realp, Korporation Ursern, Uri, 6491, Switzerland",46.5988457,8.5020509
141,/title/tt0058150/,Goldfinger,"Hotel Belvedere, Furka Road, Furka Pass, Swiss Alps, Switzerland",(James Bond driving Aston Martin in Switzerland)                        ,,,
142,/title/tt0058150/,Goldfinger,"Pinewood Studios, Iver Heath, Buckinghamshire, England, UK",(studio) (interiors: Fort Knox and Auric Enterprises)                        ,"Pinewood Studios, Pinewood Green, Iver, Iver Heath, Buckinghamshire, South East, England, SL0 0QJ, United Kingdom",51.54831515,-0.5346765566753087
143,/title/tt0058150/,Goldfinger,"Esso Oil Refinery, Stanwell, Middlesex, England, UK",(opening sequence)                        ,,,
144,/title/tt0058150/,Goldfinger,"Burnham Beeches, Buckinghamshire, England, UK",,"Burnham Beeches, Dukes Drive, Burnham, Farnham Common, Buckinghamshire, South East, England, SL2 3LD, United Kingdom",51.5565286,-0.6327670695416168
145,/title/tt0058150/,Goldfinger,"Big Ben, Houses of Parliament, Westminster, London, England, UK",,,,
146,/title/tt0058150/,Goldfinger,"Harefield Quarry, Rickmansworth, Hertfordshire, England, UK",(Mercedes goes over cliff)                        ,,,
147,/title/tt0058150/,Goldfinger,"River Thames, London, England, UK",,"River Thames, London Borough of Richmond upon Thames, London, Greater London, England, TW1 2HH, United Kingdom",51.4497821,-0.3063299
148,/title/tt0102803/,The Rocketeer,"Ennis House - 2607 Glendower Avenue, Los Feliz, Los Angeles, California, USA",,"Ennis House, Glendower Avenue, Los Feliz, Los Angeles, Los Angeles County, California, 90027, United States of America",34.1162064,-118.2928586
149,/title/tt0102803/,The Rocketeer,"Piru, California, USA",,"Piru, Ventura County, California, 93040, United States of America",34.4156137,-118.7927456
150,/title/tt0102803/,The Rocketeer,"Griffith Observatory, 2800 E Observatory Rd, Los Angeles, California, USA",,"Griffith Observatory, 2800, East Observatory Road, Griffith Park, Los Angeles, Los Angeles County, California, 90027, United States of America",34.11821875,-118.30029332196601
151,/title/tt2403021/,The Green Inferno,"Tarapoto, Peru",,"Tarapoto, San Martín, Peru",-6.4877198,-76.3598708
152,/title/tt2403021/,The Green Inferno,"New York City, New York, USA",,"New York, United States of America",40.7127281,-74.0060152
153,/title/tt2403021/,The Green Inferno,Peru,,Perú,-6.8699697,-75.0458515
154,/title/tt0059800/,Thunderball,"Sullivan Residence, Rock Point, Love Beach, off West Bay Street, North Shore, New Providence Island, Bahamas",(Largo's Lair - Palmyra Estate)                        ,,,
155,/title/tt0059800/,Thunderball,"Thunderball Grotto, Off Staniel Cay, The Exumas, Bahamas",(Felix Leiter rescues James Bond to safety by winch)                        ,,,
156,/title/tt0059800/,Thunderball,"Ocala, Florida, USA",(underwater close-up shots)                        ,"Ocala, Marion County, Florida, United States of America",29.1871986,-82.1400923
157,/title/tt0059800/,Thunderball,"Bay Street, Nassau, New Providence Island, Bahamas",(Junkanoo Mardi-Gras - James Bond introduces Felix Leiter to Paula and Pinder)                        ,"Bay Street, New Providence, 242, Bahamas",25.0761093,-77.3292295
158,/title/tt0059800/,Thunderball,"Atlantis Hotel, Bahamas",(Where Bond and Domino meet)                        ,,,
159,/title/tt0059800/,Thunderball,"Avenue d'Eylau, Paris 16, Paris, France","(SPECTRE headquarters, with Eifel Tower in the background)                        ","Avenue d'Eylau, Quartier de la Porte-Dauphine, Paris, Île-de-France, France métropolitaine, 75116, France",48.8641155,2.2854055
160,/title/tt0059800/,Thunderball,"Chalfont Park House, Chalfont Park, Buckinghamshire, England, UK",(Shrublands health clinic - converted hotel)                        ,,,
161,/title/tt0059800/,Thunderball,"Denham Quarry Lakes, South Harefield, Uxbridge, Middlesex, England, UK",(Fiona Volpe B.S.A motorcycle dumping)                        ,,,
162,/title/tt0059800/,Thunderball,"Love Beach, North Shore, New Providence Island, Bahamas",(ambush attempt on Domino and James Bond by Vargas/The Egg Spines Scene)                        ,,,
163,/title/tt0059800/,Thunderball,"North Shore, West Providence Island, Bahamas",,,,
164,/title/tt0059800/,Thunderball,"West Providence Island, Bahamas",,,,
165,/title/tt0059800/,Thunderball,"Hotel Schweizerhof Bern & Spa, Bahnhofpl. 11, 3001 Bern, Switzerland",(Gumbold's Office)                        ,,,
166,/title/tt0059800/,Thunderball,"Ponte 25 de Abril, Pte. 25 de Abril, Lisboa, Portugal",,,,
167,/title/tt0059800/,Thunderball,"Beaconsfield, Buckinghamshire, England, UK",(Derval's home)                        ,"Beaconsfield, Buckinghamshire, South East, England, HP9 1HW, United Kingdom",51.6082881,-0.6571233
168,/title/tt0059800/,Thunderball,"Clifton Bluff, Nassau Harbour, Nassau, New Providence Island, Bahamas",(underwater battle scenes)                        ,,,
169,/title/tt0059800/,Thunderball,"Coast, Miami, Florida, USA",(US Navy parachuting scene)                        ,"U.S. Coast Guard - Air Station Miami, 14750, Opa-locka, Miami-Dade County, Florida, 33054, United States of America",25.906915400000003,-80.27459176731053
170,/title/tt0059800/,Thunderball,"Golden Grotto, Off Staniel Cay, The Exumas, Bahamas",(spear-gun battle)                        ,,,
171,/title/tt0059800/,Thunderball,"Lyford Cay, New Providence Island, Bahamas",(underwater battle)                        ,"Lyford Cay, New Providence, Bahamas",25.0293377,-77.52873680174378
172,/title/tt0059800/,Thunderball,"Nassau Harbour, Nassau, New Providence Island, Bahamas",,,,
173,/title/tt0059800/,Thunderball,"North West Shore, New Providence Island, Bahamas",,,,
174,/title/tt0059800/,Thunderball,"Pinewood Studios, Iver Heath, Buckinghamshire, England, UK",(studio)                        ,"Pinewood Studios, Pinewood Green, Iver, Iver Heath, Buckinghamshire, South East, England, SL0 0QJ, United Kingdom",51.54831515,-0.5346765566753087
175,/title/tt0059800/,Thunderball,"Potter's Wharf, Bahamas",,"Potters Cay Ferry Terminal, Sidney Poitier Bridge, New Providence, 242, Bahamas",25.0771542,-77.3239148
176,/title/tt0059800/,Thunderball,"Rose Island, New Providence Island, Bahamas",(Crash-landing of Vulcan Bomber off the sea of)                        ,"Rose Island, New Providence, Bahamas",25.105065850000003,-77.15528898454684
177,/title/tt0059800/,Thunderball,"South Ocean, New Providence Island, Bahamas",,,,
178,/title/tt0059800/,Thunderball,"The Exumas, Bahamas",,,,
179,/title/tt0059800/,Thunderball,"Vulcan Bomber wreck, South Ocean, New Providence Island, Bahamas",(underwater scenes)                        ,,,
180,/title/tt0055374/,Ring of Fire,"Wynoochee River, Washington, USA",,"Wynoochee River, Grays Harbor County, Washington, United States of America",47.122229,-123.660493
181,/title/tt0055374/,Ring of Fire,"Montesano, Washington, USA",(railroad bridge)                        ,"Montesano, Grays Harbor County, Washington, United States of America",46.9812063,-123.6026629
182,/title/tt4209256/,Colony,"Vancouver, British Columbia, Canada",(Season 3)                        ,"Vancouver, Metro Vancouver Regional District, British Columbia, Canada",49.2608724,-123.1139529
183,/title/tt4209256/,Colony,"CBS Studio Center - 4024 Radford Avenue, Studio City, Los Angeles, California, USA",(studio)                        ,,,
184,/title/tt0090728/,Big Trouble in Little China,"San Francisco, California, USA",,"San Francisco, San Francisco City and County, California, United States of America",37.7790262,-122.4199061
185,/title/tt0090728/,Big Trouble in Little China,"Conzelman Road, Marin Headlands, California, USA",,,,
186,/title/tt0090728/,Big Trouble in Little China,"Stage 19, 20th Century Fox Studios - 10201 Pico Blvd., Century City, Los Angeles, California, USA",,,,
187,/title/tt0090728/,Big Trouble in Little China,"California, USA",,"California, United States of America",36.7014631,-118.7559974
188,/title/tt0090728/,Big Trouble in Little China,"Chinatown, San Francisco, California, USA",,"Chinatown, San Francisco, San Francisco City and County, California, United States of America",37.7943011,-122.4063757
189,/title/tt3967856/,Okja,South Korea,,대한민국,36.638392,127.6961188
190,/title/tt3967856/,Okja,"Seoul, South Korea",,"서울, 대한민국",37.5666791,126.9782914
191,/title/tt3967856/,Okja,"New York, USA",,"New York, United States of America",40.7127281,-74.0060152
192,/title/tt3967856/,Okja,USA,,United States,39.7837304,-100.4458825
193,/title/tt0088559/,MacGyver,"Vancouver, British Columbia, Canada",(seasons 3-6)                        ,"Vancouver, Metro Vancouver Regional District, British Columbia, Canada",49.2608724,-123.1139529
194,/title/tt0088559/,MacGyver,"1241 Abbot Kinney Blvd, Venice, California, USA",(MacGyver's house in season 7)                        ,"1241, Abbot Kinney Boulevard, Venice, Los Angeles, Los Angeles County, California, 90291, United States of America",33.99142179069768,-118.46873076744187
195,/title/tt0088559/,MacGyver,"Big Bear Lake, Big Bear Valley, San Bernardino National Forest, California, USA",,,,
196,/title/tt0088559/,MacGyver,"156 North Larchmont Blvd., Los Angeles, California, USA",(MacGyver's house in season 2)                        ,"156, North Larchmont Boulevard, Windsor Square, Los Angeles, Los Angeles County, California, 90004, United States of America",34.07397738383838,-118.32343411111111
197,/title/tt0088559/,MacGyver,"Paramount Studios - 5555 Melrose Avenue, Hollywood, Los Angeles, California, USA",(studio) (studios - seasons 1-2; 7)                        ,,,
198,/title/tt0088559/,MacGyver,"The Bridge Studios, Burnaby, British Columbia, Canada",(studio) (studios - seasons 3-6)                        ,"Bridge Studios, Burnaby, Metro Vancouver Regional District, British Columbia, Canada",49.2629905,-123.0205448788792
199,/title/tt0088559/,MacGyver,"Los Angeles, California, USA",(seasons 1-2; 7)                        ,"Los Angeles, Los Angeles County, California, United States of America",34.0536909,-118.2427666
200,/title/tt2647544/,Sleepy Hollow,"New Bern, North Carolina, USA",,"New Bern, Craven County, North Carolina, United States of America",35.1084931,-77.0441143
201,/title/tt2647544/,Sleepy Hollow,"Salisbury, North Carolina, USA",(Pilot)                        ,"Salisbury, Rowan County, North Carolina, United States of America",35.6709727,-80.4742261
202,/title/tt2647544/,Sleepy Hollow,"Tarrytown, New York, USA",(Tappan Zee Bridge)                        ,"Tarrytown, Town of Greenburgh, Westchester County, New York, 10591, United States of America",41.0762077,-73.8587461
203,/title/tt2647544/,Sleepy Hollow,"Atkinson, North Carolina, USA",(The old Atkinson High School was Tarrytown Mental Hospital.)                        ,"Atkinson, Pender County, North Carolina, United States of America",34.5285008,-78.171107
204,/title/tt0120669/,Fear and Loathing in Las Vegas,"Red Rock Canyon, Nevada, USA",,"Red Rock Canyon, Nye County, Nevada, United States of America",38.330498,-116.366859
205,/title/tt0120669/,Fear and Loathing in Las Vegas,"Kingman, Arizona, USA",,"Kingman, Mohave County, Arizona, United States of America",35.189443,-114.0530065
206,/title/tt0120669/,Fear and Loathing in Las Vegas,"Stardust Hotel & Casino - 3000 Las Vegas Boulevard South, Las Vegas, Nevada, USA",,,,
207,/title/tt0120669/,Fear and Loathing in Las Vegas,"Las Vegas, Nevada, USA",,"Las Vegas, Clark County, Nevada, United States of America",36.1672559,-115.1485163
208,/title/tt2567026/,Alice Through the Looking Glass,"Gloucester Docks, Gloucester, Gloucestershire, England, UK",(Gloucester UK)                        ,,,
209,/title/tt2567026/,Alice Through the Looking Glass,"Longcross Studios, Chobham Lane, Longcross, Surrey, England, UK",(studio)                        ,,,
210,/title/tt1051220/,The Shannara Chronicles,New Zealand,(Landscape)                        ,New Zealand / Aotearoa,-41.5000831,172.8344077
211,/title/tt0918940/,The Legend of Tarzan,Gabon,(Aerial jungle scenes)                        ,Gabon,-0.8999695,11.6899699
212,/title/tt0918940/,The Legend of Tarzan,"Windsor Great Park, Windsor, Berkshire, England, UK",(on location)                        ,,,
213,/title/tt0918940/,The Legend of Tarzan,"Leavesden Studios, Leavesden, Hertfordshire, England, UK",,"Warner Bros. Studios Leavesden, Abbots Langley, Leavesden, Hertfordshire, East of England, England, WD25 7LP, United Kingdom",51.68980175,-0.4226993868476693
214,/title/tt0918940/,The Legend of Tarzan,"Goldsmith's Hall, London, England, UK",(interiors)                        ,"Goldsmiths' Hall, Foster Lane, Barbican, City of London, Greater London, England, EC2V 6BN, United Kingdom",51.51571445,-0.09584339777486975
215,/title/tt3717252/,Underworld: Blood Wars,"Prague, Czech Republic",,"Praha, okres Hlavní město Praha, Hlavní město Praha, Praha, Česká republika",50.0874654,14.4212535
216,/title/tt3717252/,Underworld: Blood Wars,"Prague Studios, Prague, Czech Republic",(all set builds)                        ,,,
217,/title/tt0955308/,Robin Hood,"Freshwater West, Pembrokeshire, Wales, UK",,"Freshwater West, B4319, Angle, Rhoscrowther, Pembrokeshire, Cymru / Wales, SA71 5AH, United Kingdom",51.6591228,-5.063855822786946
218,/title/tt0955308/,Robin Hood,"Angle, Pembrokeshire, Wales, UK",,"Angle, St Davids, Pembrokeshire, Cymru / Wales, SA71 5AU, United Kingdom",51.6848296,-5.0917126
219,/title/tt0955308/,Robin Hood,"London, England, UK",,"London, Greater London, England, United Kingdom",51.5073219,-0.1276474
220,/title/tt0955308/,Robin Hood,"Shepperton Studios, Shepperton, Surrey, England, UK",(studio)                        ,,,
221,/title/tt0955308/,Robin Hood,"Bourne Woods, Farnham, Surrey, England, UK",,,,
222,/title/tt0955308/,Robin Hood,"B Stage, Shepperton Studios, Shepperton, Surrey, England, UK",,,,
223,/title/tt0955308/,Robin Hood,"J Stage, Shepperton Studios, Shepperton, Surrey, England, UK",,,,
224,/title/tt2345759/,The Mummy,"Old Central St Martins, 12-48 Southampton Row, London, England, UK",,,,
225,/title/tt2345759/,The Mummy,"Oxford, Oxfordshire, England, UK",,"Oxford, Oxfordshire, South East, England, United Kingdom",51.7520131,-1.2578499
226,/title/tt2345759/,The Mummy,"The Warrington, 93 Warrington Crescent, Maida Vale, London, England, UK",,"Warrington, 93, Warrington Crescent, Westbourne Green, Maida Vale, City of Westminster, London, Greater London, England, W9 1EP, United Kingdom",51.52719055,-0.18308125010026585
227,/title/tt2345759/,The Mummy,"Winterfold Forest, Surrey, England, UK",,"Winterfold, Deepdene Park Road, Mole Valley, Surrey, South East, England, RH5 4AW, United Kingdom",51.23416039999999,-0.31878608276053
228,/title/tt2345759/,The Mummy,"LA Castle Studios, Burbank, California, USA",(News Scenes)                        ,,,
229,/title/tt2345759/,The Mummy,"Shepperton Studios, Studios Road, Shepperton, Surrey, England, UK",(filmed at)                        ,,,
230,/title/tt2345759/,The Mummy,"England, UK",,"England, United Kingdom",52.7954791,-0.5402402866174321
231,/title/tt6921996/,Johnny English Strikes Again,"Saint Aygulf, Fréjus, South France, France",,"Saint-Aygulf, Fréjus, Draguignan, Var, Provence-Alpes-Côte d'Azur, France métropolitaine, 83370, France",43.3859229,6.7224304
232,/title/tt6921996/,Johnny English Strikes Again,"London, England, UK",,"London, Greater London, England, United Kingdom",51.5073219,-0.1276474
233,/title/tt6921996/,Johnny English Strikes Again,"Bulstrode Park, Gerrards Cross, Buckinghamshire, England, UK",(School scenes)                        ,"Bulstrode, Oxford Road, Gerrards Cross, Buckinghamshire, South East, England, SL9 7RD, United Kingdom",51.585711700000004,-0.577925659982133
234,/title/tt6921996/,Johnny English Strikes Again,"Foreign & Commonwealth Office, Westminster, London, England, UK",(Outside MI7 HQ)                        ,"Foreign and Commonwealth Office, 30, King Charles Street, Westminster, Millbank, City of Westminster, London, Greater London, England, SW1A 2AH, United Kingdom",51.50276585,-0.1287115759824475
235,/title/tt6921996/,Johnny English Strikes Again,"Peille, Alpes-Maritimes, France",(Road scenes)                        ,"Peille, Nice, Alpes-Maritimes, Provence-Alpes-Côte d'Azur, France métropolitaine, 06440, France",43.8027894,7.4014416
236,/title/tt0059968/,Batman,"380 South San Rafael Avenue, Pasadena, California, USA",(Wayne Manor)                        ,"380, San Rafael Avenue, Pasadena, Los Angeles County, California, 91105, United States of America",34.136524178859,-118.1706399607389
237,/title/tt0059968/,Batman,"Desilu Studios - 9336 W. Washington Blvd., Culver City, California, USA",,,,
238,/title/tt0059968/,Batman,"Stage 9, 20th Century Fox Studios - 10201 Pico Blvd., Century City, Los Angeles, California, USA",(studio)                        ,,,
239,/title/tt6560164/,Sweetheart,"Bounty Island, Fiji",,"Bounty Restaurant & Bar, Queens Road, Namotomoto Village, Nadi, Western, Fiji",-17.7764716,177.43302934695657
240,/title/tt5116302/,Togo,"Cochrane, Alberta, Canada",,"Cochrane, Town of Cochrane, Alberta, T4V 2A7, Canada",51.1874627,-114.4710708
241,/title/tt0432283/,Fantastic Mr. Fox,"Three Mills Studios, Three Mill Lane, Bow, London, England, UK",(studio)                        ,,,
242,/title/tt0432283/,Fantastic Mr. Fox,UK,,United Kingdom,54.7023545,-3.2765753
243,/title/tt1536537/,What Happened to Monday,"Constanta, Romania",,"Constanța, România",44.1767161,28.6507598
244,/title/tt1536537/,What Happened to Monday,Romania,,România,45.9852129,24.6859225
245,/title/tt1536537/,What Happened to Monday,"Old Town, Constanta, Romania",,"Ovidiu, Constanța, 905900, România",44.2562026,28.5620429
246,/title/tt1536537/,What Happened to Monday,"Italian Church, Nicolae Balcescu Blvd - Bucharest, Romania",,,,
247,/title/tt1536537/,What Happened to Monday,"National Library, Bucharest, Romania",,"The Library, 21, Șoseaua Fabrica de Glucoză, Sector 2, Municipiul București, 020331, România",44.4789051,26.1238818
248,/title/tt1536537/,What Happened to Monday,"Boulevard General Gheorghe Magheru, Bucharest, Romania",,"Bulevardul General Gheorghe Magheru, București, Sector 1, Municipiul București, 010321, România",44.4420811,26.0989942
249,/title/tt0213338/,Kaubôi bibappu,"New York City, New York, USA",,"New York, United States of America",40.7127281,-74.0060152
250,/title/tt6342474/,Boruto: Naruto Next Generations,"Osaka, Japan",(street scenes)                        ,"大阪府, 日本 (Japan)",34.6198813,135.490357
251,/title/tt0120623/,A Bug's Life,"Pixar Animation Studios - 1200 Park Avenue, Emeryville, California, USA",,"Pixar Animation Studios, 1200, Park Avenue, Longfellow, Emeryville, Alameda County, California, 94608, United States of America",37.832671399999995,-122.28369454930086
252,Code,Show Name,Location,Scene,"Location, Tucker County, West Virginia, United States of America",39.2138905,-79.6371124
253,/title/tt4555364/,Knightfall,"Dubrovnik, Croatia",(Dubrovnik)                        ,"Dubrovnik, Grad Dubrovnik, Dubrovačko-neretvanska županija, 20000, Hrvatska",42.6502473,18.0924947
254,/title/tt9184986/,Barbarians,Hungary,,Magyarország,47.1817585,19.5060937
255,/title/tt5715066/,Mortal,Norway,,"Norge, Namsos, Trøndelag, Norge",64.5731537,11.52803643954819
256,/title/tt0062803/,Chitty Chitty Bang Bang,"Neuschwanstein Castle, Hohenschwangau, Schwangau, Bavaria, Germany",(Baron Bomburst's castle)                        ,"Schloss Neuschwanstein, Neuschwansteinstraße, Alterschrofen, Schwangau, Landkreis Ostallgäu, Bayern, 87645, Deutschland",47.5575606,10.7497321
257,/title/tt0062803/,Chitty Chitty Bang Bang,"Plage Taillat, La Croix-Valmer, Var, Provence-Alpes-Côte d'Azur, France",(beach scenes)                        ,"Plage Ranc, Sentier Littoral, Ramatuelle, Draguignan, Var, Provence-Alpes-Côte d'Azur, France métropolitaine, 83350, France",43.1728815,6.639565074951614
258,/title/tt0062803/,Chitty Chitty Bang Bang,"Heatherden Hall, Pinewood Studios, Iver Heath, Buckinghamshire, England, UK",(Scrumptious Mansion)                        ,,,
259,/title/tt0062803/,Chitty Chitty Bang Bang,"Longmoor military railway, Longmoor Military Camp, Hampshire, England, UK",(Caractacus drives Chitty alongside a train on a railway)                        ,,,
260,/title/tt0062803/,Chitty Chitty Bang Bang,"Kempton Park Steam Museum, Kempton Park Water Treatment Works, Snakey Lane, Hanworth, Middlesex, England, UK",(exterior of The Scrumptious Sweet Company factory)                        ,,,
261,/title/tt0062803/,Chitty Chitty Bang Bang,"Hambleden, Buckinghamshire, England, UK",(Caractacus and the children drive through a village)                        ,"Hambleden, Buckinghamshire, South East, England, RG9 6RP, United Kingdom",51.5719351,-0.8691036
262,/title/tt0062803/,Chitty Chitty Bang Bang,"Ilmer Railway Bridge, Ilmer, Buckinghamshire, England, UK","(railway bridge scene) (coordinates: 51°44'39.7""N, 0°53'01.3""W)                        ",,,
263,/title/tt0062803/,Chitty Chitty Bang Bang,"Cardington, Bedfordshire, England, UK",,,,
264,/title/tt0062803/,Chitty Chitty Bang Bang,"Cardington Airship Hangars, Bedfordshire, England, UK",,,,
265,/title/tt0062803/,Chitty Chitty Bang Bang,"A Stage, Pinewood Studios, Iver Heath, Buckinghamshire, England, UK",(Potts' kitchen; interior of Scrumptious Sweet Factory)                        ,,,
266,/title/tt0062803/,Chitty Chitty Bang Bang,"Black Park, Iver Heath, Buckinghamshire, England, UK",(opening racing montage through forests)                        ,"Black Park, Wexham, Iver Heath, Buckinghamshire, South East, England, United Kingdom",51.542492100000004,-0.5441123704462851
267,/title/tt0062803/,Chitty Chitty Bang Bang,"Alpsee, Ostallgäu, Bavaria, Germany",(lake that Baroness Bomburst falls into and lake where spies arrive)                        ,"Alpsee, unterer Winterzugweg, Alterschrofen, Schwangau, Landkreis Ostallgäu, Bayern, 87645, Deutschland",47.548952099999994,10.722148447860448
268,/title/tt1821694/,RED 2,"Notre-Dame-de-l'Ile-Perrot, Québec, Canada",(cadillac scene)                        ,"Notre-Dame-de-l'Île-Perrot, Vaudreuil-Soulanges, Montérégie, Québec, J6N 1X8, Canada",45.351663,-73.902969
269,/title/tt1821694/,RED 2,"Montréal, Québec, Canada",,"Montréal, Agglomération de Montréal, Montréal (06), Québec, Canada",45.4972159,-73.6103642
270,/title/tt1821694/,RED 2,"Moscow, Russia",,"Москва, Центральный административный округ, Москва, Центральный федеральный округ, Россия",55.7504461,37.6174943
271,/title/tt1821694/,RED 2,Canada,,Canada,61.0666922,-107.9917071
272,/title/tt1821694/,RED 2,"Anchor Brewhouse, Shad Thames, London, England, UK","(Exterior of the ""MI6 Alpha Level secure facility"")                        ","Anchor Brewhouse, 50, Shad Thames, Butler's Wharf, Bermondsey, London Borough of Southwark, London, Greater London, England, SE1 2LY, United Kingdom",51.50411495,-0.07529527089689361
273,/title/tt1821694/,RED 2,"London, England, UK",,"London, Greater London, England, United Kingdom",51.5073219,-0.1276474
274,/title/tt1821694/,RED 2,"1025 Rue Lucien L'Allier, Montréal, QC H3G 3C4, Canada",(Yankee White Facility)                        ,,,
275,/title/tt1821694/,RED 2,"Auberge Colford Hotel - 848 Ch de la Rivière du N, Saint-Colomban, Quebec, Canada","(diner, demolished)                        ",,,
276,/title/tt1821694/,RED 2,Russia,,Россия,64.6863136,97.7453061
277,/title/tt1821694/,RED 2,UK,,United Kingdom,54.7023545,-3.2765753
278,/title/tt2017020/,De Smurfen 2,"Montréal, Québec, Canada",,"Montréal, Agglomération de Montréal, Montréal (06), Québec, Canada",45.4972159,-73.6103642
279,/title/tt2017020/,De Smurfen 2,"Studios de Paris, La Cité du Cinéma, Saint-Denis, Seine-Saint-Denis, France",,,,
280,/title/tt2017020/,De Smurfen 2,Canada,,Canada,61.0666922,-107.9917071
281,/title/tt0401729/,John Carter,"Moab, Utah, USA",,"Moab, Grand County, Utah, United States of America",38.5738096,-109.5462146
282,/title/tt0401729/,John Carter,"Big Water, Utah, USA",,"Big Water, Kane County, Utah, United States of America",37.082317,-111.664017
283,/title/tt0401729/,John Carter,"Coal Mine Canyon, Tuba City, Arizona, USA",,,,
284,/title/tt0401729/,John Carter,"Grand Falls, Navajo Nation, Arizona, USA",,,,
285,/title/tt0401729/,John Carter,"Shepperton Studios, Shepperton, Surrey, England, UK",(studio)                        ,,,
286,/title/tt0401729/,John Carter,"Millard County, Utah, USA",,"Millard County, Utah, United States of America",39.0364951,-113.0861444
287,/title/tt0401729/,John Carter,"Agathia Peak, Arizona, USA",,,,
288,/title/tt0401729/,John Carter,"Agathla Peak, Arizona, USA",,"Agathla, Navajo County, Arizona, United States of America",36.825984,-110.2257409
289,/title/tt0401729/,John Carter,"Vermilion Cliffs, Vermilion Cliffs National Monument, Arizona, USA",,,,
290,/title/tt0401729/,John Carter,"Lake Powell, Arizona, USA",,"Lake Powell, El Dorado Court, Page, Coconino County, Arizona, 86040-0418, United States of America",37.02773225,-111.31013760137864
291,/title/tt0401729/,John Carter,"Stage 14, Longcross Studios, Chobham Lane, Longcross, Surrey, England, UK",(Colonel Powell's stockade; Apache cave; Mars dungeon)                        ,,,
292,/title/tt0401729/,John Carter,"B Stage, Shepperton Studios, Shepperton, Surrey, England, UK",(Helium Hall of Science)                        ,,,
293,/title/tt0401729/,John Carter,"D Stage, Shepperton Studios, Shepperton, Surrey, England, UK",(Tars Tarkas tent; interior)                        ,,,
294,/title/tt0401729/,John Carter,"Henley-on-Thames, Oxfordshire, England, UK",(John Carter finds his family dead)                        ,"Henley-on-Thames, Oxfordshire, South East, England, RG9 2AN, United Kingdom",51.5375786,-0.9050287
295,/title/tt0368891/,National Treasure,"Utah, USA",(Arctic Scene)                        ,"Utah, United States of America",39.4225192,-111.7143584
296,/title/tt0368891/,National Treasure,"USS Intrepid, New York City, New York, USA",,"USS Intrepid, 1, Hudson River Park Esplanade, Hell's Kitchen, Manhattan Community Board 4, Manhattan, New York County, New York, 10019, United States of America",40.76473335,-74.00083980660943
297,/title/tt0368891/,National Treasure,"Trinity Church - 79 Broadway, Financial District, Manhattan, New York City, New York, USA",,,,
298,/title/tt0368891/,National Treasure,"National Archives Building - 700 Pennsylvania Avenue NW, Washington, District of Columbia, USA",(interiors: Declaration of Independence display) (exteriors: Abigail Chase abduction)                        ,,,
299,/title/tt0368891/,National Treasure,"Weehawken, New Jersey, USA",(Hudson River)                        ,"Weehawken, Hudson County, New Jersey, 07086, United States of America",40.7695457,-74.0204177
300,/title/tt0368891/,National Treasure,"Los Angeles, California, USA",,"Los Angeles, Los Angeles County, California, United States of America",34.0536909,-118.2427666
301,/title/tt0368891/,National Treasure,"Washington, District of Columbia, USA",,"Washington, District of Columbia, 20230, United States of America",38.8949924,-77.0365581
302,/title/tt0368891/,National Treasure,"Library of Congress - 101 Independence Ave. SE, Washington, District of Columbia, USA",(circular reading room)                        ,"Library of Congress, James Madison Memorial Building, 101, Independence Avenue Southeast, Southeast, Washington, District of Columbia, 20540, United States of America",38.8867409,-77.00470552789514
303,/title/tt0368891/,National Treasure,"Franklin Institute - 222 N. 20th Street, Philadelphia, Pennsylvania, USA",(Silence letters decoded)                        ,"Franklin Institute, 222, North 20th Street, Spring Garden, Philadelphia, Philadelphia County, Pennsylvania, 19103, United States of America",39.95824385,-75.17307895637433
304,/title/tt0368891/,National Treasure,"First Congregational Church - 540 S. Commonwealth Avenue, Los Angeles, California, USA",,,,
305,/title/tt0368891/,National Treasure,"544 Mateo Street, Los Angeles, California, USA",(Ben Gates' apartment)                        ,"544, Mateo Street, Arts District, Downtown, Los Angeles, Los Angeles County, California, 90013, United States of America",34.0403909,-118.2327457
306,/title/tt0368891/,National Treasure,USA,,United States,39.7837304,-100.4458825
307,/title/tt0311289/,Holes,"Cuddeback Dry Lake, California, USA",,"Cuddeback Dry Lake, RM-23, San Bernardino County, California, United States of America",35.281698750000004,-117.47995514257377
308,/title/tt0311289/,Holes,"Lancaster, California, USA",,"Lancaster, Los Angeles County, California, United States of America",34.6981064,-118.1366153
309,/title/tt0311289/,Holes,"Santa Clarita, California, USA",,"Santa Clarita, Los Angeles County, California, United States of America",34.3916641,-118.542586
310,/title/tt0311289/,Holes,"Anderson Street Overpass, Los Angeles, California, USA",,,,
311,/title/tt0311289/,Holes,"Leconte Middle School - 1316 N. Bronson Avenue, Hollywood, Los Angeles, California, USA",,,,
312,/title/tt0311289/,Holes,"Walt Disney's Golden Oak Ranch - 19802 Placerita Canyon Road, Newhall, California, USA",,,,
313,/title/tt2231461/,Rampage: Big Meets Bigger,"Chicago, Illinois, USA",,"Chicago, Cook County, Illinois, United States of America",41.8755616,-87.6244212
314,/title/tt2231461/,Rampage: Big Meets Bigger,"Los Angeles, California, USA",(shot of Hummer driving down Chicago Street at 1: 29: 23)                        ,"Los Angeles, Los Angeles County, California, United States of America",34.0536909,-118.2427666
315,/title/tt2231461/,Rampage: Big Meets Bigger,"Middle Georgia Regional Airport, 1000 Terminal Dr, Macon, GA 31297, USA",(Scott Air Force Base Exteriors)                        ,,,
316,/title/tt0366551/,Harold & Kumar Go to White Castle,"Hoboken, New Jersey, USA",,"Hoboken, Hudson County, New Jersey, United States of America",40.7433066,-74.0323752
317,/title/tt0366551/,Harold & Kumar Go to White Castle,"16544 Hurontario St, Caledon, Ontario, Canada",(White Castle)                        ,"Ultramar, 16544, Hurontario Street, Sligo, Caledon, Peel Region, Golden Horseshoe, Ontario, L7K 1W3, Canada",43.8233156,-79.946335
318,/title/tt0366551/,Harold & Kumar Go to White Castle,"Erin Mills Parkway, Mississauga, Ontario, Canada",,"Erin Mills Parkway, Sherwood Forrest, Clarkson, Mississauga, Peel Region, Golden Horseshoe, Ontario, L5K 1A3, Canada",43.5244725,-79.6482593
319,/title/tt0366551/,Harold & Kumar Go to White Castle,"Caledon, Ontario, Canada",,"Caledon, Peel Region, Golden Horseshoe, Ontario, Canada",43.875427,-79.858285
320,/title/tt0366551/,Harold & Kumar Go to White Castle,"Toronto, Ontario, Canada",,"Toronto, Peel, Golden Horseshoe, Ontario, Canada",43.6534817,-79.3839347
321,/title/tt0366551/,Harold & Kumar Go to White Castle,Canada,,Canada,61.0666922,-107.9917071
322,/title/tt0366551/,Harold & Kumar Go to White Castle,"Ontario, Canada",,"Ontario, Canada",50.000678,-86.000977
323,/title/tt0366551/,Harold & Kumar Go to White Castle,"Victoria College, University of Toronto, Toronto, Ontario, Canada",(as Princeton University)                        ,,,
324,/title/tt3450958/,War for the Planet of the Apes,"Vancouver, British Columbia, Canada",,"Vancouver, Metro Vancouver Regional District, British Columbia, Canada",49.2608724,-123.1139529
325,/title/tt3450958/,War for the Planet of the Apes,"Alberta, Canada",,"Alberta, Canada",55.001251,-115.002136
326,/title/tt4500922/,Maze Runner: The Death Cure,"Cape Town, South Africa",(on location)                        ,"Cape Town, City of Cape Town, Western Cape, 8001, South Africa",-33.928992,18.417396
327,/title/tt4500922/,Maze Runner: The Death Cure,"Chicago Illinois, USA",,"Chicago, Cook County, Illinois, United States of America",41.8755616,-87.6244212
328,/title/tt1679335/,Trolls,"Glendale, California, USA",(DreamWorks Animation)                        ,"Glendale, Los Angeles County, California, United States of America",34.1469416,-118.2478471
329,/title/tt0108941/,The Stand,"Ogden, Utah, USA",,"Ogden, Weber County, Utah, United States of America",41.2230048,-111.9738429
330,/title/tt0108941/,The Stand,"Tooele, Utah, USA",,"Tooele County, Utah, United States of America",40.4062872,-113.1966394
331,/title/tt0108941/,The Stand,"Midvale, Utah, USA",,"Midvale, Utah, 84047, United States of America",40.6110589,-111.8999353
332,/title/tt0108941/,The Stand,"Utah, USA",,"Utah, United States of America",39.4225192,-111.7143584
333,/title/tt0108941/,The Stand,"Lehi, Utah, USA",,"Lehi, Utah County, Utah, 84043, United States of America",40.3880902,-111.8491619
334,/title/tt0108941/,The Stand,"Fremont Street, Las Vegas, Nevada, USA",(The final stand)                        ,"Fremont Street, Five Points, Las Vegas, Clark County, Nevada, 89104, United States of America",36.1592241,-115.1171865
335,/title/tt0108941/,The Stand,"New York City, New York, USA",,"New York, United States of America",40.7127281,-74.0060152
336,/title/tt0108941/,The Stand,"Las Vegas, Nevada, USA",,"Las Vegas, Clark County, Nevada, United States of America",36.1672559,-115.1485163
337,/title/tt1051904/,Goosebumps,"Conyers, Georgia, USA",(location)                        ,"Conyers, Rockdale County, Georgia, 30013-2028, United States of America",33.6676103,-84.0176904
338,/title/tt1051904/,Goosebumps,"Marietta, Georgia, USA",(Ice Hockey Rink)                        ,"Marietta, Cobb, Georgia, United States of America",33.9528472,-84.5496148
339,/title/tt1051904/,Goosebumps,"8777 Tara Blvd, Jonesboro, Georgia, USA",(Wayfield foods grocery store)                        ,"Tara Boulevard, Jonesboro, Clayton County, Georgia, 30250, United States of America",33.496859,-84.344605
340,/title/tt1051904/,Goosebumps,"Westlake High School, 2400 Union Rd SW, Atlanta, Georgia, USA",(High school exterior)                        ,,,
341,/title/tt1051904/,Goosebumps,"Candler Park - 585 Candler Park Drive NE, Atlanta, Georgia",(location)                        ,,,
342,/title/tt1051904/,Goosebumps,"Marietta Ice Center, 4880 Lower Roswell Rd #900, Marietta, GA 30068, USA",(Ice Hockey Rink)                        ,,,
343,/title/tt0056172/,Lawrence of Arabia,"Wadi Rum, Jordan",(desert - red cliffs)                        ,"وادي رم, الراشدية, العقبة, Jordan / الأُرْدُن",29.48125245,35.4687082704589
344,/title/tt0056172/,Lawrence of Arabia,"Alfonso XIII Hotel - 2 San Fernando 41004, Sevilla, Andalucía, Spain",(Cairo Officer's Club courtyard)                        ,,,
345,/title/tt0056172/,Lawrence of Arabia,"El Casino, Avenida de Maria Luisa, Sevilla, Andalucía, Spain",(Damascus town hall)                        ,"Gran Casino Aljarafe, Avenida de la Arboleda, La Mascareta, Tomares, Sevilla, Andalucía, 41940, España",37.372021700000005,-6.037271287987386
346,/title/tt0056172/,Lawrence of Arabia,"Desert South of Ouarzazate, Morocco",(Doubled as Arabian desert)                        ,,,
347,/title/tt0056172/,Lawrence of Arabia,"Chobham Common, Surrey, England, UK",(where Lawrence falls off motorcycle)                        ,"Chobham Community Hall, Macmahon Close, Chobham, Surrey Heath, Surrey, South East, England, GU24 8NG, United Kingdom",51.351091249999996,-0.6022524999999975
348,/title/tt0056172/,Lawrence of Arabia,"Genovese Beach, San José, Almería, Andalucía, Spain",(train attack)                        ,,,
349,/title/tt0056172/,Lawrence of Arabia,"Desierto de Tabernas, Almería, Andalucía, Spain",,"Paraje Natural del Desierto de Tabernas, Gérgal, Almería, Andalucía, España",37.0675509,-2.5294695521144464
350,/title/tt0056172/,Lawrence of Arabia,"Maan, Jordan",,"معان, Jordan / الأُرْدُن",30.21812395,36.49295699078737
351,/title/tt0056172/,Lawrence of Arabia,"St Paul's Cathedral, St Paul's Churchyard, City of London, England, UK",(funeral)                        ,,,
352,/title/tt0056172/,Lawrence of Arabia,"Palacio Espanol, Plaza de España, Sevilla, Sevilla, Andalucía, Spain",(hotel in Cairo)                        ,,,
353,/title/tt0056172/,Lawrence of Arabia,Saudi Arabia,,السعودية,25.6242618,42.3528328
354,/title/tt0056172/,Lawrence of Arabia,"Sevilla, Andalucía, Spain",(Middle East)                        ,"Sevilla, Andalucía, España",37.3886303,-5.9953403
355,/title/tt0056172/,Lawrence of Arabia,"Casa de Pilatos, Plaza de Pilatos, Sevilla, Andalucía, Spain",(meeting of Allenby and Lawrence)                        ,"Casa de Pilatos, 1, Plaza de Pilatos, San Bartolomé, Casco Antiguo, Sevilla, Andalucía, 41003, España",37.3902394,-5.987249062427177
356,/title/tt0056172/,Lawrence of Arabia,"Parque de Maria Luisa, Avenida de Isabel la Catolica, Sevilla, Andalucía, Spain",(buildings: Middle East)                        ,,,
357,/title/tt0056172/,Lawrence of Arabia,"Carboneras, Almería, Andalucía, Spain",,"Carboneras, Almería, Andalucía, 04140, España",36.9968699,-1.8946552
358,/title/tt0056172/,Lawrence of Arabia,"City of London, England, UK",,"City of London, Greater London, England, United Kingdom",51.5156177,-0.0919983
359,/title/tt0120755/,Mission: Impossible II,"Ashton Park, Mosman, Sydney, New South Wales, Australia",(Ambrose's house)                        ,"Ashton Park, Mosman, Lower North Shore, Mosman Municipal Council, New South Wales, 2088, Australia",-33.847171,151.2458416968085
360,/title/tt0120755/,Mission: Impossible II,"Broken Hill, New South Wales, Australia",(sheep farm)                        ,"Broken Hill, Broken Hill City Council, New South Wales, 2880, Australia",-31.965,141.4511111
361,/title/tt0120755/,Mission: Impossible II,"Sydney, New South Wales, Australia",,"Sydney, New South Wales, Australia",-33.8548157,151.2164539
362,/title/tt0120755/,Mission: Impossible II,"Darling Harbour, Sydney, New South Wales, Australia",,"Darling Harbour, Pyrmont Bridge, Darling Quarter, Sydney, Council of the City of Sydney, New South Wales, 2000, Australia",-33.8714291,151.2004539
363,/title/tt0120755/,Mission: Impossible II,"Argyle Place, The Rocks, Sydney, New South Wales, Australia",(Seville scenes)                        ,"The Argyle, 18, Argyle Street, The Rocks, Sydney, Council of the City of Sydney, New South Wales, 2000, Australia",-33.8589412,151.2078026
364,/title/tt0120755/,Mission: Impossible II,"Bare Island, La Perouse, Sydney, New South Wales, Australia",(Ambrose's bunker hideout)                        ,,,
365,/title/tt0120755/,Mission: Impossible II,"Moab, Utah, USA",,"Moab, Grand County, Utah, United States of America",38.5738096,-109.5462146
366,/title/tt0120755/,Mission: Impossible II,"Sydney Opera House - 2 Macquarie Street, Sydney, New South Wales, Australia",,"Sydney Opera House, 2, Macquarie Street, Sydney, Council of the City of Sydney, New South Wales, 2000, Australia",-33.85719805,151.21512338473752
367,/title/tt0120755/,Mission: Impossible II,"Monument Valley, Utah, USA",,"Monument, Disera Boulevard, Magna, Salt Lake County, Utah, 84044, United States of America",40.7143227,-112.1045506
368,/title/tt0120755/,Mission: Impossible II,"Boora Point, Malabar, New South Wales, Australia",,,,
369,/title/tt0120755/,Mission: Impossible II,"Fox Studios, Moore Park, Sydney, New South Wales, Australia",(studio)                        ,"Fox Studios Australia, Moore Park, Sydney, Council of the City of Sydney, New South Wales, 2021, Australia",-33.890960899999996,151.22750517838074
370,/title/tt0120755/,Mission: Impossible II,"Sydney Harbour Bridge, Sydney, New South Wales, Australia",,"Sydney Harbour Bridge, Olympic Drive, Kirribilli, Lower North Shore, North Sydney Council, New South Wales, 2061, Australia",-33.85225755,151.21069310558983
371,/title/tt0120755/,Mission: Impossible II,"Los Angeles, California, USA",,"Los Angeles, Los Angeles County, California, United States of America",34.0536909,-118.2427666
372,/title/tt0120755/,Mission: Impossible II,"Angeles National Forest, California, USA",,"Angeles National Forest, Los Angeles County, California, United States of America",34.32165465,-118.01920095646192
373,/title/tt5093026/,Papillon,"Belgrade, Serbia",,"Београд, Град Београд, Централна Србија, 11000, Србија (Serbia)",44.8178131,20.4568974
374,/title/tt5093026/,Papillon,"Niksic, Montenegro",,"Nikšić, Opština Nikšić, 81400, Crna Gora",42.7739559,18.9488746
375,/title/tt5093026/,Papillon,"Ulcinj, Montenegro",,"Улцињ - Ulqin, Opština Ulcinj, 8536, Crna Gora",41.926012,19.2055563
376,/title/tt5093026/,Papillon,"Kalkara, Malta",(Times of Malta 30-11-2016)                        ,"Il-Kalkara, Xlokk, Malta",35.8898771,14.5290867
377,/title/tt5093026/,Papillon,"Rabat, Malta",(Times of Malta 30-11-2016)                        ,"Ir-Rabat, Għawdex, Malta",36.0428907,14.2398479
378,/title/tt3410834/,Allegiant,"Atlanta, Georgia, USA",,"Atlanta, Georgia, United States of America",33.7490987,-84.3901849
379,/title/tt3410834/,Allegiant,"Rome, Georgia",(location)                        ,"Rome, Floyd County, Georgia, 30161, United States of America",34.257038,-85.1646726
380,/title/tt0072684/,Barry Lyndon,"Carton House, Maynooth, County Kildare, Ireland",,"Carton House, R157, Moygaddy, Rodanstown, The Municipal District of Ratoath, Leinster, W23 KV65, Ireland",53.3907094,-6.5667273903275865
381,/title/tt0072684/,Barry Lyndon,"Chatsworth House, Edensor, Derbyshire, England, UK",(Castle Hackton)                        ,"Chatsworth House, Broadwalk, Chatsworth CP, Derbyshire Dales, Derbyshire, East Midlands, England, DE45 1PJ, United Kingdom",53.227588850000004,-1.611362475457475
382,/title/tt0072684/,Barry Lyndon,"Royal Victoria Park, Bath, Somerset, England, UK",,"Royal Victoria Park, East Twerton, Bath, Bath and North East Somerset, South West England, England, BA1 2NR, United Kingdom",51.38653745,-2.3755932876846275
383,/title/tt0072684/,Barry Lyndon,"Cahir Castle, County Tipperary, Ireland",(as a German military encampment)                        ,"Cahir Castle, Cahir Bridge, Townparks, Caher, The Municipal District of Cahir — Cashel, County Tipperary, Munster, E21H244, Ireland",52.3744033,-7.927133745168003
384,/title/tt0072684/,Barry Lyndon,"Dunrobin Castle, Sutherland, Scotland, UK",(as the 'spa' in Belgium where Barry meets Lady Lyndon)                        ,,,
385,/title/tt0072684/,Barry Lyndon,"Huntington Castle, Clonegal, County Carlow, Ireland",(John Quinn courting Nora Brady)                        ,,,
386,/title/tt0072684/,Barry Lyndon,"Castle Hohenzollern, Hechingen, Baden-Württemberg, Germany",(only exterior) (castle where Balibari and Barry operate gambling)                        ,"Neues Schloss, Bierweg, Hechingen, Gemarkung Hechingen, Hechingen, Gemeindeverwaltungsverband Hechingen, Zollernalbkreis, Baden-Württemberg, 72379, Deutschland",48.3538788,8.963173
387,/title/tt0072684/,Barry Lyndon,"Ludwigsburg Castle, Ludwigsburg, Baden-Württemberg, Germany",(as Balibari's palace courtyard)                        ,,,
388,/title/tt0072684/,Barry Lyndon,"Rathgormack, County Waterford, Ireland",,"Rathgormack, County Waterford, Munster, Ireland",52.305461,-7.4986519
389,/title/tt0072684/,Barry Lyndon,"Glenpatrick, County Waterford, Ireland",(Redcoats parade)                        ,"Glenpatrick, Gurteen, The Municipal District of Comeragh, County Waterford, Munster, Ireland",52.316497150000004,-7.597903680239475
390,/title/tt0072684/,Barry Lyndon,"Compton Castle, Marlton, Devon, England, UK",(Lord Bullingdon's castle)                        ,,,
391,/title/tt0072684/,Barry Lyndon,"Castle Howard, York, North Yorkshire, England, UK",(Castle Hackton - exteriors)                        ,,,
392,/title/tt0072684/,Barry Lyndon,"Corsham Court, Wiltshire, England, UK",(interior - where Barry scuffles with his stepson)                        ,"Corsham Court, High Street, Corsham, Wiltshire, South West England, England, SN13, United Kingdom",51.435028200000005,-2.1825371381642285
393,/title/tt0072684/,Barry Lyndon,"Longleat House, Wiltshire, England, UK",(interiors: Barry's company refused by Lord Wendover)                        ,"Longleat House, Lodge Road, Horningsham, Wiltshire, South West England, England, BA12 7NG, United Kingdom",51.18577295,-2.2744605067162253
394,/title/tt0072684/,Barry Lyndon,"Petworth, West Sussex, England, UK",(chapel: wedding)                        ,"Petworth, West Sussex, South East, England, United Kingdom",50.9862857,-0.6101088
395,/title/tt0072684/,Barry Lyndon,"Salisbury, Wiltshire, England, UK",,"Salisbury, Wiltshire, South West England, England, United Kingdom",51.0796895,-1.8074237640795872
396,/title/tt0072684/,Barry Lyndon,"Warminster, Wiltshire, England, UK",,"Warminster, Wiltshire, South West England, England, BA12, United Kingdom",51.205366,-2.1831682
397,/title/tt0072684/,Barry Lyndon,"Wilton, Salisbury, Wiltshire, England, UK",,"Wilton, Wiltshire, South West England, England, SP2 0JP, United Kingdom",51.0805315,-1.8607051
398,/title/tt0072684/,Barry Lyndon,Ireland,,Éire / Ireland,52.865196,-7.9794599
399,/title/tt0072684/,Barry Lyndon,"County Kilkenny, Ireland",,"County Kilkenny, Leinster, Ireland",52.5687098,-7.188983092181514
400,/title/tt0072684/,Barry Lyndon,"County Tipperary, Ireland",,"County Tipperary, Munster, Ireland",52.68477435,-7.898080410303971
401,/title/tt0072684/,Barry Lyndon,"West Sussex, England, UK",,"West Sussex, Coldwaltham, Horsham, West Sussex, South East, England, United Kingdom",50.94458445,-0.5278477012862655
402,/title/tt0072684/,Barry Lyndon,"Chavenage House, Tetbury, Gloucestershire, England, UK",(Pub where Barry's Leg is amputated)                        ,"Chavenage House, Chavenage Lane, Tetbury Upton, Cotswold, Gloucestershire, South West England, England, GL8 8XR, United Kingdom",51.65536415,-2.1865569117328345
403,/title/tt0072684/,Barry Lyndon,"England, UK",,"England, United Kingdom",52.7954791,-0.5402402866174321
404,/title/tt0831387/,Godzilla,"Honolulu, O'ahu, Hawaii, USA",,,,
405,/title/tt0831387/,Godzilla,"Victoria, British Columbia, Canada",,"Victoria, Capital Regional District, British Columbia, Canada",48.4283182,-123.3649533
406,/title/tt0831387/,Godzilla,"Steveston, Richmond, British Columbia, Canada","(as Janjira town in Japan) (as Lone Pine, Ca) (Steveson harbor as San Francisco's harbor)                        ","Steveston, Richmond, Metro Vancouver Regional District, British Columbia, Canada",49.1280561,-123.177415512419
407,/title/tt0831387/,Godzilla,"Las Vegas, Nevada, USA",(Las Vegas Blvd.)                        ,"Las Vegas, Clark County, Nevada, United States of America",36.1672559,-115.1485163
408,/title/tt0831387/,Godzilla,"San Francisco, California, USA",,"San Francisco, San Francisco City and County, California, United States of America",37.7790262,-122.4199061
409,/title/tt0831387/,Godzilla,"British Columbia, Canada",,"British Columbia, Canada",55.001251,-125.002441
410,/title/tt0831387/,Godzilla,"Hawaii, USA",,"Hawaii, United States of America",19.58726775,-155.42688965312746
411,/title/tt0831387/,Godzilla,"Caesars Palace - 3570 Las Vegas Boulevard South, Las Vegas, Nevada, USA",(location)                        ,,,
412,/title/tt0831387/,Godzilla,"Goldstream Provincial Park, Vancouver Island, British Columbia, Canada",(railroad trestle bridge)                        ,,,
413,/title/tt0831387/,Godzilla,"Finn Slough, Richmond, British Columbia, Canada",(abandoned Japanese village)                        ,"Finn Slough, Gilmore, Richmond, Metro Vancouver Regional District, British Columbia, V7A 2L3, Canada",49.1141078,-123.114177
414,/title/tt0831387/,Godzilla,"BC Place stadium - 777 Pacific Blvd, Vancouver, British Columbia, Canada",(emergency hub)                        ,"BC Place, 777, Pacific Boulevard, Yaletown, Downtown, Vancouver, Metro Vancouver Regional District, British Columbia, V6B5E7, Canada",49.2766905,-123.1120061895052
415,/title/tt0831387/,Godzilla,USA,,United States,39.7837304,-100.4458825
416,/title/tt0831387/,Godzilla,"Coquitlam, British Columbia, Canada",(Nuclear power plant exteriors)                        ,"Coquitlam, Metro Vancouver Regional District, British Columbia, Canada",49.2842958,-122.793281
417,/title/tt0831387/,Godzilla,"Richmond, British Columbia, Canada",,"Richmond, Metro Vancouver Regional District, British Columbia, V6Y, Canada",49.163168,-123.137414
418,/title/tt0089880/,Rambo: First Blood Part II,"Acapulco, Guerrero, Mexico",(waterfall scene)                        ,"Acapulco, Acapulco de Juárez, Guerrero, 39300, México",16.8680495,-99.8940182
419,/title/tt0089880/,Rambo: First Blood Part II,Mexico,,"Ciudad de México, 06060, México",19.4326296,-99.1331785
420,/title/tt0089880/,Rambo: First Blood Part II,"Sierra Madre del Sur de Oaxaca, Mexico",,"Sierra Madre del Sur, San Juan Ozolotepec, Oaxaca, México",16.17,-96.26
421,/title/tt0374463/,The Pacific,"Flinders Street Station, Flinders Street, Melbourne, Victoria, Australia",,"Flinders Street, Melbourne, City of Melbourne, Victoria, 3000, Australia",-37.8179793,144.9671293
422,/title/tt0374463/,The Pacific,"Lara, Victoria, Australia",,"Lara District, Lara, City of Greater Geelong, Victoria, 3212, Australia",-37.96738335,144.3660409155256
423,/title/tt0374463/,The Pacific,"Mowbray Valley, Queensland, Australia",,"Mowbray, Douglas Shire, Queensland, Australia",-16.5950012,145.4972229
424,/title/tt0374463/,The Pacific,"Docklands, Melbourne, Victoria, Australia",,"Docklands, Melbourne, City of Melbourne, Victoria, 3000, Australia",-37.8175423,144.9394923
425,/title/tt0374463/,The Pacific,"Mossman, Queensland, Australia",,"Mossman, Douglas Shire, Queensland, Australia",-16.4614455,145.3726649
426,/title/tt0374463/,The Pacific,"Los Angeles, California, USA",,"Los Angeles, Los Angeles County, California, United States of America",34.0536909,-118.2427666
427,/title/tt0100758/,Teenage Mutant Ninja Turtles,"Screen Gems Studios - 1223 North 23rd Street, Wilmington, North Carolina, USA",(studio)                        ,,,
428,/title/tt0100758/,Teenage Mutant Ninja Turtles,"North Carolina, USA",,"North Carolina, United States of America",35.6729639,-79.0392919
429,/title/tt0100758/,Teenage Mutant Ninja Turtles,"Wilmington, North Carolina, USA",,"Wilmington, New Hanover County, North Carolina, United States of America",34.2257282,-77.9447107
430,/title/tt0100758/,Teenage Mutant Ninja Turtles,USA,,United States,39.7837304,-100.4458825
431,/title/tt0120738/,Lost in Space,"London, England, UK",,"London, Greater London, England, United Kingdom",51.5073219,-0.1276474
432,/title/tt1535109/,Captain Phillips,Malta,,Malta,35.8885993,14.4476911
433,/title/tt1535109/,Captain Phillips,"Malta Freeport Terminals, Port of Marsaxlokk, Malta",,,,
434,/title/tt1535109/,Captain Phillips,"Sidi Bibi, Morocco",,"Sidi Bibi ⵙⵉⴷⵉ ⴱⵉⴱⵉ سيدي بيبي, caïdat de Sidi Bibi, cercle de Biougra, Province de Chtouka Aït Baha ⵍⵉⵇⵍⵉⵎ ⵏ ⵛⵜⵓⴽⴰ ⴰⵢⵜ ⴱⴰⵀⴰ إقليم شتوكة آيت باها, Souss-Massa ⵙⵓⵙⵙ-ⵎⴰⵙⵙⴰ سوس-ماسة, 87274, Maroc",30.237084,-9.526828
435,/title/tt1535109/,Captain Phillips,"Massachusetts, USA",,"Massachusetts, United States of America",42.3788774,-72.032366
436,/title/tt1535109/,Captain Phillips,"Virginia Beach, Virginia, USA",,"Virginia Beach, Virginia Beach (city), Virginia, United States of America",36.8529841,-75.9774183
437,/title/tt1535109/,Captain Phillips,"Agadir, Morocco",,"Pachalik d'Agadir ⵍⴱⴰⵛⴰⵡⵉⵢⴰ ⵏ ⴰⴳⴰⴷⵉⵔ أگادير ‎باشوية, Préfecture d'Agadir Ida-Outanane ⵍⵄⴰⵎⴰⵍⴰ ⵏ ⴰⴳⴰⴷⵉⵔ ⵉⴷⴰ ⵡⵜⴰⵏⴰⵏ عمالة أكادير إدا وتنان, Souss-Massa ⵙⵓⵙⵙ-ⵎⴰⵙⵙⴰ سوس-ماسة, Maroc",30.42203615,-9.55950887633639
438,/title/tt1535109/,Captain Phillips,"Longcross Studios, Chobham Lane, Longcross, Surrey, England, UK",(studio)                        ,,,
439,/title/tt1535109/,Captain Phillips,"Boston, Massachusetts, USA",,"Boston, Suffolk County, Massachusetts, United States of America",42.3602534,-71.0582912
440,/title/tt1535109/,Captain Phillips,"Lincoln, Massachusetts, USA",(filming across from Sister's house)                        ,"Lincoln, Middlesex County, Massachusetts, United States of America",42.4259283,-71.3039469
441,/title/tt1535109/,Captain Phillips,"Worcester, Massachusetts, USA",(airport)                        ,"Worcester, Worcester County, Massachusetts, United States of America",42.2625932,-71.8022934
442,/title/tt2908446/,Insurgent,"Chicago, Illinois, USA",(aerial photography)                        ,"Chicago, Cook County, Illinois, United States of America",41.8755616,-87.6244212
443,/title/tt2908446/,Insurgent,"Robinson Atrium, High Museum, Atlanta, Georgia, USA",(Erudite Headquarters)                        ,,,
444,/title/tt2908446/,Insurgent,"United States Penitentiary, Atlanta, Georgia, USA",,"United States Penitentiary, Atlanta, 601, McDonough Boulevard Southeast, Roseland, Thomasville, Atlanta, Georgia, 30315, United States of America",33.710511,-84.36899652238671
445,/title/tt2908446/,Insurgent,"Hutcheson Ferry Road, Palmetto, Georgia, USA",,,,
446,/title/tt2908446/,Insurgent,"Georgia Archives Building- 5800 Jonesboro Road, Morrow, Georgia, USA",(Candor Compound)                        ,,,
447,/title/tt2908446/,Insurgent,"Georgia, USA",,"Georgia, United States of America",32.3293809,-83.1137366
448,/title/tt0062711/,Barbarella,"Dino De Laurentiis Cinematografica Studios, Rome, Lazio, Italy",(studio)                        ,,,
449,/title/tt0076984/,Battlestar Galactica,"Red Rock Canyon State Park - Highway 14, Cantil, California, USA",,,,
450,/title/tt0076984/,Battlestar Galactica,"Universal Studios - 100 Universal City Plaza, Universal City, California, USA",,,,
451,/title/tt5848272/,Ralph Breaks the Internet,"Walt Disney Feature Animation - 500 S. Buena Vista Street, Burbank, California, USA",(studio) (Walt Disney Animation Studios)                        ,,,
452,/title/tt5884052/,Pokémon: Detective Pikachu,"Scotland, UK",,"Scotland, United Kingdom",56.7861112,-4.1140518
453,/title/tt5884052/,Pokémon: Detective Pikachu,"Minley, Hampshire, England, UK",(woods)                        ,"Minley, Hampshire, South East, England, GU17 9JT, United Kingdom",51.3154581,-0.8191106
454,/title/tt5884052/,Pokémon: Detective Pikachu,"Warner Bros. Studios, Leavesden, Hertfordshire, England, UK",,"Warner Bros Studios Leavesden, Essex Lane, Warner Bros. Studios Leavesden, Abbots Langley, Three Rivers, Hertfordshire, East of England, England, WD25 7LP, United Kingdom",51.6934642,-0.4205376395864987
455,/title/tt5884052/,Pokémon: Detective Pikachu,"Walt Disney's Golden Oak Ranch - 19802 Placerita Canyon Road, Newhall, California, USA",(Additional photography)                        ,,,
456,/title/tt1596343/,Fast & Furious 5,Puerto Rico,,"Puerto Rico, Orocovis, Puerto Rico, United States of America",18.2214149,-66.41328179513847
457,/title/tt1596343/,Fast & Furious 5,"Rio de Janeiro, Rio de Janeiro, Brazil",,"Rio de Janeiro, Região Geográfica Imediata do Rio de Janeiro, Região Metropolitana do Rio de Janeiro, Região Geográfica Intermediária do Rio de Janeiro, Rio de Janeiro, Região Sudeste, Brasil",-22.9110137,-43.2093727
458,/title/tt1596343/,Fast & Furious 5,"Parker, Arizona, USA",,"Parker, La Paz County, Arizona, United States of America",34.1498408,-114.2889608
459,/title/tt1596343/,Fast & Furious 5,"Los Angeles, California, USA",,"Los Angeles, Los Angeles County, California, United States of America",34.0536909,-118.2427666
460,/title/tt1596343/,Fast & Furious 5,"Middle Georgia Regional Airport, 1000 Terminal Dr, Macon, GA 31297, USA",(Hobbs arrives in Rio de Janeiro)                        ,,,
461,/title/tt0450259/,Blood Diamond,"Cape Town, Western Cape, South Africa",,"Cape Town, City of Cape Town, Western Cape, 8001, South Africa",-33.928992,18.417396
462,/title/tt0450259/,Blood Diamond,"Maputo, Mozambique",,"Cidade de Maputo, Distrito Municipal de KaMpfumo, Mozambique",-25.966213,32.56745
463,/title/tt0450259/,Blood Diamond,"Victoria and Alfred Waterfront, Cape Town, Western Cape, South Africa",,"City Lodge Hotel Victoria and Alfred Waterfront, Alfred Street, City Centre, Cape Town, City of Cape Town, Western Cape, 8001, South Africa",-33.9137038,18.422237099414716
464,/title/tt0450259/,Blood Diamond,"London, England, UK",,"London, Greater London, England, United Kingdom",51.5073219,-0.1276474
465,/title/tt0450259/,Blood Diamond,"KwaZulu-Natal, South Africa",,"KwaZulu-Natal, South Africa",-28.503833,30.8875009
466,/title/tt0082694/,Mad Max 2,"Mundi Mundi Plains Lookout, Silverton, New South Wales, Australia",,,,
467,/title/tt0082694/,Mad Max 2,"Menindee Lakes, New South Wales, Australia",,"Menindee Lakes Dam Wall, Central Darling Shire Council, New South Wales, Australia",-32.294117,142.3695382
468,/title/tt0082694/,Mad Max 2,"The Pinnacles, Broken Hill, NSW, Australia",,"Pinnacles Road, Broken Hill, Unincorporated Area, New South Wales, 2880, Australia",-32.0364137,141.358851
469,/title/tt0082694/,Mad Max 2,"Pinnacles Road, The Pinnacles, Broken Hill, NSW, Australia",,,,
470,/title/tt0082694/,Mad Max 2,"Stephen's Creek, New South Wales, Australia",,"Stephens Creek, Unincorporated Area, New South Wales, Australia",-31.8381319,141.5146851
471,/title/tt0071853/,Monty Python and the Holy Grail,"Castle Stalker, Appin, Argyll and Bute, Scotland, UK",(Castle of Aaaargh)                        ,"Castle Stalker, A828, Portnacroish, Port Appin, Argyll and Bute, Scotland, PA38 4BH, United Kingdom",56.571554899999995,-5.386109373894546
472,/title/tt0071853/,Monty Python and the Holy Grail,"Glen Coe, Highland, Scotland, UK",(Bridge of Death)                        ,"Glen Coe, A82, Caolasnacon, Highland, Scotland, PH49 4HX, United Kingdom",56.6669243,-5.0228812
473,/title/tt0071853/,Monty Python and the Holy Grail,"Epping Forest, Essex, England, UK",(Black Knight sequence)                        ,"Epping Forest, Stoney Bridge Drive, Waltham Abbey, Epping Forest, Essex, East of England, England, EN9 3AZ, United Kingdom",51.6651914,0.054777964493725836
474,/title/tt0071853/,Monty Python and the Holy Grail,"Meeting of the Three Waters, Glen Coe, Highland, Scotland, UK",(Bridge of Death)                        ,,,
475,/title/tt0071853/,Monty Python and the Holy Grail,"Loch Tay, Stirling, Scotland, UK",(Holy Hand Grenade scene)                        ,"Loch Tay Highland Lodges, A827, Stirling, Scotland, FK21 8TX, United Kingdom",56.494621699999996,-4.251304749375077
476,/title/tt0071853/,Monty Python and the Holy Grail,"River Cae, Glen Coe, Highland, Scotland, UK",(Bridge of Death)                        ,"River Coe, Highland, Scotland, PH49 4HU, United Kingdom",56.666916,-5.0213007
477,/title/tt0071853/,Monty Python and the Holy Grail,"Bracklinn Falls, Stirling, Scotland, UK",,"Bracklinn Falls, Stirling, Scotland, FK17 8JF, United Kingdom",56.2493457,-4.1880564
478,/title/tt0071853/,Monty Python and the Holy Grail,"Wakehurst Place, Ardingly, West Sussex, England, UK",(Sir Lancelot Running)                        ,"Wakehurst Place, Selsfield Road, Ardingly, Mid Sussex, West Sussex, South East, England, RH17 6TN, United Kingdom",51.06761605,-0.08866065808559373
479,/title/tt0071853/,Monty Python and the Holy Grail,"Appin, Argyll and Bute, Scotland, UK",,"Appin, Port Appin, Argyll and Bute, Scotland, PA38 4DB, United Kingdom",56.5622142,-5.3605993
480,/title/tt0071853/,Monty Python and the Holy Grail,"Killin, Stirling, Scotland, UK",,"Killin, Stirling, Scotland, United Kingdom",56.46635875,-4.3184932740855375
481,/title/tt0071853/,Monty Python and the Holy Grail,"Stirling, Scotland, UK",,"Stirling, Scotland, FK8 2DD, United Kingdom",56.1181242,-3.9360012
482,/title/tt0097737/,Leviathan,Adriatic Sea,,Jadransko more / Mare Adriatico / Deti Adriatik,42.7735486,15.233361002766292
483,/title/tt0097737/,Leviathan,"Gulf of Mexico, Mexico",(exteriors: ocean)                        ,"Golfo de México, 57500",24.4870296,-89.5363207573838
484,/title/tt0351283/,Madagascar,"Glendale, California, USA",(principal animation)                        ,"Glendale, Los Angeles County, California, United States of America",34.1469416,-118.2478471
485,/title/tt0091203/,Highlander,"Eilean Donan Castle, Kyle of Lochalsh, Highland, Scotland, UK",,,,
486,/title/tt0091203/,Highlander,"Trotternish Ridge, Skye, Highland, Scotland, UK",,,,
487,/title/tt0091203/,Highlander,"Rannoch Moor, Highland, Scotland, UK",,,,
488,/title/tt0091203/,Highlander,"St Augustine's Church, Kilburn, London, England, UK",(church scene)                        ,"St. Augustine's, Kilburn Park Road, Maida Vale, City of Westminster, London, Greater London, England, NW6 5UY, United Kingdom",51.533152349999995,-0.19158008979848695
489,/title/tt0091203/,Highlander,"The Storr, Isle of Skye, Highland, Scotland, UK",,,,
490,/title/tt0091203/,Highlander,"Brocket Hall, Lemsford, Welwyn Garden City, Hertfordshire, England, UK",(sword fencing scene)                        ,"Brocket Hall, Ayot Green, Ayot St Peter, Welwyn Hatfield, Hertfordshire, East of England, England, AL6 9BA, United Kingdom",51.80276485,-0.24050912270270453
491,/title/tt0091203/,Highlander,"Wales, UK",(Exterior battle scenes)                        ,"Cymru / Wales, United Kingdom",52.2928116,-3.73893
492,/title/tt0091203/,Highlander,"59th Street Bridge, Manhattan, New York City, New York, USA",,"Queensboro Bridge, West Road, Manhattan Community Board 8, Manhattan, New York County, New York, 10044, United States of America",40.75573455,-73.95189258066381
493,/title/tt0091203/,Highlander,"Loch Kishorn, Applecross, Highland, Scotland, UK",,,,
494,/title/tt0091203/,Highlander,"71 Greene Street, SoHo, New York City, New York, USA",(Russell Nash Antiques shop)                        ,"71, Greene Street, SoHo, Manhattan Community Board 2, Manhattan, New York County, New York, 10012, United States of America",40.723444400000005,-74.00095434246354
495,/title/tt0082348/,Excalibur,"Powerscourt Estate, Enniskerry, County Wicklow, Ireland",(waterfall)                        ,"Powerscourt Estate, Lime Tree Avenue, Powerscourt Demesne, Enniskerry, The Municipal District of Bray, County Wicklow, Leinster, A98 WA40, Ireland",53.1851022,-6.1871308
496,/title/tt0082348/,Excalibur,"County Tipperary, Ireland",,"County Tipperary, Munster, Ireland",52.68477435,-7.898080410303971
497,/title/tt0082348/,Excalibur,"County Wicklow, Ireland",,"County Wicklow, Leinster, Ireland",52.95814675,-6.381970708677661
498,/title/tt0082348/,Excalibur,"Cahir Castle, Cahir, County Tipperary, Ireland",(Arthur's Rescue's the Siege on the Castle)                        ,"Cahir Castle, Cahir Bridge, Townparks, Caher, The Municipal District of Cahir — Cashel, County Tipperary, Munster, E21H244, Ireland",52.3744033,-7.927133745168003
499,/title/tt7745956/,She-Ra and the Princesses of Power,"Chicago Illinois, USA",(main location)                        ,"Chicago, Cook County, Illinois, United States of America",41.8755616,-87.6244212
500,/title/tt0120363/,Toy Story 2,"Pixar Animation Studios - 1200 Park Avenue, Emeryville, California, USA",,"Pixar Animation Studios, 1200, Park Avenue, Longfellow, Emeryville, Alameda County, California, 94608, United States of America",37.832671399999995,-122.28369454930086
501,/title/tt0120363/,Toy Story 2,"Ohio, USA",,"Ohio, United States of America",40.2253569,-82.6881395
502,/title/tt0120363/,Toy Story 2,Japan,,日本,36.5748441,139.2394179
503,/title/tt0317919/,Mission: Impossible III,"Xitang, China",(canal scenes)                        ,"斜塘街道, 江苏省, China 中国",31.2467459,120.7305729
504,/title/tt0317919/,Mission: Impossible III,"Chesapeake Bay Bridge-Tunnel, Virginia Beach, Virginia, USA",(attack on convoy on bridge)                        ,,,
505,/title/tt0317919/,Mission: Impossible III,"Berlin, Germany",,"Berlin, 10117, Deutschland",52.5170365,13.3888599
506,/title/tt0317919/,Mission: Impossible III,"Rome, Lazio, Italy",,"Roma Capitale, Lazio, Italia",41.85223935,12.631036615953583
507,/title/tt0317919/,Mission: Impossible III,"Methodist Hospital - 300 W Huntington Drive, Arcadia, California, USA",(hospital entrance and parking lot when Hunt is trying to stop the kidnapping of his wife)                        ,,,
508,/title/tt0317919/,Mission: Impossible III,"Calabasas, California, USA",,"Calabasas, Los Angeles County, California, United States of America",34.1446643,-118.6440973
509,/title/tt0317919/,Mission: Impossible III,Germany,,Deutschland,51.0834196,10.4234469
510,/title/tt0317919/,Mission: Impossible III,"Los Angeles, California, USA",,"Los Angeles, Los Angeles County, California, United States of America",34.0536909,-118.2427666
511,/title/tt0317919/,Mission: Impossible III,"Washington, District of Columbia, USA",,"Washington, District of Columbia, 20230, United States of America",38.8949924,-77.0365581
512,/title/tt0317919/,Mission: Impossible III,"Richmond, Virginia, USA",,"Richmond, Richmond City, Virginia, 23298, United States of America",37.5385087,-77.43428
513,/title/tt0317919/,Mission: Impossible III,"Fontana, California, USA",(Steel Mill)                        ,"Fontana, San Bernardino County, California, United States of America",34.0922335,-117.435048
514,/title/tt0317919/,Mission: Impossible III,"Viale Vaticano, Rome, Lazio, Italy",(Gormley and Hunt organizing traffic jam under Vatican wall)                        ,"Viale Vaticano, Balduina, Quartiere XIV Trionfale, Roma, Roma Capitale, Lazio, 00192, Italia",41.9071902,12.4542097
515,/title/tt0317919/,Mission: Impossible III,USA,,United States,39.7837304,-100.4458825
516,/title/tt0055928/,Dr. No,"Dunn's River Falls, Ocho Rios, St. Ann, Jamaica",(Bond and Rider take a tropical dip - Crab Key shoreline - Bond and Quarrel arrive at the Crab Key falls)                        ,,,
517,/title/tt0055928/,Dr. No,"Les Ambassadeurs Club, Hamilton Place, Mayfair, London, England, UK",(exteriors: Le Cercle)                        ,,,
518,/title/tt0055928/,Dr. No,"Laughing Waters Beach, Ocho Rios, St. Ann, Jamaica",(James Bond and Honey Rider meet in the classic scene when Honey walks out of the ocean)                        ,,,
519,/title/tt0055928/,Dr. No,"Port Royal, Jamaica",(Pussfeller's Club/James Bond's meeting with Quarrel)                        ,"Port Royal, Saint Andrew, Surrey County, KINGSTON 1, Jamaika",17.9360762,-76.8417961
520,/title/tt0055928/,Dr. No,"Reynold's Bauxite Docks, Ocho Rios, St. Ann, Jamaica",(Laboratory of Dr. No - escape by Bond and Honey)                        ,,,
521,/title/tt0055928/,Dr. No,"Downtown, Kingston, Jamaica",(Three Blind Mice walking)                        ,"Downtown, North Parade Bus Park, Denham Town, Kingston, Surrey County, KINGSTON 14, Jamaika",17.9722044,-76.7934514
522,/title/tt0055928/,Dr. No,"Hampton House, London, England, UK",,"Hampton House, 2, Hadleigh Grove, London Borough of Croydon, London, Greater London, England, CR5 1DR, United Kingdom",51.3157767,-0.1373435
523,/title/tt0055928/,Dr. No,"Laughing Waters Estate, St. Ann's Bay, Jamaica",(Crab Key Beach)                        ,,,
524,/title/tt0055928/,Dr. No,"Queensborough House, London, England, UK",(Mi6 Headquarters - exteriors)                        ,"Queensborough Terrace, Westbourne Green, Bayswater, City of Westminster, London, Greater London, England, W2 3SG, United Kingdom",51.5126527,-0.1855475
525,/title/tt0055928/,Dr. No,"White River, Jamaica","(James Bond, Honey Rider and Quarrel travel up river)                        ","White River, Saint Ann, Middlesex County, JM19, Jamaika",18.4124241,-77.0701486
526,/title/tt0055928/,Dr. No,"Cement Factory, Kingston, Jamaica",(Bond departs to drive to the mountain home of Miss Taro)                        ,,,
527,/title/tt0055928/,Dr. No,"Farm, Vanzie Swamp Salt Marsh, Falmouth, Jamaica",(swamp scenes)                        ,,,
528,/title/tt0055928/,Dr. No,"Harbour Street, Kingston, Jamaica",(Three Blind Mice walking)                        ,"Harbour Street, Tivoli Gardens, Kingston, Surrey County, KINGSTON 14, Jamaika",17.9666138,-76.7966643
529,/title/tt0055928/,Dr. No,"King Street, Kingston, Jamaica",(Three Blind Mice walking)                        ,"King Street, Denham Town, Kingston, Surrey County, KINGSTON 14, Jamaika",17.9763411,-76.7923824
530,/title/tt0055928/,Dr. No,"Kingston Harbour, Kingston, Jamaica",,"Kingston Harbour, Wolfe Island Park-And-Ride, Sydenham, Kingston, Eastern Ontario, Ontario, K7L 1A1, Canada",44.2302513,-76.4746076
531,/title/tt0055928/,Dr. No,"Liguanea Club, New Kingston, Kingston, Jamaica",(John Strangway's bridge game at Queen's Club)                        ,"The Liguanea Club, Knutsford Boulevard, New Kingston, Saint Andrew, Surrey County, KINGSTON 5, Jamaika",18.00482245,-76.78853432253682
532,/title/tt0055928/,Dr. No,"Montego Bay, Cornwall, Jamaica",,"Montego Bay, Saint James, Cornwall County, Jamaika",18.4724603,-77.9217357
533,/title/tt0055928/,Dr. No,"New Kingston, Kingston, Jamaica",,"New Kingston, Saint Andrew, Surrey County, KINGSTON 5, Jamaika",18.0052171,-76.7862589
534,/title/tt0055928/,Dr. No,"Ocho Rios, St. Ann, Jamaica","(Miss Taro's Home, Dunn's River Falls, The White River, Reynolds Bauxite Pier)                        ","Ocho Rios, Saint Ann, Middlesex County, JM19, Jamaika",18.4081045,-77.1011092
535,/title/tt0055928/,Dr. No,"Palisadoes Road, Jamaica",,"Palisadoes Road, Harbour View, Saint Andrew, Surrey County, KINGSTON 17, Jamaika",17.9391301,-76.7669668
536,/title/tt0055928/,Dr. No,"Queen's Club, New Kingston, Kingston, Jamaica",(John Strangway's bridge game)                        ,,,
537,/title/tt0055928/,Dr. No,"Sans Souci Resort, Ocho Rios, St. Ann, Jamaica",(Super Club Grand Lido - Exteriors of the home of Miss Taro)                        ,,,
538,/title/tt0055928/,Dr. No,"St. Ann's Bay, Jamaica",(James Bond and Honey Rider adrift in the ocean)                        ,"St Ann's Bay, Saint Ann, Middlesex County, Jamaika",18.435614,-77.2023419
539,/title/tt0055928/,Dr. No,"Vanzie Swamp Salt Marsh, Falmouth, Jamaica",(swamp scenes)                        ,,,
540,/title/tt0055928/,Dr. No,"Windward Road, Jamaica",(James Bond drives to the mountain home of Miss Taro)                        ,"Windward Road, Manley Meadows, Kingston, Surrey County, KINGSTON CSO, Jamaika",17.9702345,-76.7776386
541,/title/tt0055928/,Dr. No,"Pinewood Studios, Iver Heath, Buckinghamshire, England, UK",(studio)                        ,"Pinewood Studios, Pinewood Green, Iver, Iver Heath, Buckinghamshire, South East, England, SL0 0QJ, United Kingdom",51.54831515,-0.5346765566753087
542,Code,Show Name,Location,Scene,"Location, Tucker County, West Virginia, United States of America",39.2138905,-79.6371124
543,/title/tt1843303/,The VelociPastor,"Manhattan, New York City, New York, USA",,"Manhattan, New York County, New York, United States of America",40.7896239,-73.9598939
544,/title/tt1628841/,Independence Day: Resurgence,"Albuquerque, New Mexico, USA",,"Albuquerque, Bernalillo County, New Mexico, United States of America",35.0841034,-106.6509851
545,/title/tt1628841/,Independence Day: Resurgence,"Albuquerque Studios - 5650 University Boulevard SE, Albuquerque, New Mexico, USA",(studio)                        ,"Albuquerque Studios, 5650, University Boulevard Southeast, Albuquerque, Bernalillo County, New Mexico, 87106, United States of America",34.989626099999995,-106.61274074444478
546,/title/tt1628841/,Independence Day: Resurgence,"London, England, UK",,"London, Greater London, England, United Kingdom",51.5073219,-0.1276474
547,/title/tt1628841/,Independence Day: Resurgence,"Utah, USA",,"Utah, United States of America",39.4225192,-111.7143584
548,/title/tt1628841/,Independence Day: Resurgence,"Nevada, USA",,"Nevada, United States of America",39.5158825,-116.8537227
549,/title/tt1628841/,Independence Day: Resurgence,"Tingley Coliseum - 300 San Pedro NE, Albuquerque, New Mexico, USA",(studio) (adapted space)                        ,,,
550,/title/tt1628841/,Independence Day: Resurgence,"Los Angeles, California, USA",(additional photography)                        ,"Los Angeles, Los Angeles County, California, United States of America",34.0536909,-118.2427666
551,/title/tt1628841/,Independence Day: Resurgence,"Burj Khalifa, United Arab Emirates",,"برج خليفة, 1, شارع الشيخ محمد بن راشد, Al Manzil, داون تاون دبي, دبي, PO BOX 114822, United Arab Emirates",25.197030599999998,55.274221681616936
552,/title/tt1628841/,Independence Day: Resurgence,"Marina Bay Sands - 10 Bayfront Avenue, Singapore",,"Marina Bay Sands, 10, Bayfront Avenue, Bayfront, Downtown Core, Singapore, Central, 018956, Singapore",1.2836965,103.8607226
553,/title/tt0454876/,Life of Pi,"Grafton, Auckland, New Zealand",(Train Station)                        ,"Grafton, Auckland, 101, New Zealand",-36.8622777,174.767751
554,/title/tt0454876/,Life of Pi,"Munar, Kerala, India",,"The Munar Queen Resort, Chithirapuram South, Anachal Road Chithirapuram, Munnar, Kerala, Sabarimala - Kodaikkanal Road, Devikulam, Idukki, Kerala, 685565, India",10.027940950000001,77.045070575
555,/title/tt0454876/,Life of Pi,"Taipei Zoo, Taiwan",,"臺北市立動物園, 30, 新光路二段, 新隆, 萬興里, 萬隆, 文山區, 11656, Taiwan",24.995354550000002,121.58614913190645
556,/title/tt0454876/,Life of Pi,India,,India,22.3511148,78.6677428
557,/title/tt0454876/,Life of Pi,"Old Port of Montreal, Montréal, Québec, Canada",(discussion between Pi and writer)                        ,"Vieux-Port, Vieux-Montréal, Ville-Marie, Montréal, Agglomération de Montréal, Montréal (06), Québec, H3C 2W3, Canada",45.50423875,-73.55299911906503
558,/title/tt0454876/,Life of Pi,"Baisha Bay, Kenting National Park, Pingtung, Taiwan",(The beach in Mexico)                        ,,,
559,/title/tt0186566/,Space Cowboys,"Six Flags Magic Mountain - 26101 Magic Mountain Parkway, Valencia, California, USA",(roller coaster)                        ,,,
560,/title/tt0186566/,Space Cowboys,"Houston, Texas, USA",(NASA Johnson Space Center. University of Houston - Downtown north parking lot)                        ,"Houston, Harris County, Texas, United States of America",29.7589382,-95.3676974
561,/title/tt0186566/,Space Cowboys,"Rockwell Defense Plant - Bellflower & Imperial Highway, Downey, California, USA",,,,
562,/title/tt0186566/,Space Cowboys,"Victorville, California, USA",,"Victorville, San Bernardino County, California, United States of America",34.5361067,-117.2911565
563,/title/tt0186566/,Space Cowboys,"Piru, California, USA",,"Piru, Ventura County, California, 93040, United States of America",34.4156137,-118.7927456
564,/title/tt0186566/,Space Cowboys,"Halfway House Cafe - 15564 Sierra Highway, Santa Clarita, California, USA",,,,
565,/title/tt0186566/,Space Cowboys,"Santa Clarita, California, USA",,"Santa Clarita, Los Angeles County, California, United States of America",34.3916641,-118.542586
566,/title/tt0186566/,Space Cowboys,"Stage 23, Warner Brothers Burbank Studios - 4000 Warner Boulevard, Burbank, California, USA",,,,
567,/title/tt0186566/,Space Cowboys,"Johnson Space Center - 2101 NASA Rd., Houston, Texas, USA",(Change scene to present after Edwards AFB)                        ,,,
568,/title/tt0186566/,Space Cowboys,"Johnson Space Center - 2101 NASA Rd., Houston, Texas, USA",,,,
569,/title/tt0186566/,Space Cowboys,"Houston, Texas, USA",,"Houston, Harris County, Texas, United States of America",29.7589382,-95.3676974
570,/title/tt0186566/,Space Cowboys,"Texas, USA",,"Texas, United States of America",31.8160381,-99.5120986
571,/title/tt8755226/,Daybreak,"Albuquerque, New Mexico, USA",,"Albuquerque, Bernalillo County, New Mexico, United States of America",35.0841034,-106.6509851
572,/title/tt8755226/,Daybreak,"New Mexico State Film Office, Santa Fe, New Mexico, USA",,,,
