,Code,Show Name,Location,Scene,geocodedLocation,latitude,longitude
0,/title/tt0067959/,Walkabout,"Alice Springs, Northern Territory, Australia",,"Alice Springs, Town of Alice Springs, Northern Territory, 0870, Australia",-23.6983884,133.8812885
1,/title/tt0067959/,Walkabout,"Darwin, Northern Territory, Australia",,"Darwin, City of Darwin, Northern Territory, 0800, Australia",-12.46044,130.8410469
2,/title/tt0067959/,Walkabout,"Central Australia, Australia",,Australia,-24.7761086,134.755
3,/title/tt0067959/,Walkabout,"Iron Knob, South Australia, Australia",,"Iron Knob, Pastoral Unincorporated Area, South Australia, Australia",-32.7375104,137.1483888
4,/title/tt0067959/,Walkabout,"New South Wales, Australia",,"New South Wales, Australia",-31.8759835,147.2869493
5,/title/tt0067959/,Walkabout,"South Australia, Australia",,"South Australia, Australia",-30.5343665,135.6301212
6,/title/tt0067959/,Walkabout,"Outback, South Australia, Australia",,"The Outback Highway, Lyndhurst, Pastoral Unincorporated Area, South Australia, 5731, Australia",-30.2876384,138.3494104
7,/title/tt0067959/,Walkabout,"Mid Northern South Australia, South Australia, Australia",,,,
8,/title/tt0067959/,Walkabout,"Whyalla, South Australia, Australia",,"The Corporation of the City of Whyalla, South Australia, Australia",-33.040891450000004,137.43236641576323
9,/title/tt0103442/,Highlander,"Scotland, UK",,"Scotland, United Kingdom",56.7861112,-4.1140518
10,/title/tt0103442/,Highlander,"Vancouver, British Columbia, Canada",,"Vancouver, Metro Vancouver Regional District, British Columbia, Canada",49.2608724,-123.1139529
11,/title/tt0103442/,Highlander,"Bordeaux, Gironde, France",,"Le Bordeaux, Rue Rolland, Bordeaux Centre, Bordeaux, Nouvelle-Aquitaine, France métropolitaine, 33000, France",44.8427203,-0.5813239
12,/title/tt0103442/,Highlander,"Paris, France",,"Paris, Île-de-France, France métropolitaine, France",48.8566969,2.3514616
13,/title/tt0063951/,Sesame Street,"Kaufman Astoria Studios - 3412 36th Street, Astoria, Queens, New York City, New York, USA",(1993-present)                        ,,,
14,/title/tt0063951/,Sesame Street,"New York City, New York, USA",,"New York, United States of America",40.7127281,-74.0060152
15,/title/tt0063951/,Sesame Street,"Colossal Cave Mountain Park, Vail, Arizona, USA",(Sesame Street Goes Western)                        ,,,
16,/title/tt0063951/,Sesame Street,"Sonoran Desert, Arizona, USA",(Sesame Street Goes Western)                        ,"Sonoran Desert, Bates Well Road, Pima County, Arizona, United States of America",32.2598642,-112.9262583
17,/title/tt0063951/,Sesame Street,"Town Theater - 55TH St and 9th Av, New York City, New York, USA",,,,
18,/title/tt1979388/,The Good Dinosaur,"New York City Studio, New York City, New York, USA",,,,
19,/title/tt1979388/,The Good Dinosaur,"Walt Disney Animation Studios - 2100 Riverside Drive, Burbank, California, USA",,,,
20,/title/tt4547056/,The Girl with All the Gifts,"Stoke-on-Trent, Staffordshire, England, UK",(Hanley Bus Station)                        ,"HSBC UK, 64, High Street, The Brampton, Newcastle-under-Lyme, Staffordshire, England, ST5 1QN, United Kingdom",53.01066415,-2.2275790160229243
21,/title/tt4547056/,The Girl with All the Gifts,"Pripyat, Ukraine",(as urban London) (only drone footage)                        ,"Кафе «Припять», 7, Набережна вулиця, IIIa мікрорайон, Центр міста (Прип'ять), Прип’ять, Київська область, 01196, Україна",51.40802935,30.065047371428577
22,/title/tt4547056/,The Girl with All the Gifts,"Church Street, Birmingham City Centre, England, UK",,"Church Street, Lozells, Birmingham, West Midlands Combined Authority, West Midlands, England, B19, United Kingdom",52.5011379,-1.911964
23,/title/tt4547056/,The Girl with All the Gifts,"Dudley, West Midlands, England, UK",(First night spent in the derelict hospital)                        ,"Dudley, West Midlands Combined Authority, England, United Kingdom",52.5110832,-2.0816813
24,/title/tt4547056/,The Girl with All the Gifts,"Cardington Studios, Bedford, UK",,,,
25,/title/tt0095489/,Platvoet en zijn vriendjes,"Sullivan Bluth Studios - Phoenix House, Conyngham Road, Northside, Dublin, Ireland",,,,
26,/title/tt5103758/,Troy: Fall of a City,"Cape Town Film Studios, Cape Town, Western Cape, South Africa",,"Cape Town Film Studios, Film City Boulevard, Houghton, Cape Town Ward 16, Eersterivier, City of Cape Town, Western Cape, 7784, South Africa",-34.0315617,18.719156772105897
27,/title/tt0237534/,Brotherhood of the Wolf,"Château de Roquetaillade, Mazères, Gironde, France",,"Château de Roquetaillade, D 223, Cap Blanc de Haut, Mazères, Langon, Nouvelle-Aquitaine, France métropolitaine, 33210, France",44.4925734,-0.26971103862068935
28,/title/tt0811080/,Speed Racer,"Potsdam, Brandenburg, Germany",,"Potsdam, Brandenburg, Deutschland",52.4009309,13.0591397
29,/title/tt0811080/,Speed Racer,"Victoria Park, Kreuzberg, Berlin, Germany",,"Kreuzberg, Friedrichshain-Kreuzberg, Berlin, Deutschland",52.4976443,13.411914
30,/title/tt0095956/,Rambo III,"Chiang Mai, Thailand",(Buddhist Monestary)                        ,"เชียงใหม่, จังหวัดเชียงใหม่, 4452, ประเทศไทย",18.790876,98.988048
31,/title/tt0095956/,Rambo III,"Bangkok, Thailand",,"กรุงเทพมหานคร, เขตพระนคร, กรุงเทพมหานคร, 10200, ประเทศไทย",13.7542529,100.493087
32,/title/tt0095956/,Rambo III,"Imperial County, California, USA",,"Imperial County, California, United States of America",33.0305487,-115.3595666
33,/title/tt0095956/,Rambo III,"Yuma, Arizona, USA",,"Yuma, Yuma County, Arizona, 85364, United States of America",32.6926588,-114.6276157
34,/title/tt0095956/,Rambo III,"Eagletail Mountains, Arizona, USA",,"Eagletail Mountains Wilderness, Arizona, United States of America",33.4015177,-113.36898554266111
35,/title/tt0095956/,Rambo III,"Eilat, Israel",,"אילת, נפת באר שבע, מחוז הדרום, no, ישראל",29.5569348,34.9497949
36,/title/tt0095956/,Rambo III,"Beit Guvrin National Park, Israel",(underground cave scenes)                        ,"גן לאומי בית גוברין, מועצה אזורית לכיש, נפת אשקלון, מחוז הדרום, no, ישראל",31.59512155,34.897474752760026
37,/title/tt0095956/,Rambo III,"Yuma Territorial Prison State Park - 206 N. Fourth Avenue, Yuma, Arizona, USA",,,,
38,/title/tt0049730/,The Searchers,"Edmonton, Alberta, Canada",,"Edmonton, Alberta, Canada",53.535411,-113.507996
39,/title/tt0049730/,The Searchers,"Aspen, Colorado, USA",,"Aspen, Pitkin County, Colorado, United States of America",39.1911128,-106.8235606
40,/title/tt0049730/,The Searchers,"Gunnison, Colorado, USA",,"Gunnison County, Colorado, United States of America",38.6476702,-107.0603126
41,/title/tt0049730/,The Searchers,"Teec Nos Pos, Arizona, USA",,"Teec Nos Pos, Navajo Route 5111, San Juan County, Arizona, United States of America",36.918902,-109.07962728700835
42,/title/tt0049730/,The Searchers,"Mexican Water, Arizona, USA",,"Mexican Water, Apache County, Arizona, United States of America",36.9669462,-109.6378902
43,/title/tt0049730/,The Searchers,"RKO-Pathé Studios - 9336 Washington Blvd., Culver City, California, USA",,,,
44,/title/tt0049730/,The Searchers,"Cut Bank, Montana, USA",,"Cut Bank, Glacier County, Montana, United States of America",48.63304,-112.326162
45,/title/tt0088814/,The Black Cauldron,"Llechwedd Slate Caverns, Llechwedd Slate Mine, Blaenau Ffestiniog, Gwynedd, Wales, UK",,,,
46,/title/tt0058855/,The Wild Wild West,"Old Tucson - 201 S. Kinney Road, Tucson, Arizona, USA",,"Old Tucson, 201, Kinney Road, Tucson Estates, Pima County, Arizona, 85735, United States of America",32.2186224,-111.1300273
47,/title/tt0058855/,The Wild Wild West,"CBS Studio Center - 4024 Radford Avenue, Studio City, Los Angeles, California, USA",,,,
48,/title/tt0058855/,The Wild Wild West,"Apacheland Studios - 4369 S. Kings Ranch Road, Gold Canyon, Arizona, USA",,,,
49,/title/tt0058855/,The Wild Wild West,"California, USA",,"California, United States of America",36.7014631,-118.7559974
50,/title/tt1620680/,A Wrinkle in Time,"Wanaka, Otago, New Zealand",,"Wanaka, Queenstown-Lakes District, Otago, 9305, New Zealand",-44.6941691,169.1364637
51,/title/tt1620680/,A Wrinkle in Time,"Hunter Valley Station Otago, New Zealand",,,,
52,/title/tt1620680/,A Wrinkle in Time,"Los Angeles Air Force Base San Pedro, California, USA",(Camazotz Suburbs)                        ,,,
53,/title/tt1620680/,A Wrinkle in Time,New Zealand,,New Zealand / Aotearoa,-41.5000831,172.8344077
54,/title/tt1620680/,A Wrinkle in Time,USA,,United States,39.7837304,-100.4458825
55,/title/tt0859163/,The Mummy: Tomb of the Dragon Emperor,"Waddesdon Manor, Buckinghamshire, England",,"Waddesdon Manor, North Avenue, Waddesdon, Buckinghamshire, South East, England, HP18 0JH, United Kingdom",51.84250175,-0.9373236865937951
56,/title/tt0859163/,The Mummy: Tomb of the Dragon Emperor,"Dongguan, Guangdong, China",,"东莞市, 广东省, China 中国",23.0444712,113.7465512
57,/title/tt0859163/,The Mummy: Tomb of the Dragon Emperor,"Montréal, Québec, Canada",,"Montréal, Agglomération de Montréal, Montréal (06), Québec, Canada",45.4972159,-73.6103642
58,/title/tt0859163/,The Mummy: Tomb of the Dragon Emperor,"Hengdian World Studios, Heng Dian, China",(Emperor's Palace)                        ,,,
59,/title/tt0859163/,The Mummy: Tomb of the Dragon Emperor,"Tianmo, Hebei Province, China",,,,
60,/title/tt0859163/,The Mummy: Tomb of the Dragon Emperor,"Shanghai, China",,"上海市, China 中国",31.2322758,121.4692071
61,/title/tt0859163/,The Mummy: Tomb of the Dragon Emperor,"B Stage, Shepperton Studios, Shepperton, Surrey, England, UK",,,,
62,/title/tt0250687/,Rat Race,"Palmdale, California, USA",(Truck Stop/Fatburger scene)                        ,"Palmdale, Los Angeles County, California, United States of America",34.5793131,-118.1171108
63,/title/tt0250687/,Rat Race,"Santa Clarita, California, USA",,"Santa Clarita, Los Angeles County, California, United States of America",34.3916641,-118.542586
64,/title/tt0250687/,Rat Race,"Las Vegas, Nevada, USA",,"Las Vegas, Clark County, Nevada, United States of America",36.1672559,-115.1485163
65,/title/tt0250687/,Rat Race,"Calgary, Alberta, Canada",,"Calgary, Strathmore (town), Alberta, Canada",51.0534234,-114.0625892
66,/title/tt0250687/,Rat Race,"Los Angeles, California, USA",,"Los Angeles, Los Angeles County, California, United States of America",34.0536909,-118.2427666
67,/title/tt0250687/,Rat Race,"McCarran International Airport - 5757 Wayne Newton Boulevard, Las Vegas, Nevada, USA",(Airport scene)                        ,,,
68,/title/tt1751105/,My Little Pony: Vriendschap is Magie,"Vancouver, British Columbia, Canada",,"Vancouver, Metro Vancouver Regional District, British Columbia, Canada",49.2608724,-123.1139529
69,/title/tt1351685/,Jack the Giant Slayer,"Bourne Woods, Farnham, Surrey, England, UK",,,,
70,/title/tt1351685/,Jack the Giant Slayer,"Norwich Cathedral, Norwich, Norfolk, England, UK",,"Norwich Cathedral, The Close, Thorpe Hamlet, Norwich, Norfolk, East of England, England, NR1 4DD, United Kingdom",52.6316796,1.3004754063935426
71,/title/tt1351685/,Jack the Giant Slayer,"Norwich, Norfolk, England, UK",(Norwich Cathedral)                        ,"Norwich, Norfolk, East of England, England, United Kingdom",52.628606,1.29227
72,/title/tt1351685/,Jack the Giant Slayer,"Elstree Studios, Borehamwood, Hertfordshire, England, UK",,"Elstree Studios, Shenley Road, Elstree and Borehamwood, Hertsmere, Hertfordshire, East of England, England, WD6 1JG, United Kingdom",51.657052050000004,-0.2675206399488197
73,/title/tt1351685/,Jack the Giant Slayer,"Stage 8, Longcross Studios, Chobham Lane, Longcross, Surrey, England, UK",(Gantua drain tunnel)                        ,,,
74,/title/tt1302067/,Yogi Bear,"Rotorua Lakes District, Rotorua, New Zealand",(Camp/ Picnic Area)                        ,,,
75,/title/tt1302067/,Yogi Bear,"Woodhill Forest, Woodhill, Auckland, New Zealand",(Tree Adventures)                        ,,,
76,/title/tt1302067/,Yogi Bear,"Auckland, New Zealand",,"Auckland, 1010, New Zealand",-36.852095,174.7631803
77,/title/tt0770752/,Fool's Gold,"Cairns, Queensland, Australia",,"Cairns, Cairns Regional, Queensland, 4870, Australia",-16.9206657,145.7721854
78,/title/tt0770752/,Fool's Gold,"Eleuthera Island, Bahamas",(shallow diving scenes)                        ,"Eleuthera, South Eleuthera, Bahamas",24.93038,-76.1921181
79,/title/tt0770752/,Fool's Gold,"Port Douglas, Queensland, Australia",,"Port Douglas, Douglas Shire, Queensland, 4877, Australia",-16.4845983,145.4636294
80,/title/tt0770752/,Fool's Gold,"Gold Coast, Queensland, Australia",,"Gold Coast City, Queensland, Australia",-28.0023731,153.4145987
81,/title/tt0770752/,Fool's Gold,"Royal Botanical Gardens, Brisbane, Queensland, Australia",,,,
82,/title/tt0770752/,Fool's Gold,"Village Roadshow Studios, Oxenford, Queensland, Australia",(studio)                        ,"Village Roadshow Studios, Entertainment Road, Oxenford, Gold Coast City, Queensland, 4210, Australia",-27.910527700000003,153.3118145855983
83,/title/tt0770752/,Fool's Gold,"Whitsunday Island, Queensland, Australia",(on location)                        ,"Whitsunday Island, Queensland, Australia",-20.2419212,148.98083914439644
84,/title/tt2106651/,Spectral,"Budapest, Hungary",,"Budapest, Közép-Magyarország, 1011, Magyarország",47.4983815,19.0404707
85,/title/tt2106651/,Spectral,"Korda Studios, Etyek, Hungary",(New York backlot)                        ,"Korda Filmstúdió, Etyek, Bicskei járás, Fejér megye, Közép-Dunántúl, Dunántúl, 2091, Magyarország",47.4397819,18.728804513362004
86,/title/tt2106651/,Spectral,Hungary,,Magyarország,47.1817585,19.5060937
87,/title/tt0074751/,King Kong,"Kaua'i, Hawaii, USA",(Skull Island)                        ,"Kauaʻi, Kauaʻi County, Hawaii, United States of America",22.050466550000003,-159.55876775017003
88,/title/tt0074751/,King Kong,"Na Pali Coast, Kaua'i, Hawaii, USA",(Skull Island)                        ,,,
89,/title/tt0074751/,King Kong,"San Pedro, Los Angeles, California, USA",,"San Pedro, Los Angeles, Los Angeles County, California, 90731, United States of America",33.7358518,-118.2922934
90,/title/tt0074751/,King Kong,"Biltmore Hotel - 506 S. Grand Avenue, Downtown, Los Angeles, California, USA",,,,
91,/title/tt0074751/,King Kong,"Metro-Goldwyn-Mayer Studios - 10202 W. Washington Blvd., Culver City, California, USA",(studio)                        ,,,
92,/title/tt0074751/,King Kong,"Queensboro Bridge, Manhattan, New York City, New York, USA",,"Queensboro Bridge, West Road, Manhattan Community Board 8, Manhattan, New York County, New York, 10044, United States of America",40.75573455,-73.95189258066381
93,/title/tt0074751/,King Kong,"Los Angeles, California, USA",,"Los Angeles, Los Angeles County, California, United States of America",34.0536909,-118.2427666
94,/title/tt0074751/,King Kong,"New York Public Library - Fifth Avenue & 42nd Street, Manhattan, New York City, New York, USA",,,,
95,/title/tt0462465/,Outlander,"Mardalsfossen, Norway",,"Mardalsfossen, Molde, Møre og Romsdal, Norge",62.474234,8.1228518
96,/title/tt0462465/,Outlander,"Gros Morne National Park, Newfoundland, Newfoundland and Labrador, Canada",,"Gros Morne National Park, Newfoundland, Newfoundland and Labrador, Canada",49.63584875,-57.653447344088406
97,/title/tt0462465/,Outlander,"Frenchman's Cove, Newfoundland, Newfoundland and Labrador, Canada",,"Frenchman's Cove, Newfoundland, Newfoundland and Labrador, Canada",47.166785399999995,-55.41662481898332
98,/title/tt0462465/,Outlander,"Little Port, Newfoundland, Newfoundland and Labrador, Canada",,"Little Port, Lark Harbour, Newfoundland, Newfoundland and Labrador, Canada",49.1074288,-58.4205404
99,/title/tt0462465/,Outlander,"Kidston Lake, Spryfield, Halifax, Nova Scotia, Canada",(Kainan's crash site)                        ,"Kidston Lake, Rockingstone Road, Thornhill, Spryfield, Halifax, Nova Scotia, B3R 2H9, Canada",44.59638605000001,-63.62018576715255
100,/title/tt0462465/,Outlander,"Kinsac Lake, Nova Scotia, Canada",,"Kinsac Lake, Martyn Drive, Fall River West, Fall River, Nova Scotia, B2T 1E7, Canada",44.83052655,-63.65476858999359
101,/title/tt0119925/,The Postman,"Boundary Dam, Metaline Falls, Washington, USA",(Bridge City scenes)                        ,,,
102,/title/tt0119925/,The Postman,"Bend, Oregon, USA",,"Bend, Deschutes County, Oregon, United States of America",44.0581728,-121.3153096
103,/title/tt0119925/,The Postman,"Tucson, Arizona, USA",,"Tucson, Pima County, Arizona, United States of America",32.2228765,-110.9748477
104,/title/tt0119925/,The Postman,"Sahuarita, Arizona, USA",,"Sahuarita, Pima County, Arizona, 85629, United States of America",31.9575818,-110.955646
105,/title/tt0119925/,The Postman,"Nogales, Arizona, USA",,"Nogales, Santa Cruz County, Arizona, 85621, United States of America",31.3402134,-110.9360818
106,/title/tt0119925/,The Postman,"Amado, Arizona, USA",,"Amado, Amado Montoso Road, Amado, Santa Cruz County, Arizona, 85645, United States of America",31.685279,-111.06212842449665
107,/title/tt0119925/,The Postman,"Agua Linda Farm, Arizona, USA",,"Agua Linda, Santa Cruz County, Arizona, 85645, United States of America",31.6789775,-111.0617579
108,/title/tt0086993/,The Bounty,"Moorea, French Polynesia",(South Seas locations)                        ,"Mo’orea, Moorea-Maiao, Îles du Vent, Polynésie Française, 98728, France",-17.533306000000003,-149.83860061183017
109,/title/tt0086993/,The Bounty,"Whangarei, Northland, New Zealand",(Pitcairn Island and Boat scenes)                        ,"Whangarei, Whangarei District, Northland, 0110, New Zealand",-35.7275268,174.3194202
110,/title/tt0086993/,The Bounty,"Gisborne, New Zealand",(Pitcairn Island and Boat scenes)                        ,"Gisborne, 4010, New Zealand",-38.661326,178.0206487
111,/title/tt0086993/,The Bounty,"Double Cube Room, Wilton House, Wilton, Salisbury, Wiltshire, England, UK",(Court Martial - interiors)                        ,,,
112,/title/tt0086993/,The Bounty,New Zealand,,New Zealand / Aotearoa,-41.5000831,172.8344077
113,/title/tt0086993/,The Bounty,"London, England, UK",,"London, Greater London, England, United Kingdom",51.5073219,-0.1276474
114,/title/tt0086993/,The Bounty,"Wiltshire, England, UK",,"Wiltshire, Patney, Wiltshire, South West England, England, United Kingdom",51.324162,-1.9032486699002247
115,/title/tt0111999/,Hercules: The Legendary Journeys,New Zealand,,New Zealand / Aotearoa,-41.5000831,172.8344077
116,/title/tt0111999/,Hercules: The Legendary Journeys,"St Lukes, Auckland, New Zealand",(studio)                        ,"Saint Lukes, Albert-Eden, Auckland, 1025, New Zealand",-36.8839307,174.7319442
117,/title/tt0338348/,The Polar Express,Arctic Ocean,,Arctic Ocean,83.0,-170.0
118,/title/tt0338348/,The Polar Express,"Los Angeles, California, USA",,"Los Angeles, Los Angeles County, California, United States of America",34.0536909,-118.2427666
119,/title/tt0338348/,The Polar Express,"Culver Studios - 9336 W. Washington Blvd., Culver City, California, USA",(studio)                        ,,,
120,/title/tt0057193/,It's a Mad Mad Mad Mad World,"Portuguese Point, 5500 Palos Verdes Dr. S., Palos Verdes, California, USA",(Santa Rosita Beach State Park)                        ,,,
121,/title/tt0057193/,It's a Mad Mad Mad Mad World,"John Wayne Airport - 18601 Airport Way, Santa Ana, California, USA",(Plane flys through billboard)                        ,,,
122,/title/tt0057193/,It's a Mad Mad Mad Mad World,"Long Beach, California, USA",,"Long Beach, Los Angeles County, California, United States of America",33.7690164,-118.1916048
123,/title/tt0057193/,It's a Mad Mad Mad Mad World,"Kernville, California, USA",,"Kernville, Morse Terrace, Wofford Heights, Kern County, California, 93285, United States of America",35.7330735,-118.43394593561493
124,/title/tt0057193/,It's a Mad Mad Mad Mad World,"Imperial Valley, California, USA",(old Interstate 8)                        ,"Imperial County, California, United States of America",33.0305487,-115.3595666
125,/title/tt0057193/,It's a Mad Mad Mad Mad World,"Sonoma County Airport, Santa Rosa, California, USA",,"Sonoma County Airport, Silk Road, Wilson Grove, Sonoma County, California, 95492, United States of America",38.50917815,-122.81481369071847
126,/title/tt0057193/,It's a Mad Mad Mad Mad World,"Kern River, California, USA",,"Kern River, Tulare County, California, United States of America",36.6916633,-118.4075848
127,/title/tt0057193/,It's a Mad Mad Mad Mad World,"Oxnard, California, USA",,"Oxnard, Ventura County, California, United States of America",34.1976308,-119.1803818
128,/title/tt0057193/,It's a Mad Mad Mad Mad World,"Yucca Valley, California, USA",,"Yucca Valley, San Bernardino County, California, United States of America",34.1234629,-116.4140676
129,/title/tt0057193/,It's a Mad Mad Mad Mad World,"Borrego Springs, California, USA",,"Borrego Springs, San Diego County, California, 92004, United States of America",33.2566792,-116.3782682
130,/title/tt0057193/,It's a Mad Mad Mad Mad World,"Lake Arrowhead, San Bernardino National Forest, California, USA",,,,
131,/title/tt0057193/,It's a Mad Mad Mad Mad World,"Pacific Coast Highway, Santa Monica, California, USA",,"Pacific Coast Highway, Santa Monica, Los Angeles County, California, 90401, United States of America",34.0123949,-118.4973887
132,/title/tt0057193/,It's a Mad Mad Mad Mad World,"Santa Monica, California, USA",,"Santa Monica, Los Angeles County, California, United States of America",34.0250724,-118.4965129
133,/title/tt0057193/,It's a Mad Mad Mad Mad World,"Los Angeles Harbor, San Pedro, Los Angeles, California, USA",,"Los Angeles Harbor, Miner Street, San Pedro, Los Angeles, Los Angeles County, California, 90731, United States of America",33.7097418,-118.2675707
134,/title/tt0057193/,It's a Mad Mad Mad Mad World,"Palm Springs, California, USA",,"Palm Springs, Riverside County, California, United States of America",33.8246269,-116.540303
135,/title/tt0057193/,It's a Mad Mad Mad Mad World,"Revue Studios, Hollywood, Los Angeles, California, USA",(studio)                        ,,,
136,/title/tt0057193/,It's a Mad Mad Mad Mad World,"Kramer Park, Backlot, Universal Studios - 100 Universal City Plaza, Universal City, California, USA",,,,
137,/title/tt0106582/,Cliffhanger,"Durango, Colorado, USA",,"Durango, La Plata County, Colorado, United States of America",37.2713951,-107.8815978
138,/title/tt0106582/,Cliffhanger,"Cortina d'Ampezzo, Belluno, Veneto, Italy",,"Cortina d'Ampezzo, Belluno, Veneto, 32043, Italia",46.5383332,12.1373506
139,/title/tt0106582/,Cliffhanger,"Cinecittà Studios, Cinecittà, Rome, Lazio, Italy",(studio)                        ,,,
140,/title/tt0106582/,Cliffhanger,"Rocky Mountains, Colorado, USA",(Hijack on plane) (aerial photography)                        ,"AEG Live Rocky Mountains, 930, West 7th Avenue, Santa Fe Arts District, Denver, Denver County, Colorado, 80204, United States of America",39.7271888,-104.9991566
141,/title/tt0106582/,Cliffhanger,USA,,United States,39.7837304,-100.4458825
142,/title/tt1646987/,Wrath of the Titans,"Tredegar, Blaenau Gwent, Wales, UK",,"Tredegar, Cardiff, Gwent, Cymru / Wales, NP22 3PX, United Kingdom",51.7732557,-3.2469535
143,/title/tt1646987/,Wrath of the Titans,"La Gomera, Canary Islands, Spain",,"La Gomera, Hermigua, Santa Cruz de Tenerife, Canarias, España",28.119242,-17.225640691220967
144,/title/tt1646987/,Wrath of the Titans,"Canary Islands, Spain",,"Canarias, La Orotava, Santa Cruz de Tenerife, Canarias, España",28.2935785,-16.621447121144122
145,/title/tt1646987/,Wrath of the Titans,Spain,,España,39.3262345,-4.8380649
146,/title/tt1646987/,Wrath of the Titans,"London, England, UK",,"London, Greater London, England, United Kingdom",51.5073219,-0.1276474
147,/title/tt1646987/,Wrath of the Titans,"B Stage, Shepperton Studios, Shepperton, Surrey, England, UK",,,,
148,/title/tt1646987/,Wrath of the Titans,"D Stage, Shepperton Studios, Shepperton, Surrey, England, UK",,,,
149,/title/tt1646987/,Wrath of the Titans,"H Stage, Shepperton Studios, Shepperton, Surrey, England, UK",,,,
150,/title/tt0892318/,Letters to Juliet,"Verona, Veneto, Italy",(Villa Arvedi)                        ,"Verona, Veneto, Italia",45.4384958,10.9924122
151,/title/tt0892318/,Letters to Juliet,"Soave, Verona, Veneto, Italy",,"Soave, Verona, Veneto, 37038, Italia",45.4202303,11.247722
152,/title/tt0892318/,Letters to Juliet,"Bryant Park, Manhattan, New York City, New York, USA",,"Bryant Park, 6th Avenue, Theater District, Manhattan Community Board 5, Manhattan, New York County, New York, 10018, United States of America",40.75375085,-73.98353680295259
153,/title/tt0120053/,The Saint,"Oxford, Oxfordshire, England, UK",,"Oxford, Oxfordshire, South East, England, United Kingdom",51.7520131,-1.2578499
154,/title/tt0120053/,The Saint,"Leningrad Station, Moscow, Russia",,"Ленинградский вокзал, 3, Комсомольская площадь, Красносельский район, Центральный административный округ, Москва, Центральный федеральный округ, 107140, Россия",55.777018850000005,37.65477899057977
155,/title/tt0120053/,The Saint,"Radcliffe Camera, Radcliffe Square, Oxford, Oxfordshire, England, UK",,"Radcliffe Camera, Radcliffe Square, St Ebbes, City Centre, Oxford, Oxfordshire, South East, England, United Kingdom",51.7534538,-1.2540099704885508
156,/title/tt0120053/,The Saint,"London, England, UK",,"London, Greater London, England, United Kingdom",51.5073219,-0.1276474
157,/title/tt0120053/,The Saint,UK,,United Kingdom,54.7023545,-3.2765753
158,/title/tt0120053/,The Saint,"Wyfold Court, Rotherfield Peppard, Oxfordshire, England, UK",(orphanage)                        ,"Wyfold Court, Lime Avenue, Rotherfield Peppard, South Oxfordshire, Oxfordshire, South East, England, RG9 5WB, United Kingdom",51.536511149999995,-1.0165965297991697
159,/title/tt0120053/,The Saint,"Halcyon Hotel, 81 Holland Park, Holland Park, London, England, UK","(Halcyon Hotel reception, 65 Holland Park Lane)                        ",,,
160,/title/tt0120053/,The Saint,"Pinewood Studios, Iver Heath, Buckinghamshire, England, UK",(studio)                        ,"Pinewood Studios, Pinewood Green, Iver, Iver Heath, Buckinghamshire, South East, England, SL0 0QJ, United Kingdom",51.54831515,-0.5346765566753087
161,/title/tt0120053/,The Saint,"University College, High Street, Oxford, Oxfordshire, England, UK",(Shelly memorial)                        ,"University College, Merton Street, St Ebbes, City Centre, Oxford, Oxfordshire, South East, England, OX1 4JD, United Kingdom",51.7520849,-1.2516646208312259
162,/title/tt5246700/,How It Ends,"Winnipeg Arena, Winnipeg, Manitoba, Canada",(Outdoor shots)                        ,,,
163,/title/tt5246700/,How It Ends,"Chicago Illinois, USA",(City Scene)                        ,"Chicago, Cook County, Illinois, United States of America",41.8755616,-87.6244212
164,/title/tt0402894/,Casanova,"Palazzo Soranzo Van Axel - 6099 Sestiere Cannaregio, Venice, Venato, Italy",(exteriors: gardens at Donato House/Casanova's patio)                        ,,,
165,/title/tt0402894/,Casanova,"Vicenza, Veneto, Italy",(interiors)                        ,"Vicenza, Veneto, Italia",45.63485905,11.40635425660249
166,/title/tt0403778/,Long Way Round,"Bojnice Castle, Bojnice, Slovakia",,,,
167,/title/tt0403778/,Long Way Round,"Almaty, Kazakhstan",,"Алматы, Бостандыкский район, Алматы, 050013, Kazakhstan",43.2363924,76.9457275
168,/title/tt0403778/,Long Way Round,"Calgary, Alberta, Canada",,"Calgary, Strathmore (town), Alberta, Canada",51.0534234,-114.0625892
169,/title/tt0403778/,Long Way Round,"Fairbanks, Alaska, USA",,"Fairbanks, Fairbanks North Star, Alaska, United States of America",64.837845,-147.716675
170,/title/tt0403778/,Long Way Round,"London, England, UK",,"London, Greater London, England, United Kingdom",51.5073219,-0.1276474
171,/title/tt0403778/,Long Way Round,"Magadan, Russia",,"Магадан, городской округ Магадан, Магаданская область, Дальневосточный федеральный округ, Россия",59.5604768,150.7988617
172,/title/tt0403778/,Long Way Round,"Minneapolis, Minnesota, USA",,"Minneapolis, Hennepin County, Minnesota, United States of America",44.9772995,-93.2654692
173,/title/tt0403778/,Long Way Round,"Mount Rushmore National Memorial - Highway 244, Keystone, South Dakota, USA",,,,
174,/title/tt0403778/,Long Way Round,"New York City, New York, USA",,"New York, United States of America",40.7127281,-74.0060152
175,/title/tt0403778/,Long Way Round,"Sandusky, Ohio, USA",,"Sandusky County, Ohio, United States of America",41.2951563,-83.1555438
176,/title/tt0403778/,Long Way Round,"Ulan Bator, Mongolia",,"Улаанбаатар, Монгол Улс",47.9184676,106.9177016
177,/title/tt0403778/,Long Way Round,"Yakutsk, Russia",,"Якутск, городской округ Якутск, Республика Саха (Якутия), Дальневосточный федеральный округ, Россия",62.027287,129.732086
178,/title/tt0093260/,Innerspace,"Northridge Fashion Mall - 9301 Tampa Avenue, Northridge, Los Angeles, California, USA",,,,
179,/title/tt0093260/,Innerspace,"377 Filbert St., San Francisco, California, USA",(Tuck Pendelton's apartment)                        ,"377, Filbert Street, Telegraph Hill, San Francisco, San Francisco City and County, California, 94123, United States of America",37.801829142857144,-122.40644685714285
180,/title/tt0093260/,Innerspace,"San Francisco, California, USA",,"San Francisco, San Francisco City and County, California, United States of America",37.7790262,-122.4199061
181,/title/tt0093260/,Innerspace,"Conservatory of Flowers, 100 John F Kennedy Dr, San Francisco, California, USA",,"Conservatory of Flowers, 100, John F Kennedy Drive, Cole Valley, San Francisco, San Francisco City and County, California, 94118-4504, United States of America",37.7726042,-122.46022597067075
182,/title/tt0093260/,Innerspace,"San Fernando Valley, Los Angeles, California, USA",,"San Fernando Valley, Los Angeles, Los Angeles County, California, 91406-1232, United States of America",34.2148853,-118.4998204
183,/title/tt0093260/,Innerspace,"Stage 18, Warner Brothers Burbank Studios - 4000 Warner Boulevard, Burbank, California, USA",,,,
184,/title/tt0098627/,Weekend at Bernie's,"Wrightsville Beach, North Carolina, USA",,"Wrightsville Beach, New Hanover County, North Carolina, United States of America",34.2079917,-77.7955907
185,/title/tt0098627/,Weekend at Bernie's,"Bald Head Island Ferry - 1301 Ferry Road SE, Southport, North Carolina, USA",,,,
186,/title/tt0098627/,Weekend at Bernie's,"Wilmington, North Carolina, USA",,"Wilmington, New Hanover County, North Carolina, United States of America",34.2257282,-77.9447107
187,/title/tt0098627/,Weekend at Bernie's,"Central Park, Manhattan, New York City, New York, USA",,"Central Park, Manhattan, New York County, New York, United States of America",40.7827725,-73.9653627406542
188,/title/tt0113198/,A Goofy Movie,"Walt Disney Feature Animation - 500 S. Buena Vista Street, Burbank, California, USA",,,,
189,/title/tt0127759/,L.E.T.H.A.L. Ladies: Return to Savage Beach,"Honolulu, O'ahu, Hawaii, USA",,,,
190,/title/tt0127759/,L.E.T.H.A.L. Ladies: Return to Savage Beach,"Dallas, Texas, USA",,"Dallas, Dallas County, Texas, United States of America",32.7762719,-96.7968559
191,/title/tt0253556/,Reign of Fire,"Wicklow Gap, County Wicklow, Ireland",,"Wicklow Gap, Brockagh, The Municipal District of Wicklow, County Wicklow, Leinster, Ireland",53.0424267,-6.3976585
192,/title/tt0253556/,Reign of Fire,"Dublin, County Dublin, Ireland",(London Set)                        ,"Dublin, County Dublin, Leinster, Ireland",53.3497645,-6.2602732
193,/title/tt0253556/,Reign of Fire,"North, County Mayo, Ireland",,"Idir dha Sháil, R313, Mullaghroe, An Geata Mór Theas ED, Westport-Belmullet Municipal District, County Mayo, Connacht, Ireland",54.1399701,-10.075426979865071
194,/title/tt0253556/,Reign of Fire,"Black Castle, Wicklow, Ireland",,"Black Castle, Castle Field, Corporation Lands, Wicklow Urban, The Municipal District of Wicklow, County Wicklow, Leinster, A67 W316, Ireland",52.9810952,-6.0307553
195,/title/tt0253556/,Reign of Fire,Ireland,,Éire / Ireland,52.865196,-7.9794599
196,/title/tt0253556/,Reign of Fire,"Wicklow Town, County Wicklow, Ireland",,"Wicklow, County Wicklow, Leinster, A67 PP78, Ireland",52.9802376,-6.0414184
197,/title/tt5206260/,The Willoughbys,"New York City, New York, USA",(Main Location)                        ,"New York, United States of America",40.7127281,-74.0060152
198,/title/tt2140553/,The Last of Us,"Pittsburgh, Pennsylvania, USA",,"Pittsburgh, Allegheny County, Pennsylvania, United States of America",40.4416941,-79.9900861
199,/title/tt2140553/,The Last of Us,"Seattle, Washington, USA",,"Seattle, King County, Washington, United States of America",47.6038321,-122.3300624
200,Code,Show Name,Location,Scene,"Location, Tucker County, West Virginia, United States of America",39.2138905,-79.6371124
201,/title/tt0343314/,Teen Titans,"Chicago Illinois, USA",,"Chicago, Cook County, Illinois, United States of America",41.8755616,-87.6244212
202,/title/tt0277296/,The Scorpion King,"Yuma, Arizona, USA",,"Yuma, Yuma County, Arizona, 85364, United States of America",32.6926588,-114.6276157
203,/title/tt0277296/,The Scorpion King,"San Diego, California, USA",,"San Diego, San Diego County, California, United States of America",32.7174209,-117.1627714
204,/title/tt0277296/,The Scorpion King,"Anza-Borrego Desert State Park - 200 Palm Canyon Drive, Borrego Springs, California, USA",,,,
205,/title/tt0277296/,The Scorpion King,"Palm Springs, California, USA",,"Palm Springs, Riverside County, California, United States of America",33.8246269,-116.540303
206,/title/tt0277296/,The Scorpion King,"Vasquez Rocks Natural Area Park - 10700 W. Escondido Canyon Rd., Agua Dulce, California, USA",,,,
207,/title/tt0277296/,The Scorpion King,"Bronson Canyon, Griffith Park - 4730 Crystal Springs Drive, Los Angeles, California, USA",,,,
208,/title/tt0277296/,The Scorpion King,"Square of Warriors, Backlot, Universal Studios - 100 Universal City Plaza, Universal City, California, USA",,,,
209,/title/tt0277296/,The Scorpion King,"Stage 29, Universal Studios - 100 Universal City Plaza, Universal City, California, USA",,,,
210,/title/tt0277296/,The Scorpion King,"Mystery Mesa, California, USA",,,,
211,/title/tt8179388/,Rim of the World,"Twin Lakes, Mammoth Lakes, Mono County, California, USA",(Rim of the World summer camp)                        ,"Twin Lakes, Lake Mary Road, Old Mammoth, Mammoth Lakes, Mono County, California, United States of America",37.621872100000004,-119.0067108459357
212,/title/tt8179388/,Rim of the World,"Westminster, California, USA",(Mall)                        ,"Westminster, Orange County, California, United States of America",33.7578725,-117.9859054
213,/title/tt7651352/,Ghost of Tsushima,"Tsushima Island, Japan",(based out of)                        ,"対馬, 対馬市, 長崎県, 日本 (Japan)",34.3952765,129.31544896587815
214,/title/tt0102975/,Star Trek: The Undiscovered Country,"Knik Glacier, Chugach State Park, Anchorage, Alaska, USA",,,,
215,/title/tt0102975/,Star Trek: The Undiscovered Country,"Fireman's Fund Building - 777 San Marin Drive, Novato, California, USA",,,,
216,/title/tt0102975/,Star Trek: The Undiscovered Country,"Golden Gate Bridge, San Francisco, California, USA",,"Golden Gate Bridge, Moore Road, Belvedere Island, Marin County, California, 94965, United States of America",37.8176155,-122.47831240371913
217,/title/tt0102975/,Star Trek: The Undiscovered Country,"Alaska, USA",,"Alaska, United States of America",64.4459613,-149.680909
218,/title/tt0386140/,The Legend of Zorro,Mexico,,"Ciudad de México, 06060, México",19.4326296,-99.1331785
219,/title/tt0386140/,The Legend of Zorro,New Zealand,,New Zealand / Aotearoa,-41.5000831,172.8344077
220,/title/tt0386140/,The Legend of Zorro,"San Luis Potosi, San Luis Potosí, Mexico",,"San Luis Potosí, Municipio de San Luis Potosí, San Luis Potosí, 78000, México",22.1516472,-100.9763993
221,/title/tt0104231/,Far and Away,"Billings, Montana, USA",(Oklahoma land rush)                        ,"Billings, Yellowstone County, Montana, United States of America",45.7874957,-108.49607
222,/title/tt0104231/,Far and Away,"Dingle Peninsula, County Kerry, Ireland",(coast)                        ,"Corca Dhuibhne, Kenmare Municipal District, County Kerry, Munster, Ireland",52.20679235,-10.03637366996086
223,/title/tt0104231/,Far and Away,"Temple Lane, Dublin, County Dublin, Ireland",(Molly Kay's bordello lodgings and street)                        ,"The Temple, Hardwicke Place, Rotunda A ED, Dublin, County Dublin, Leinster, D01 K6W6, Ireland",53.3573745,-6.2637676
224,/title/tt0104231/,Far and Away,"Ardmore Studios, Herbert Road, Bray, County Wicklow, Ireland",(studio)                        ,,,
225,/title/tt0104231/,Far and Away,"Bozeman, Montana, USA",,"Bozeman, Gallatin County, Montana, United States of America",45.6794293,-111.0440474
226,/title/tt0104231/,Far and Away,"Dublin, County Dublin, Ireland",,"Dublin, County Dublin, Leinster, Ireland",53.3497645,-6.2602732
227,/title/tt0104231/,Far and Away,"Kilruddery Gardens, Bray, County Wicklow, Ireland",(estate)                        ,"Kilruddery Deerpark, Kilmacanoge, The Municipal District of Bray, County Wicklow, Leinster, Ireland",53.1714415,-6.111532481202543
228,/title/tt1946502/,UglyDolls,"Dallas, Texas, USA",(Reel FX Dallas)                        ,"Dallas, Dallas County, Texas, United States of America",32.7762719,-96.7968559
229,/title/tt1946502/,UglyDolls,"Chengdu, China",(animation: Original Force)                        ,"成都市, 四川省, China 中国",30.6624205,104.0633219
230,/title/tt1946502/,UglyDolls,"Nanjing, China",(animation: Original Force)                        ,"南京市, 江苏省, China 中国",32.0609736,118.7916458
231,/title/tt1946502/,UglyDolls,"Wuhan, China",(animation: Original Force)                        ,"武汉市, 江岸区, 武汉市, 湖北省, 430021, China 中国",30.5951051,114.2999353
232,/title/tt1946502/,UglyDolls,"San Francisco, California, USA",(animation: Original Force)                        ,"San Francisco, San Francisco City and County, California, United States of America",37.7790262,-122.4199061
233,/title/tt1478964/,Attack the Block,"Heygate Estate, Southwark, London, England, UK",,"Elephant Park, London Borough of Southwark, London, Greater London, England, United Kingdom",51.4928222,-0.09629805358655374
234,/title/tt1478964/,Attack the Block,"Islington, London, England, UK",,"Islington, Greater London, England, N1, United Kingdom",51.5384287,-0.0999051
235,/title/tt1478964/,Attack the Block,"Larcom Street, Walworth, London, England, UK",(Action location)                        ,"Larcom Street, Walworth, London Borough of Southwark, London, Greater London, England, SE17, United Kingdom",51.4903539,-0.0969933
236,/title/tt0078622/,Hart to Hart,"3100 Mandeville Canyon Road, California, USA",(Hart's house)                        ,"3100, Mandeville Canyon Road, Brentwood, Los Angeles, Los Angeles County, California, 90049, United States of America",34.10038603348992,-118.503177
237,/title/tt0078622/,Hart to Hart,"First Christian Church of North Hollywood - 4390 Colfax Avenue, Studio City, Los Angeles, California, USA",,,,
238,/title/tt0078622/,Hart to Hart,"Stage 8, 20th Century Fox Studios - 10201 Pico Blvd., Century City, Los Angeles, California, USA",(studio)                        ,,,
239,/title/tt0078622/,Hart to Hart,"Warner Brothers Burbank Studios - 4000 Warner Boulevard, Burbank, California, USA",(studio) (seasons 4 and 5)                        ,,,
240,/title/tt0086859/,Against All Odds,"Chichén Itzá, Yucatán, Mexico",(Mayan Football Pitch)                        ,"Chichen Itzá, MEX 180, Privada Piste II, San Felipe Nuevo, X-Calakoop, Tinum, Yucatán, 97751, México",20.68285195,-88.5687196355205
241,/title/tt0086859/,Against All Odds,"Cozumel, Quintana Roo, Mexico",,"Cozumel, Quintana Roo, México",20.4317585,-86.92027456597663
242,/title/tt0086859/,Against All Odds,"Tulum, Quintana Roo, Mexico",,"Zona Arqueológica de Tulum, Avenida Ruinas Tulum, Tulum, Quintana Roo, 77780, México",20.2152358,-87.42953531439221
243,/title/tt0086859/,Against All Odds,"Sacred Centote, Yucatán, Mexico",(Disposal of body)                        ,,,
244,/title/tt0086859/,Against All Odds,"Yucatán, Mexico",,"Yucatán, México",20.6845957,-88.8755669
245,/title/tt0086859/,Against All Odds,"Hollywood Palace Theater - 1735 N. Vine Street, Hollywood, Los Angeles, California, USA",,,,
246,/title/tt0086859/,Against All Odds,Mexico,,"Ciudad de México, 06060, México",19.4326296,-99.1331785
247,/title/tt0086859/,Against All Odds,"Manhattan Beach, California, USA",,"Manhattan Beach, Los Angeles County, California, 90266, United States of America",33.8915985,-118.3951241
248,/title/tt12360292/,Power Rangers Dino Fury,"Auckland, New Zealand",,"Auckland, 1010, New Zealand",-36.852095,174.7631803
249,/title/tt0102782/,Return to the Blue Lagoon,"Taveuni Island, Fiji",,"Taveuni, Northern, Fiji",-16.8261493,-179.9354607
250,/title/tt0117731/,Star Trek: First Contact,"Titan Missile Museum - 1580 W. Duval Mine Road, Green Valley, Arizona, USA",,"Titan Missile Museum, 1580, West Duval Mine Road, Duval, Sahuarita, Pima County, Arizona, 85629, United States of America",31.9028426,-110.99921625250153
251,/title/tt0117731/,Star Trek: First Contact,"Green Valley, Arizona, USA",,"Green Valley, Pima County, Arizona, United States of America",31.8484548,-111.02659450731726
252,/title/tt0117731/,Star Trek: First Contact,"Union Station - 800 N. Alameda Street, Downtown, Los Angeles, California, USA",(1940's holodeck scene)                        ,,,
253,/title/tt0117731/,Star Trek: First Contact,"Arizona, USA",,"Arizona, United States of America",34.395342,-111.7632755
254,/title/tt0117731/,Star Trek: First Contact,USA,,United States,39.7837304,-100.4458825
255,/title/tt0089893/,Red Sonja,"Celano, Italy",,"Celano, L'Aquila, Abruzzo, 67043, Italia",42.08553,13.539798
256,/title/tt0077869/,In de Ban van de Ring,"Belmonte, Cuenca, Castilla-La Mancha, Spain",,"Belmonte, Cuenca, Castilla-La Mancha, 16640, España",39.5592831,-2.7038117
257,/title/tt0077869/,In de Ban van de Ring,"Mojave Desert, California, USA",,"Mojave Desert, Cima Road, Cima, San Bernardino County, California, 92323, United States of America",35.1456319,-115.54896378664561
258,/title/tt0066817/,Bedknobs and Broomsticks,"Dorset, England, UK",(castle)                        ,"Dorset, Cheselbourne, Dorset, South West England, England, United Kingdom",50.79683685,-2.34473226124306
259,/title/tt8328716/,Doom: Annihilation,"Sofia, Bulgaria",,"София, Столична, София-град, България",42.6978634,23.3221789
260,/title/tt8385474/,A Dog's Journey,"Winnipeg, Manitoba, Canada",,"Winnipeg, Winnipeg (city), Manitoba, Canada",49.8955367,-97.1384584
261,/title/tt8385474/,A Dog's Journey,"Chicago Illinois, USA",,"Chicago, Cook County, Illinois, United States of America",41.8755616,-87.6244212
262,/title/tt8385474/,A Dog's Journey,"Selkirk, Manitoba, Canada",,"Selkirk, Winnipeg (city), Manitoba, Canada",50.146986,-96.880188
263,/title/tt1023114/,The Way Back,Morocco,,Maroc / ⵍⵎⵖⵔⵉⴱ / المغرب,31.1728205,-7.3362482
264,/title/tt1023114/,The Way Back,"Erfoud, Morocco",,"Erfoud ⴰⵔⴼⵓⴷ أرفود, Pachalik de Arfoud, Province d'Errachidia إقليم الرشيدية, Drâa-Tafilalet ⴷⴰⵔⵄⴰ-ⵜⴰⴼⵉⵍⴰⵍⵜ درعة تافيلالت, 52200, Maroc",31.4324061,-4.2342572
265,/title/tt1023114/,The Way Back,Bulgaria,,Бългaрия,42.6073975,25.4856617
266,/title/tt1023114/,The Way Back,India,,India,22.3511148,78.6677428
267,/title/tt1023114/,The Way Back,"Prohodna Cave, Karlukovo, Lukovit, Bulgaria",(Ed Harris passes cave arches)                        ,,,
268,/title/tt0066995/,Diamonds Are Forever,"Elrod House - 2175 Southridge Drive, Palm Springs, California, USA",(Willard Whyte's Winter Villa Desert House)                        ,,,
269,/title/tt0066995/,Diamonds Are Forever,"Circus Circus Casino - 2880 Las Vegas Boulevard South, Las Vegas, Nevada, USA",(James Bond and Tiffany Case at Casino with trapeze artists)                        ,,,
270,/title/tt0066995/,Diamonds Are Forever,"Black Rock Desert, Nevada, USA",,"Black Rock Desert, Nevada, United States of America",41.08322595,-118.79699135337323
271,/title/tt0066995/,Diamonds Are Forever,"Frankfurt Airport, Frankfurt am Main, Hessen, Germany",(James Bond leaves Holland)                        ,"Frankfurt am Main Flughafen Fernbahnhof, Am Flughafen, Flughafen, Süd, Frankfurt am Main, Hessen, 60549, Deutschland",50.0530415,8.569538
272,/title/tt0066995/,Diamonds Are Forever,"Hover Port, Dover, Kent, England, UK",(hovercraft scenes)                        ,,,
273,/title/tt0066995/,Diamonds Are Forever,"Riviera Hotel & Casino - 2901 Las Vegas Boulevard South, Las Vegas, Nevada, USA","(Casino Interiors - James Bond meets Plenty O'Toole and wins $50, 000)                        ",,,
274,/title/tt0066995/,Diamonds Are Forever,"Vandenberg Air Force Base, California, USA",(Satellite Launch)                        ,"Vandenberg AFB, Greenbrier Road, Vandenberg Village, Santa Barbara County, California, 93436, United States of America",34.742593299999996,-120.51559863476373
275,/title/tt0066995/,Diamonds Are Forever,"Las Vegas Visitors Bureau - Highway 10, Las Vegas, Nevada, USA",(The Slumber Mortuary)                        ,,,
276,/title/tt0066995/,Diamonds Are Forever,"Las Vegas Boulevard South, Las Vegas, Nevada, USA",,"South Las Vegas Boulevard, Las Vegas, Clark County, Nevada, 89104-2547, United States of America",36.1504129,-115.152879
277,/title/tt0066995/,Diamonds Are Forever,"London, England, UK",,"London, Greater London, England, United Kingdom",51.5073219,-0.1276474
278,/title/tt0066995/,Diamonds Are Forever,"McCarran International Airport - 5757 Wayne Newton Boulevard, Las Vegas, Nevada, USA",,,,
279,/title/tt0066995/,Diamonds Are Forever,"Antibes, Alpes-Maritimes, France",(pre-credits sequence)                        ,"Antibes, Grasse, Alpes-Maritimes, Provence-Alpes-Côte d'Azur, France métropolitaine, France",43.5836,7.10905
280,/title/tt0066995/,Diamonds Are Forever,"Chatham Historic Dockyard, Chatham, Kent, England, UK",,,,
281,/title/tt0066995/,Diamonds Are Forever,"John Mansville Gypsum Plant, Las Vegas, Nevada, USA",(Whyte Techtronics Missile Laboratories)                        ,,,
282,/title/tt0066995/,Diamonds Are Forever,"Universal Studios - 100 Universal City Plaza, Universal City, California, USA",(studio) (Universal Studios parking lot)                        ,,,
283,/title/tt0066995/,Diamonds Are Forever,"Paradise, Nevada, USA",,"Paradise, Clark County, Nevada, United States of America",36.1150858,-115.1734142
284,/title/tt0066995/,Diamonds Are Forever,"Oceanside, California, USA",(Ernst Stavro Blofeld's Oil Rig Lair)                        ,"Oceanside, San Diego County, California, United States of America",33.1958696,-117.3794834
285,/title/tt0066995/,Diamonds Are Forever,"Pinewood Studios, Iver Heath, Buckinghamshire, England, UK",(studio)                        ,"Pinewood Studios, Pinewood Green, Iver, Iver Heath, Buckinghamshire, South East, England, SL0 0QJ, United Kingdom",51.54831515,-0.5346765566753087
286,/title/tt0066995/,Diamonds Are Forever,"Los Angeles County, California, USA",,"Los Angeles County, California, United States of America",34.3155072,-118.2096814
287,/title/tt0066995/,Diamonds Are Forever,"The Strip, Las Vegas, Nevada, USA",,"The Strip, North Las Vegas, Clark County, Nevada, 89115, United States of America",36.2859033,-115.0071652
288,/title/tt0066995/,Diamonds Are Forever,"Nevada Desert, Nevada, USA",(Desert scenes)                        ,"Nevada Department of Health & Human Services - Desert Regional Center, Charleston Heights, Las Vegas, Clark County, Nevada, United States of America",36.15629765,-115.22797910962709
289,/title/tt0066995/,Diamonds Are Forever,South of France,(pre-credits sequence)                        ,"The South of France, 1254, Westchester Avenue, The Bronx, Bronx County, New York, 10472, United States of America",40.831752,-73.8662124
290,/title/tt0066995/,Diamonds Are Forever,"Newport Pagnell, Buckinghamshire, England, UK",(interior: Q's workshop) (Aston Martin Works)                        ,"Newport Pagnell, Milton Keynes, South East, England, MK16 8AB, United Kingdom",52.0863864,-0.7237341
291,/title/tt0066995/,Diamonds Are Forever,"Paint Shop, Aston Martin Works - Tickford Street, Newport Pagnell, Buckinghamshire, England, UK",(interior: Q's workshop)                        ,,,
292,/title/tt0066995/,Diamonds Are Forever,"Room 831, Tropicana Hotel & Casino - 3801 Las Vegas Boulevard South, Las Vegas, Nevada, USA",(Room where James Bond stays In Las Vegas)                        ,,,
293,/title/tt0066995/,Diamonds Are Forever,"Eden-Roc Beach, Cap d'Antibes, Antibes, Alpes-Maritimes, France",(pre-credits sequence)                        ,"Eden-Roc, Boulevard John Fitzgerald Kennedy, Cap d'Antibes, Antibes, Grasse, Alpes-Maritimes, Provence-Alpes-Côte d'Azur, France métropolitaine, 06160, France",43.5476642,7.1189631
294,/title/tt0066995/,Diamonds Are Forever,"Skinny Bridge, Amsterdam, Noord-Holland, Netherlands",(aka Magere Brug) (Body dragged from canal)                        ,"Magere Brug, Amstel, Grachtengordel, Amsterdam, Noord-Holland, Nederland, 1017AL, Nederland",52.36358425,4.902375295343548
295,/title/tt0066995/,Diamonds Are Forever,"Amstel River, Amsterdam, Noord-Holland, Netherlands",(canal in Amsterdam)                        ,"Amstel, Amsterdam, Noord-Holland, Nederland, 1011PT, Nederland",52.3667009,4.9004217
296,/title/tt0066995/,Diamonds Are Forever,"Palm Downtown Cemetery - 1325 North Main Street, Las Vegas, Nevada, USA",(mortuary garden of remembrance)                        ,,,
297,/title/tt0066995/,Diamonds Are Forever,"Henderson, Nevada, USA",(exterior: Slumber Inc. Mortuary)                        ,"Henderson, Clark County, Nevada, United States of America",36.0301134,-114.9826194
298,/title/tt0066995/,Diamonds Are Forever,Pacific Ocean,,"Pacific Ocean, Gulf View Executive Homes, Talomo, Davao City, Davao Region, 8024, Philippines",7.0427772,125.5367255
299,/title/tt0758730/,AVP2: Aliens vs. Predator 2 - Requiem,"Vancouver, British Columbia, Canada",,"Vancouver, Metro Vancouver Regional District, British Columbia, Canada",49.2608724,-123.1139529
300,/title/tt0758730/,AVP2: Aliens vs. Predator 2 - Requiem,"Coquitlam, British Columbia, Canada",,"Coquitlam, Metro Vancouver Regional District, British Columbia, Canada",49.2842958,-122.793281
301,/title/tt0758730/,AVP2: Aliens vs. Predator 2 - Requiem,"British Columbia, Canada",,"British Columbia, Canada",55.001251,-125.002441
302,/title/tt0758730/,AVP2: Aliens vs. Predator 2 - Requiem,"Langley, British Columbia, Canada",,"Township of Langley, Metro Vancouver Regional District, British Columbia, Canada",49.106471850000005,-122.5501311568147
303,/title/tt0862467/,Valhalla Rising,"Scotland, UK",,"Scotland, United Kingdom",56.7861112,-4.1140518
304,/title/tt0396555/,Meet the Robinsons,"Burbank, California, USA",(studio)                        ,"Burbank, Los Angeles County, California, United States of America",34.1816482,-118.3258554
305,/title/tt1985966/,Het regent gehaktballen 2,"New York City, New York, USA",,"New York, United States of America",40.7127281,-74.0060152
306,/title/tt0806203/,Carriers,"Beach, between Sandcastle Drive and Beach Access Road 1A, Port Aransas, Texas, USA",(Beach/sea side)                        ,,,
307,/title/tt0806203/,Carriers,"Zia Pueblo, New Mexico, USA",(Big Chief Gas Station)                        ,"Zia Pueblo, Sandoval County, New Mexico, United States of America",35.523806,-106.72352625685669
308,/title/tt0806203/,Carriers,"Texas, USA",,"Texas, United States of America",31.8160381,-99.5120986
309,/title/tt0806203/,Carriers,"Homewood Suites, 10 Buffalo Thunder Trail, Santa Fe, New Mexico, USA",,,,
310,/title/tt0806203/,Carriers,USA,,United States,39.7837304,-100.4458825
311,/title/tt0213327/,Andromeda,"Vancouver, British Columbia, Canada",,"Vancouver, Metro Vancouver Regional District, British Columbia, Canada",49.2608724,-123.1139529
312,/title/tt0433362/,Daybreakers,"Brisbane, Queensland, Australia",,"Brisbane City, Queensland, Australia",-27.4689682,153.0234991
313,/title/tt0433362/,Daybreakers,Australia,,Australia,-24.7761086,134.755
314,/title/tt0433362/,Daybreakers,"Warner Roadshow Studios, Gold Coast, Queensland, Australia",(studio)                        ,,,
315,/title/tt0433362/,Daybreakers,"Riparian Plaza, Eagle Street, Brisbane, Queensland, Australia",,"Riparian Plaza, 71, Eagle Street, Brisbane City, Queensland, 4000, Australia",-27.468233650000002,153.03040944278965
316,/title/tt0396991/,LazyTown,"380° Studios - Miðhraun 4, Garðabær, Iceland",(studio)                        ,,,
317,/title/tt1335975/,47 Ronin,"Isle of Skye, Scotland, UK",,"Skye, Highland, Scotland, United Kingdom",57.363045,-6.301979224806201
318,/title/tt1335975/,47 Ronin,"Budapest, Hungary",,"Budapest, Közép-Magyarország, 1011, Magyarország",47.4983815,19.0404707
319,/title/tt1335975/,47 Ronin,"London, England, UK",,"London, Greater London, England, United Kingdom",51.5073219,-0.1276474
320,/title/tt1335975/,47 Ronin,"B Stage, Pinewood Studios, Iver Heath, Buckinghamshire, England, UK",,,,
321,/title/tt1335975/,47 Ronin,"D Stage, Pinewood Studios, Iver Heath, Buckinghamshire, England, UK",,,,
322,/title/tt1335975/,47 Ronin,"J Stage, Shepperton Studios, Shepperton, Surrey, England, UK",,,,
323,/title/tt1335975/,47 Ronin,"L Stage, Pinewood Studios, Iver Heath, Buckinghamshire, England, UK",,,,
324,/title/tt0076987/,Blake's 7,"Leeds, West Yorkshire, England, UK",,"Leeds, West Yorkshire, Yorkshire and the Humber, England, United Kingdom",53.7974185,-1.5437941
325,/title/tt0076987/,Blake's 7,"Bamburgh, Northumberland, England, UK",,"Bamburgh, Northumberland, North East England, England, NE69 7BL, United Kingdom",55.6074722,-1.7141346
326,/title/tt0076987/,Blake's 7,"Berkshire, England, UK",,"Berkshire, Churchend, Reading, South East, England, United Kingdom",51.453488899999996,-1.0318729593399247
327,/title/tt0076987/,Blake's 7,"Black Park, Iver Heath, Buckinghamshire, England, UK",,"Black Park, Wexham, Iver Heath, Buckinghamshire, South East, England, United Kingdom",51.542492100000004,-0.5441123704462851
328,/title/tt0076987/,Blake's 7,"Camden Town, Camden, London, England, UK",,"Camden Town, Camden High Street, Chalk Farm, London Borough of Camden, London, Greater London, England, NW1 8QH, United Kingdom",51.5394276,-0.1426923
329,/title/tt0076987/,Blake's 7,"Dorset, England, UK",,"Dorset, Cheselbourne, Dorset, South West England, England, United Kingdom",50.79683685,-2.34473226124306
330,/title/tt0076987/,Blake's 7,"Fulmer, Buckinghamshire, England, UK",,"Fulmer, Gerrards Cross, Buckinghamshire, South East, England, SL3 6HD, United Kingdom",51.5614118,-0.5614202
331,/title/tt0076987/,Blake's 7,"Kent, England, UK",,"Kent, Egerton, Ashford, Kent, South East, England, United Kingdom",51.20707485,0.7210361813401444
332,/title/tt0076987/,Blake's 7,"Oxfordshire, England, UK",,"Oxfordshire, South East, England, United Kingdom",51.833333,-1.25
333,/title/tt0076987/,Blake's 7,"Ripon, North Yorkshire, England, UK",,"Ripon, North Yorkshire, Yorkshire and the Humber, England, HG4, United Kingdom",54.1368788,-1.5213194
334,/title/tt0076987/,Blake's 7,"Southall, Middlesex, England, UK",,,,
335,/title/tt0076987/,Blake's 7,"Wells, Somerset, England, UK",,"Wells, Somerset, South West England, England, BA5 2RF, United Kingdom",51.2094511,-2.6451203
336,/title/tt0076987/,Blake's 7,"Wiltshire, England, UK",,"Wiltshire, Patney, Wiltshire, South West England, England, United Kingdom",51.324162,-1.9032486699002247
337,/title/tt0338188/,The Missing,"Ghost Ranch, Abiquiu, New Mexico, USA",,,,
338,/title/tt0338188/,The Missing,"Valles Caldera, New Mexico, USA",,"Valles Caldera, VC02, Sandoval County, New Mexico, United States of America",35.9000222,-106.5505896
339,/title/tt0338188/,The Missing,"Cook Ranch, Galisteo, New Mexico, USA",,,,
340,/title/tt0338188/,The Missing,"Santa Clara Pueblo, Santa Clara, New Mexico, USA",,,,
341,/title/tt0338188/,The Missing,"Bonanza Creek Ranch - 15 Bonanza Creek Lane, Santa Fe, New Mexico, USA",,,,
342,/title/tt0253754/,Star Trek: Nemesis,"El Mirage Dry Lake, California, USA",(private property portion of Dry Lake)                        ,"El Mirage Dry Lake, Alegre Lane, San Bernardino County, California, United States of America",34.642436599999996,-117.59821798766575
343,/title/tt0253754/,Star Trek: Nemesis,"California, USA",,"California, United States of America",36.7014631,-118.7559974
344,/title/tt0253754/,Star Trek: Nemesis,"Los Angeles, California, USA",,"Los Angeles, Los Angeles County, California, United States of America",34.0536909,-118.2427666
345,/title/tt0120657/,The 13th Warrior,"Williams Lake, British Columbia, Canada",,"Williams Lake, Cariboo Regional District, British Columbia, Canada",52.129081,-122.1397346
346,/title/tt0120657/,The 13th Warrior,"Campbell River, British Columbia, Canada",,"Campbell River, Strathcona Regional District, British Columbia, Canada",50.023071,-125.2441538
347,/title/tt0120657/,The 13th Warrior,"Vancouver, British Columbia, Canada",,"Vancouver, Metro Vancouver Regional District, British Columbia, Canada",49.2608724,-123.1139529
348,/title/tt0402022/,Æon Flux,"Berlin, Germany",,"Berlin, 10117, Deutschland",52.5170365,13.3888599
349,/title/tt0402022/,Æon Flux,"Windkanal, Berlin, Germany",,"Großer Windkanal, Brook-Taylor-Straße, Adlershof, Treptow-Köpenick, Berlin, 12489, Deutschland",52.4315661,13.530394278893663
350,/title/tt0402022/,Æon Flux,"Former american headquarters, Berlin, Germany",,,,
351,/title/tt0402022/,Æon Flux,"Filtergewoelbe Wasserwerk Friedrichshagen, Berlin, Germany",,,,
352,/title/tt0402022/,Æon Flux,"Mexikanische Botschaft, Berlin, Germany",,"Mexikanische Botschaft, 3, Klingelhöferstraße, Botschaftsviertel, Tiergarten, Mitte, Berlin, 10785, Deutschland",52.508113550000004,13.351136980635726
353,/title/tt0402022/,Æon Flux,"Buga Park, Potsdam, Brandenburg, Germany",,"BUGA-Park (Volkspark), Georg-Hermann-Allee, Bornstedt, Potsdam Nord, Potsdam, Brandenburg, 14469, Deutschland",52.419406,13.050286
354,/title/tt0402022/,Æon Flux,"Kapelle der Versoehnung, Berlin, Germany",,"Kapelle der Versöhnung, 8, Bernauer Straße, Spandauer Vorstadt, Mitte, Berlin, 10115, Deutschland",52.53580325,13.391922573455323
355,/title/tt0402022/,Æon Flux,"Langhansbau - Anatomisches Theater, Berlin, Germany",,,,
356,/title/tt0402022/,Æon Flux,"Renaissance Theater, Berlin, Germany",,"Renaissance-Theater Berlin, 100, Knesebeckstraße, Charlottenburg, Charlottenburg-Wilmersdorf, 10623, Deutschland",52.5103384,13.323503
357,/title/tt0402022/,Æon Flux,"Sans-Souci, Potsdam, Brandenburg, Germany",,"Potsdam, Brandenburg, Deutschland",52.4009309,13.0591397
358,/title/tt0402022/,Æon Flux,"Trudelturm, Berlin, Germany",,"Trudelturm, Brook-Taylor-Straße, Adlershof, Treptow-Köpenick, Berlin, 12489, Deutschland",52.431729450000006,13.529439737434611
359,/title/tt0402022/,Æon Flux,Germany,,Deutschland,51.0834196,10.4234469
360,/title/tt0402022/,Æon Flux,"Spandauer-See-Brücke, Berlin, Germany",,"Spandauer-See-Brücke, Haselhorst, Spandau, Berlin, 13587, Deutschland",52.5554599,13.2237948
361,/title/tt0457400/,Land of the Lost,"Dumont Dunes, California, USA",,"Dumont Dunes, San Bernardino County, California, United States of America",35.6833036,-116.2194652
362,/title/tt0457400/,Land of the Lost,"La Brea Tar Pits - 5801 Wilshire Blvd, Los Angeles, California, USA",,,,
363,/title/tt0457400/,Land of the Lost,"Stage 12, Universal Studios - 100 Universal City Plaza, Universal City, California, USA",(studio)                        ,,,
364,/title/tt0457400/,Land of the Lost,"Stage 28, Universal Studios - 100 Universal City Plaza, Universal City, California, USA",,,,
365,/title/tt0457400/,Land of the Lost,USA,,United States,39.7837304,-100.4458825
366,/title/tt1641349/,Terra Nova,"Brisbane, Queensland, Australia",,"Brisbane City, Queensland, Australia",-27.4689682,153.0234991
367,/title/tt1641349/,Terra Nova,"Village Roadshow Studios, Oxenford, Queensland, Australia",(studio)                        ,"Village Roadshow Studios, Entertainment Road, Oxenford, Gold Coast City, Queensland, 4210, Australia",-27.910527700000003,153.3118145855983
368,/title/tt0081573/,Superman II,"Calgary, Alberta, Canada",,"Calgary, Strathmore (town), Alberta, Canada",51.0534234,-114.0625892
369,/title/tt0081573/,Superman II,Norway,,"Norge, Namsos, Trøndelag, Norge",64.5731537,11.52803643954819
370,/title/tt0081573/,Superman II,"Albert R. Broccoli 007 Stage, Pinewood Studios, Iver Heath, Buckinghamshire, England, UK",(studio) (interiors: The Fortress of Solitude)                        ,,,
371,/title/tt0081573/,Superman II,"Paris, France",,"Paris, Île-de-France, France métropolitaine, France",48.8566969,2.3514616
372,/title/tt0081573/,Superman II,"Pinewood Studios, Iver Heath, Buckinghamshire, England, UK",(studio)                        ,"Pinewood Studios, Pinewood Green, Iver, Iver Heath, Buckinghamshire, South East, England, SL0 0QJ, United Kingdom",51.54831515,-0.5346765566753087
373,/title/tt6820256/,Arctic,Iceland,(location)                        ,Ísland,64.9841821,-18.1059013
374,Code,Show Name,Location,Scene,"Location, Tucker County, West Virginia, United States of America",39.2138905,-79.6371124
375,/title/tt2334871/,Snatched,"Honolulu, Hawaii, USA",,"Honolulu, Honolulu County, Hawaii, United States of America",21.304547,-157.8556764
376,/title/tt2334871/,Snatched,"New York City, New York, USA",,"New York, United States of America",40.7127281,-74.0060152
377,/title/tt7775622/,Free Solo,Morocco,,Maroc / ⵍⵎⵖⵔⵉⴱ / المغرب,31.1728205,-7.3362482
378,/title/tt7775622/,Free Solo,"Mira Loma High School, Sacramento, California, USA",,"Mira Loma High School, Country Haven Court, Walerga, Sacramento County, California, 2557, United States of America",38.6311072,-121.37028589375291
379,/title/tt7775622/,Free Solo,"San Francisco International Airport, San Francisco, California, USA",,"San Francisco International Airport, 780, South Airport Boulevard, San Mateo County, California, 94128, United States of America",37.622451999999996,-122.38407160781362
380,/title/tt6062774/,Monos,"Chingaza National Park, Cundinamarca, Colombia","(The abandoned fortress were Doctora is initially being kept captive by the Monos. Training camp, night party and the cow sequences)                        ","Parque Nacional Natural Chingaza, Cundinamarca, Colombia",4.56916295,-73.74310702971016
381,/title/tt6062774/,Monos,"Samana Norte River, Antioquia, Colombia",(The jungle and the rapids where Rambo and Doctora Watson escape)                        ,"Samana del Norte, San Carlos, Oriente, Antioquia, Colombia",6.1300253,-74.8332287
382,/title/tt0077031/,The Incredible Hulk,"Backlot, Universal Studios - 100 Universal City Plaza, Universal City, California, USA",,,,
383,/title/tt0077031/,The Incredible Hulk,"Universal Studios - 100 Universal City Plaza, Universal City, California, USA",(interiors)                        ,,,
384,/title/tt1318517/,The Man Who Killed Don Quixote,Portugal,,Portugal,40.0332629,-7.8896263
385,/title/tt1318517/,The Man Who Killed Don Quixote,"Canary Islands, Spain",,"Canarias, La Orotava, Santa Cruz de Tenerife, Canarias, España",28.2935785,-16.621447121144122
386,/title/tt1318517/,The Man Who Killed Don Quixote,"Monasterio de Piedra, Nuévalos, Zaragoza, Aragón, Spain",(waterfall)                        ,"Monasterio de Piedra, Nuévalos, Comunidad de Calatayud, Zaragoza, Aragón, España",41.1933101,-1.7825438
387,/title/tt1318517/,The Man Who Killed Don Quixote,"Ojos-Albos, Ávila, Castilla y León, Spain",(wind turbines)                        ,"Ojos-Albos, Ávila, Castilla y León, España",40.7062924,-4.5166059
388,/title/tt1318517/,The Man Who Killed Don Quixote,"Castilla-La Mancha, Spain",,"Castilla-La Mancha, España",39.4177902,-2.6232332
389,/title/tt1318517/,The Man Who Killed Don Quixote,"Castillo de Oreja, Ontígola, Toledo, Castilla-La Mancha, Spain",(Castle in ruins)                        ,"Castillo de Oreja, Camino de Aranjuez a la Barca, Ontígola, Las Vegas, Comunidad de Madrid, 28300, España",40.03896835,-3.498225773938679
390,/title/tt1318517/,The Man Who Killed Don Quixote,"La Cartuja, Talamanca de Jarama, Madrid, Spain",(Hostel scenes)                        ,"Coto de la Cartuja, Talamanca de Jarama, Cuenca del Medio Jarama, Comunidad de Madrid, 19170, España",40.6980589,-3.4712017
391,/title/tt1318517/,The Man Who Killed Don Quixote,"Olite, Navarra, Spain",,"Olite/Erriberri, Navarra - Nafarroa, 31390, España",42.4813623,-1.6512224
392,/title/tt1318517/,The Man Who Killed Don Quixote,"Villacastín, Segovia, Castilla y León, Spain",,"Villacastín, El Espinar, Castilla y León, 40150, España",40.7806684,-4.4134435
393,/title/tt1109624/,Paddington,Costa Rica,(Peru)                        ,Costa Rica,10.2735633,-84.0739102
394,/title/tt1109624/,Paddington,"Alice's Antiques, Portobello Road Market, Portobello Road, Notting Hill, London, England, UK",(Gruber's Antique Shop)                        ,,,
395,/title/tt1109624/,Paddington,"Elstree, Hertfordshire, England, UK",(studio)                        ,"Elstree, Hertsmere, Hertfordshire, East of England, England, WD6 3FE, United Kingdom",51.6436161,-0.2994431
396,/title/tt1109624/,Paddington,"Chalcot Crescent, Primrose Hill, London, England, UK",(the Brown family's house at 32 Windsor Gardens)                        ,"Chalcot Crescent, Chalk Farm, London Borough of Camden, London, Greater London, England, NW1 8YG, United Kingdom",51.5406453,-0.1562164
397,/title/tt1109624/,Paddington,"Natural History Museum, South Kensington, London, England, UK",,"Natural History Museum, Queen's Gate, Brompton, Royal Borough of Kensington and Chelsea, London, Greater London, England, SW7 5QL, United Kingdom",51.4955742,-0.1790756
398,/title/tt1109624/,Paddington,"Marylebone Station, Marylebone, London, England, UK",(Paddington Station: exterior and station sign)                        ,"London Marylebone, Boston Place, Marylebone, City of Westminster, London, Greater London, England, NW1 6JJ, United Kingdom",51.52427,-0.1634083
399,/title/tt0790736/,R.I.P.D.,"Raynham, Massachusetts, USA",,"Raynham, Bristol County, Massachusetts, 02767, United States of America",41.9487118,-71.0731008
400,/title/tt0790736/,R.I.P.D.,"Providence, Rhode Island, USA",,"Providence, Providence County, Rhode Island, United States of America",41.8239891,-71.4128343
401,/title/tt0790736/,R.I.P.D.,"Aon Center - 707 Wilshire Blvd., Los Angeles, California, USA",(Final Scene)                        ,,,
402,/title/tt8022978/,Power Rangers Beast Morphers,"Auckland, New Zealand",,"Auckland, 1010, New Zealand",-36.852095,174.7631803
403,/title/tt0250223/,Astérix & Obélix: Mission Cléopâtre,"Ouarzazate, Morocco",,"Ouarzazate ⵡⴰⵔⵣⴰⵣⴰⵜ ورزازات, Pachalik d'Ouarzazate, Province de Ouarzazate ⵍⵉⵇⵍⵉⵎ ⵏ ⵡⴰⵔⵣⴰⵣⴰⵜ إقليم ورززات, Drâa-Tafilalet ⴷⴰⵔⵄⴰ-ⵜⴰⴼⵉⵍⴰⵍⵜ درعة تافيلالت, 45005, Maroc",30.920193,-6.910923
404,/title/tt0250223/,Astérix & Obélix: Mission Cléopâtre,"Atlas Corporation Studios, Ouarzazate, Morocco",(studio)                        ,,,
405,/title/tt0250223/,Astérix & Obélix: Mission Cléopâtre,Morocco,,Maroc / ⵍⵎⵖⵔⵉⴱ / المغرب,31.1728205,-7.3362482
406,/title/tt0081871/,The Greatest American Hero,"Santa Clarita, California, USA",,"Santa Clarita, Los Angeles County, California, United States of America",34.3916641,-118.542586
407,/title/tt0081871/,The Greatest American Hero,"Universal Studios - 100 Universal City Plaza, Universal City, California, USA",,,,
408,/title/tt3488710/,The Walk,"Montréal, Québec, Canada",,"Montréal, Agglomération de Montréal, Montréal (06), Québec, Canada",45.4972159,-73.6103642
409,/title/tt3488710/,The Walk,Canada,,Canada,61.0666922,-107.9917071
410,/title/tt3488710/,The Walk,"Vieux Montreal, Montréal, Québec, Canada",(Various interior and exterior scenes in Paris)                        ,"Vieux-Montréal, Ville-Marie, Montréal, Agglomération de Montréal, Montréal (06), Québec, Canada",45.5033677,-73.5574484
411,/title/tt5158314/,Detroit: Become Human,"Detroit, Michigan, USA",,"Detroit, Wayne County, Michigan, United States of America",42.3315509,-83.0466403
412,/title/tt0106965/,Free Willy,"Astoria, Oregon, USA",,"Astoria, Clatsop County, Oregon, 97103, United States of America",46.187885,-123.831256
413,/title/tt0106965/,Free Willy,"Mexico City, Distrito Federal, Mexico",,"México, Calle Benito Juárez, Unidad Habitacional Integración Latinoamericana, Naucalpan, 04350, México",19.337797000000002,-99.17851255290537
414,/title/tt0106965/,Free Willy,"San Juan Islands, Washington, USA",(orca capture scenes)                        ,"San Juan Islands, Unorganized Borough, Alaska, United States of America",57.2870602,-134.00490622741472
415,/title/tt0106965/,Free Willy,"3392 Harrison Ave, Astoria, Oregon, USA",(Jesse's house)                        ,"3392, Harrison Avenue, Uppertown, Astoria, Clatsop County, Oregon, 97103, United States of America",46.18944569696969,-123.80719006060606
416,/title/tt0106965/,Free Willy,"Hammond Marina, Hammond, Oregon, USA",(Final scene location)                        ,"Hammond Boat Marina-Boat Launch, Jetty Street, Warrenton, Clatsop County, Oregon, 97121, United States of America",46.203341550000005,-123.95021440110638
417,/title/tt0106965/,Free Willy,"Ecola State Park - Highway 101, Cannon Beach, Oregon, USA","(Where Jesse kicks a garbage can, exterior scene)                        ",,,
418,/title/tt0106965/,Free Willy,"Oregon, USA",,"Oregon, United States of America",43.9792797,-120.737257
419,/title/tt0106965/,Free Willy,USA,,United States,39.7837304,-100.4458825
420,/title/tt1181917/,The Suite Life on Deck,"Hollywood Center Studios - 1040 N. Las Palmas Avenue, Hollywood, Los Angeles, California, USA",,"Hollywood Center Studios, Romaine Street, Hollywood, Los Angeles, Los Angeles County, California, 90038, United States of America",34.08981165,-118.33500930891499
421,/title/tt0086822/,V,"Sable Ranch - 25933 Sand Canyon Road, Santa Clarita, California, USA",,,,
422,/title/tt0086822/,V,"Stage 26, Warner Brothers Burbank Studios - 4000 Warner Boulevard, Burbank, California, USA",,,,
423,/title/tt0118661/,The Avengers,"RAF Little Rissington, Gloucestershire, England, UK",(disused RAF base for opening sequence)                        ,"RAF Little Rissington, Sparrows Way, Victory Fields, Upper Rissington, Cotswold, Gloucestershire, South West England, England, GL54 2QP, United Kingdom",51.8666626,-1.69678
424,/title/tt0118661/,The Avengers,"The Reform Club, Pall Mall, St. James's, London, England, UK",(Boodles)                        ,"The Reform Club, 104, Pall Mall, St. James's, Covent Garden, City of Westminster, London, Greater London, England, SW1Y 5EW, United Kingdom",51.5065212,-0.1334356
425,/title/tt0118661/,The Avengers,"England, UK",,"England, United Kingdom",52.7954791,-0.5402402866174321
426,/title/tt0118661/,The Avengers,"Woodstock, Oxfordshire, England, UK",,"Woodstock, Oxfordshire, South East, England, OX20 1TH, United Kingdom",51.8474887,-1.3545343
427,/title/tt0118661/,The Avengers,"E Stage, Pinewood Studios, Iver Heath, Buckinghamshire, England, UK",(underground parking garage)                        ,,,
428,/title/tt0118661/,The Avengers,"Bicester, Oxfordshire, England, UK",,"Bicester, Oxfordshire, South East, England, OX26, United Kingdom",51.8988832,-1.1518287
429,/title/tt0118661/,The Avengers,"East Grinstead, West Sussex, England, UK",,"East Grinstead, Mid Sussex, West Sussex, South East, England, RH19 3AJ, United Kingdom",51.1322179,-0.0117661
430,/title/tt0118661/,The Avengers,"Hatfield House, Hatfield, Hertfordshire, England, UK",(Hallucinogen Hall)                        ,"Hatfield House, The Stable Yard, Hatfield, Welwyn Hatfield, Hertfordshire, East of England, England, AL9 5NF, United Kingdom",51.7605139,-0.20879851305478084
431,/title/tt0118661/,The Avengers,"Old Royal Naval College, Greenwich, London, England, UK",(World Council HQ)                        ,"Old Royal Naval College, Park Row, East Greenwich, Royal Borough of Greenwich, London, Greater London, England, SE10 9NL, United Kingdom",51.4829661,-0.006257671681354558
432,/title/tt0118661/,The Avengers,"Radcliffe Camera, Radcliffe Square, Oxford, Oxfordshire, England, UK",,"Radcliffe Camera, Radcliffe Square, St Ebbes, City Centre, Oxford, Oxfordshire, South East, England, United Kingdom",51.7534538,-1.2540099704885508
433,/title/tt0118661/,The Avengers,"Richard Rogers House, Chelsea, London, England, UK",(Emma Peel's flat)                        ,,,
434,/title/tt0118661/,The Avengers,"Shepperton Studios, Shepperton, Surrey, England, UK",(studio)                        ,,,
435,/title/tt0118661/,The Avengers,"Windsor Great Park, Windsor, Berkshire, England, UK",,,,
436,/title/tt0366174/,Anacondas: The Hunt for the Blood Orchid,New Zealand,(waterfall)                        ,New Zealand / Aotearoa,-41.5000831,172.8344077
437,/title/tt0366174/,Anacondas: The Hunt for the Blood Orchid,Fiji,,Viti,-18.1239696,179.0122737
438,/title/tt0366174/,Anacondas: The Hunt for the Blood Orchid,"Navua River, Fiji",,"Navua River, Suva, Central, Fiji",-18.1229142,177.994115
439,/title/tt0085750/,Jaws 3-D,"Universal Owned Property, Orlando, Florida, USA",(studio) (now Universal Studios Florida)                        ,,,
440,/title/tt0085750/,Jaws 3-D,"Orlando, Florida, USA",,"Orlando, Orange County, Florida, United States of America",28.5421109,-81.3790304
441,/title/tt0043274/,Alice in Wonderland,"Walt Disney Studios, 500 South Buena Vista Street, Burbank, California, USA",(studio)                        ,,,
442,/title/tt0446013/,Pathfinder: Legend of the Ghost Warrior,"Britannia Beach, British Columbia, Canada",,"Britannia Beach, Area D (Elaho/Garibaldi), Squamish-Lillooet Regional District, British Columbia, V0N 1J0, Canada",49.626392,-123.206005
443,/title/tt0446013/,Pathfinder: Legend of the Ghost Warrior,"British Columbia, Canada",,"British Columbia, Canada",55.001251,-125.002441
444,/title/tt0450405/,Cirque du Freak: The Vampire's Assistant,"John Marshall High School - 3939 Tracy Street, Los Feliz, Los Angeles, California, USA",,,,
445,/title/tt0450405/,Cirque du Freak: The Vampire's Assistant,"Baton Rouge, Louisiana, USA",,"Baton Rouge, East Baton Rouge Parish, Louisiana, United States of America",30.4459596,-91.18738
446,/title/tt0450405/,Cirque du Freak: The Vampire's Assistant,"Lusher Charter School, New Orleans, Louisiana, USA",,"Lusher Charter School, Willow Campus, 7315, Willow Street, Black Pearl, New Orleans, Orleans Parish, Louisiana, 70118, United States of America",29.94487865,-90.12254414795535
447,/title/tt0450405/,Cirque du Freak: The Vampire's Assistant,"State Palace Theatre - 1108 Canal Street, New Orleans, Louisiana, USA",(theatre interiors)                        ,,,
448,/title/tt0799949/,Epic Movie,"Los Angeles, California, USA",,"Los Angeles, Los Angeles County, California, United States of America",34.0536909,-118.2427666
449,/title/tt0799949/,Epic Movie,"New Jersey, USA",,"New Jersey, United States of America",40.0757384,-74.4041622
450,/title/tt9281190/,El dragón,"Tokyo, Japan",(Tadamichi's storyline)                        ,"東京都, 日本 (Japan)",35.6828387,139.7594549
451,/title/tt9281190/,El dragón,"Mexico City, Mexico",(Ciudad Jiménez)                        ,"Ciudad de México, 06060, México",19.4326296,-99.1331785
452,/title/tt0185183/,Battlefield Earth,"Saint-David-de-Falardeau, Québec, Canada",,"Saint-David-de-Falardeau, Le Fjord-du-Saguenay, Saguenay–Lac-Saint-Jean, Québec, G0V 1C0, Canada",48.621563,-71.111069
453,/title/tt0185183/,Battlefield Earth,"Los Angeles, California, USA",,"Los Angeles, Los Angeles County, California, United States of America",34.0536909,-118.2427666
454,/title/tt0185183/,Battlefield Earth,"St. Vincent-de-Paul Prison, Laval, Québec, Canada",,,,
455,/title/tt0295701/,xXx,"Prague Castle, Hradcany, Prague, Czech Republic",,"Pražský hrad, Hradčany, Praha, okres Hlavní město Praha, Hlavní město Praha, Praha, 11900, Česká republika",50.0904894,14.3995583
456,/title/tt0295701/,xXx,"Charles Bridge, Old Town, Prague, Czech Republic",,"Karlův most, Malá Strana, Praha, okres Hlavní město Praha, Hlavní město Praha, Praha, 11665, Česká republika",50.0863704,14.4123674
457,/title/tt0295701/,xXx,"Drhovy, Czech Republic",(Potato Cart scene with GTO)                        ,"Drhovy, okres Příbram, Středočeský kraj, Střední Čechy, Česká republika",49.739058,14.2323812
458,/title/tt0295701/,xXx,"Auburn, California, USA",,"Auburn, Placer County, California, United States of America",38.8945939,-121.0739897
459,/title/tt0295701/,xXx,"Pann's Restaurant, Los Angeles, California, USA",(interiors)                        ,"Pann's Coffee Shop, South La Tijera Boulevard, Westchester, Los Angeles, Los Angeles County, California, 90056, United States of America",33.9781387,-118.37056510020327
460,/title/tt0295701/,xXx,"Lake Tahoe, California, USA",,"Lake Tahoe, California, 96140, United States of America",39.08854049999999,-120.05035277301698
461,/title/tt0295701/,xXx,"Vltava River, Czech Republic",,"Vltava, Slabčice, okres Písek, Jihočeský kraj, Jihozápad, 381 01, Česká republika",49.3351337,14.2970732
462,/title/tt0295701/,xXx,"Sierra City, California, USA",,"Sierra City, Sierra County, California, 95936, United States of America",39.5657329,-120.6338273
463,/title/tt0295701/,xXx,Czech Republic,,Česko,49.8167003,15.4749544
464,/title/tt0295701/,xXx,"Los Angeles, California, USA",,"Los Angeles, Los Angeles County, California, United States of America",34.0536909,-118.2427666
465,/title/tt0075925/,The Deep,"RMS Rhone Wreck, British Virgin Islands",,,,
466,/title/tt0075925/,The Deep,British Virgin Islands,,British Virgin Islands,18.4024395,-64.5661642
467,/title/tt0192255/,The Little Vampire,"Culross, Fife, Scotland, UK",,"Culross, Fife, Scotland, KY12 8HT, United Kingdom",56.0556289,-3.6283248
468,/title/tt0192255/,The Little Vampire,"Dundas Castle, South Queensferry, Edinburgh, Scotland, UK",(McAshton Manor)                        ,"Dundas Castle, A90, Echline, City of Edinburgh, Scotland, EH30 9SP, United Kingdom",55.975120149999995,-3.4145544120154367
469,/title/tt0091530/,The Mission,"Iguazú National Park, Argentina",,"Parque y Reserva Nacional Iguazú, Municipio de Puerto Iguazú, Departamento Iguazú, Misiones, Argentina",-25.64837175,-54.28600233633076
470,/title/tt0091530/,The Mission,"Don Dieguito, Magdalena, Colombia",,,,
471,/title/tt0091530/,The Mission,"Paraná River, Brazil",,"Rio Paraná, Alto Paraíso, Região Geográfica Imediata de Umuarama, Mesorregião Noroeste Paranaense, Paraná, Região Sul, Brasil",-23.4270781,-53.8474302
472,/title/tt0091530/,The Mission,"Iguaçu Falls, Parque Nacional do Iguaçu, Foz do Iguaçu, Paraná, Brazil",,,,
473,/title/tt0091530/,The Mission,"Paraná River, Argentina",,"Rio Paraná, Misiones, Región Oriental, 6410, Paraguay",-27.457463,-56.7069117
474,/title/tt0091530/,The Mission,"Iguaçu River, Paraná, Brazil",,"Iguaçu, Rua Paraná, Jardim Iguaçu, Nova Iguaçu, Região Geográfica Imediata do Rio de Janeiro, Região Metropolitana do Rio de Janeiro, Região Geográfica Intermediária do Rio de Janeiro, Rio de Janeiro, Região Sudeste, 26020-740, Brasil",-22.7452597,-43.4644331
475,/title/tt0091530/,The Mission,Paraguay,,Paraguay,-23.3165935,-58.1693445
476,/title/tt0091530/,The Mission,UK,,United Kingdom,54.7023545,-3.2765753
477,/title/tt10482560/,Kipo and the Age of Wonderbeasts,"Las Vegas, Nevada, USA",(location)                        ,"Las Vegas, Clark County, Nevada, United States of America",36.1672559,-115.1485163
478,/title/tt8741648/,The Letter for the King,New Zealand,,New Zealand / Aotearoa,-41.5000831,172.8344077
479,/title/tt0465234/,National Treasure: Book of Secrets,"Sylvan Lake, South Dakota, USA",,"Sylvan Lake, Sylvan Day Use Road, Sylvan Lake Resort, Custer County, South Dakota, United States of America",43.84594185,-103.56421268169741
480,/title/tt0465234/,National Treasure: Book of Secrets,"Buckingham Palace, Westminster, London, England, UK",,"Buckingham Palace, Buckingham Gate, Victoria, City of Westminster, London, Greater London, England, SW1E 6JP, United Kingdom",51.500841300000005,-0.14298782562962786
481,/title/tt0465234/,National Treasure: Book of Secrets,"Mount Vernon Estate - 3200 George Washington Memorial Parkway, Mount Vernon, Virginia, USA",,,,
482,/title/tt0465234/,National Treasure: Book of Secrets,"George Washington Masonic National Memorial - 101 Callahan Drive, Alexandria, Virginia, USA",,"George Washington Masonic National Memorial, 101, Callahan Drive, Douglas MacArthur, Rosemont, Alexandria, Virginia, 22301, United States of America",38.80751165,-77.06599289674509
483,/title/tt0465234/,National Treasure: Book of Secrets,"Gallery Bar and Cognac Room, Biltmore Hotel - 506 S. Grand Avenue, Downtown, Los Angeles, California, USA",(location of Abigal's date)                        ,,,
484,/title/tt0465234/,National Treasure: Book of Secrets,"Lincoln Memorial, National Mall, Washington, District of Columbia, USA",,,,
485,/title/tt0465234/,National Treasure: Book of Secrets,"Thomas Jefferson Building, Library of Congress - 101 Independence Ave. SE, Washington, District of Columbia, USA",,,,
486,/title/tt0465234/,National Treasure: Book of Secrets,"Los Angeles, California, USA",,"Los Angeles, Los Angeles County, California, United States of America",34.0536909,-118.2427666
487,/title/tt0465234/,National Treasure: Book of Secrets,"University of Maryland, College Park, Maryland, USA",,"University of Maryland, College Park, Lakeland Road, Lakeland, College Park, Prince George's County, Maryland, 20740, United States of America",38.99203005,-76.94610290199051
488,/title/tt0465234/,National Treasure: Book of Secrets,"Falls Lake, Backlot, Universal Studios - 100 Universal City Plaza, Universal City, California, USA",,,,
489,/title/tt0465234/,National Treasure: Book of Secrets,"Santa Clarita, California, USA",,"Santa Clarita, Los Angeles County, California, United States of America",34.3916641,-118.542586
490,/title/tt0465234/,National Treasure: Book of Secrets,"City of London, England, UK",(London car chase)                        ,"City of London, Greater London, England, United Kingdom",51.5156177,-0.0919983
491,/title/tt0465234/,National Treasure: Book of Secrets,"Southwark Bridge, London, England, UK",(Culmination of car chase)                        ,"Southwark Bridge, Bankside, Southwark, London Borough of Southwark, City of London, Greater London, England, SE1 9HA, United Kingdom",51.5088978,-0.0940433
492,/title/tt0049223/,Forbidden Planet,"Metro-Goldwyn-Mayer Studios - 10202 W. Washington Blvd., Culver City, California, USA","(studio) (studio: made in Hollywood, U.S.A. by)                        ",,,
493,/title/tt0271367/,Eight Legged Freaks,"Glendale, Arizona, USA",,"Glendale, Maricopa County, Arizona, 85301, United States of America",33.5386858,-112.1859941
494,/title/tt0271367/,Eight Legged Freaks,"Superior, Arizona, USA",,"Superior, Pinal County, Arizona, United States of America",33.293945,-111.0962305
495,/title/tt0271367/,Eight Legged Freaks,"Tonopah, Arizona, USA",,"Tonopah, North 411th Avenue, Tonopah, Maricopa County, Arizona, United States of America",33.488907499999996,-112.93028188114938
496,/title/tt0271367/,Eight Legged Freaks,"Sonoran Desert, Arizona, USA",,"Sonoran Desert, Bates Well Road, Pima County, Arizona, United States of America",32.2598642,-112.9262583
497,/title/tt0455824/,Australia,"Darwin, Northern Territory, Australia",,"Darwin, City of Darwin, Northern Territory, 0800, Australia",-12.46044,130.8410469
498,/title/tt0455824/,Australia,"Bowen, Queensland, Australia",,"Bowen, Whitsunday Regional, Queensland, 4805, Australia",-20.0106949,148.2468293
499,/title/tt0455824/,Australia,"Carlton Hill, Kununurra, Western Australia, Australia",(Faraway Downs scenes)                        ,,,
500,/title/tt0455824/,Australia,"Sydney, New South Wales, Australia",,"Sydney, New South Wales, Australia",-33.8548157,151.2164539
501,/title/tt0455824/,Australia,"El Questro Wilderness Park, Kununurra, Western Australia, Australia",,,,
502,/title/tt0455824/,Australia,"Kununurra, Western Australia, Australia",,"Kununurra, Shire Of Wyndham-East Kimberley, Western Australia, 6743, Australia",-15.7730916,128.738839
503,/title/tt0455824/,Australia,"Pearl Picture Gardens, Bowen, Queensland, Australia",(Darwin Outdoor Cinema)                        ,,,
504,/title/tt0455824/,Australia,"Strickland House, Vaucluse, Sydney, New South Wales, Australia",(Darwin Government House)                        ,"Strickland House, Vaucluse Rd, Vaucluse Road, Vaucluse, Sydney, Woollahra Municipal Council, New South Wales, 2030, Australia",-33.8551969,151.2686092
505,/title/tt7979492/,Kim Possible,"Vancouver, British Columbia, Canada",,"Vancouver, Metro Vancouver Regional District, British Columbia, Canada",49.2608724,-123.1139529
506,/title/tt7979492/,Kim Possible,"Vancouver, Canada",(Principal Photography)                        ,"Vancouver, Metro Vancouver Regional District, British Columbia, Canada",49.2608724,-123.1139529
507,/title/tt0120630/,Chicken Run,"Bristol, England, UK",(studio) (Aardman Studios)                        ,"Bristol, City of Bristol, South West England, England, United Kingdom",51.4538022,-2.5972985
508,/title/tt1753383/,A Dog's Purpose,"Winnipeg, Manitoba, Canada",,"Winnipeg, Winnipeg (city), Manitoba, Canada",49.8955367,-97.1384584
509,/title/tt1753383/,A Dog's Purpose,"Brandon, Manitoba, Canada",,"Brandon, Manitoba, Canada",49.8511143,-99.9608924
510,/title/tt0055254/,One Hundred and One Dalmatians,"Walt Disney Studios, 500 South Buena Vista Street, Burbank, California, USA",(studio)                        ,,,
511,/title/tt0113820/,Mighty Morphin Power Rangers: The Movie,"Bombo Quarry, Kiama, New South Wales, Australia",(Phaedos)                        ,,,
512,/title/tt0113820/,Mighty Morphin Power Rangers: The Movie,"Chinese Garden of Friendship, Darling Harbour, Sydney, New South Wales, Australia",(Dulcea's Compound)                        ,"Chinese Garden of Friendship, Harbour Street, Darling Quarter, Sydney, Council of the City of Sydney, New South Wales, 2000, Australia",-33.87652575,151.20262082572708
513,/title/tt0113820/,Mighty Morphin Power Rangers: The Movie,"Sydney, New South Wales, Australia",,"Sydney, New South Wales, Australia",-33.8548157,151.2164539
514,/title/tt0113820/,Mighty Morphin Power Rangers: The Movie,"Fox Studios, Moore Park, Sydney, New South Wales, Australia",(Site Was Sydney Showgrounds During Filming)                        ,"Fox Studios Australia, Moore Park, Sydney, Council of the City of Sydney, New South Wales, 2021, Australia",-33.890960899999996,151.22750517838074
515,/title/tt0113820/,Mighty Morphin Power Rangers: The Movie,"Gold Coast, Queensland, Australia",(The Temple of the Great Power)                        ,"Gold Coast City, Queensland, Australia",-28.0023731,153.4145987
516,/title/tt0113820/,Mighty Morphin Power Rangers: The Movie,"Sydney Monorail, Sydney, New South Wales, Australia",(Final fight)                        ,,,
517,/title/tt0113820/,Mighty Morphin Power Rangers: The Movie,"Kiama, New South Wales, Australia",(Phaedos)                        ,"Kiama, The Council of the Municipality of Kiama, New South Wales, 2533, Australia",-34.6718879,150.8554408
518,/title/tt0113820/,Mighty Morphin Power Rangers: The Movie,"New South Wales, Australia",,"New South Wales, Australia",-31.8759835,147.2869493
519,/title/tt0113820/,Mighty Morphin Power Rangers: The Movie,"Sydney Opera House - 2 Macquarie Street, Sydney, New South Wales, Australia",,"Sydney Opera House, 2, Macquarie Street, Sydney, Council of the City of Sydney, New South Wales, 2000, Australia",-33.85719805,151.21512338473752
520,/title/tt0068752/,J.C.,"Norcross, Georgia, USA",,"Norcross, Gwinnett County, Georgia, 30071, United States of America",33.9412127,-84.2135309
521,/title/tt0064045/,The Assassination Bureau,"Black Park Country Park, Wexham, Buckinghamshire, England, UK",,,,
522,/title/tt0064045/,The Assassination Bureau,"Pinewood Studios, Iver Heath, Buckinghamshire, England, UK",(studio)                        ,"Pinewood Studios, Pinewood Green, Iver, Iver Heath, Buckinghamshire, South East, England, SL0 0QJ, United Kingdom",51.54831515,-0.5346765566753087
523,/title/tt0064045/,The Assassination Bureau,"Venice, Veneto, Italy",,"Venezia, Veneto, Italia",45.4371908,12.3345898
524,/title/tt0120188/,Three Kings,"Arizona, USA",,"Arizona, United States of America",34.395342,-111.7632755
525,/title/tt0120188/,Three Kings,"Yuma, Arizona, USA",,"Yuma, Yuma County, Arizona, 85364, United States of America",32.6926588,-114.6276157
526,/title/tt0120188/,Three Kings,Mexico,,"Ciudad de México, 06060, México",19.4326296,-99.1331785
527,/title/tt0120188/,Three Kings,"Tucson, Arizona, USA",,"Tucson, Pima County, Arizona, United States of America",32.2228765,-110.9748477
528,/title/tt0120188/,Three Kings,"Sonoran Desert, Arizona, USA",,"Sonoran Desert, Bates Well Road, Pima County, Arizona, United States of America",32.2598642,-112.9262583
529,/title/tt0120188/,Three Kings,"Calexico, California, USA",,"Calexico, Imperial County, California, 92231, United States of America",32.6790572,-115.498703
530,/title/tt0120188/,Three Kings,USA,,United States,39.7837304,-100.4458825
531,/title/tt0120188/,Three Kings,"Coolidge, Arizona, USA",,"Coolidge, Pinal County, Arizona, 85128, United States of America",32.977839,-111.517624
532,Code,Show Name,Location,Scene,"Location, Tucker County, West Virginia, United States of America",39.2138905,-79.6371124
533,/title/tt0062512/,You Only Live Twice,"Mount Shinmu-dake, Kirishima-Yaku National Park, Kagoshima, Japan",(exteriors: Blofeld's Volcano Lair)                        ,,,
534,/title/tt0062512/,You Only Live Twice,"Andalucía, Spain",(Little Nellie helicopter chase and battle)                        ,"Andalucía, España",37.3399964,-4.5811614
535,/title/tt0062512/,You Only Live Twice,"Pier 8, Kobe Docks, Kobe, Hyogo, Japan",(dockside fight - Aki and James Bond go to Ning-Po)                        ,,,
536,/title/tt0062512/,You Only Live Twice,"Himeji Castle, Himeji, Japan",(Ninja training camp and centre for the development of rocket weapons)                        ,"姫路城, 68, 女坂, 新在家本町五丁目, 本町, 姫路市, 兵庫県, 670-0012, 日本 (Japan)",34.83935085,134.6940046
537,/title/tt0062512/,You Only Live Twice,"Nathan Road, Mongkok, Yau Tsim Mong District, Kowloon, Hong Kong, China",(Police officers arrive at Bond's hotel.)                        ,"彌敦道 Nathan Road, 京士柏 King's Park, 旺角 Mong Kok, 油尖旺區 Yau Tsim Mong District, 九龍 Kowloon, 香港 Hong Kong, China 中国",22.3175012,114.1697992
538,/title/tt0062512/,You Only Live Twice,"Kagoshima Seaport, Kagoshima, Japan",(dockside fight)                        ,,,
539,/title/tt0062512/,You Only Live Twice,"Málaga, Andalucía, Spain",(Little Nellie helicopter chase and battle)                        ,"Málaga, Málaga-Costa del Sol, Málaga, Andalucía, España",36.7213028,-4.4216366
540,/title/tt0062512/,You Only Live Twice,Bermuda,(off the coast - submarine resurfaces with raft on top)                        ,Bermuda,32.3018217,-64.7603583
541,/title/tt0062512/,You Only Live Twice,"Rosaki Cave, Akime Village Environs, Akime, Kagoshima, Japan",(The Cave/Gas Cave - near Akime)                        ,,,
542,/title/tt0062512/,You Only Live Twice,"Cape Canaveral, Florida, USA",(stock footage)                        ,"Cape Canaveral, Brevard County, Florida, United States of America",28.45077,-80.52662
543,/title/tt0062512/,You Only Live Twice,"Hotel New Otani, 4-1 Kioi-cho, Chiyoda-Ku, Tokyo, Japan",(exteriors: Osato Chemicals HQ)                        ,,,
544,/title/tt0062512/,You Only Live Twice,"Yoyogi National Gymnasium, Tokyo, Japan",(Bond and Aki car chase in Tokyo)                        ,"国立代々木競技場, 1, 代々木公園通り, 原宿, 渋谷1, 渋谷区, 東京都, 150-0041, 日本 (Japan)",35.6676035,139.70030498730586
545,/title/tt0062512/,You Only Live Twice,"Matsu Island, China",,"马祖镇, 德阳市, 什邡市, 四川省, China 中国",31.1737163,104.1215695
546,/title/tt0062512/,You Only Live Twice,Bahamas,(underwater scenes)                        ,The Bahamas,24.7736546,-78.0000547
547,/title/tt0062512/,You Only Live Twice,"England, UK",,"England, United Kingdom",52.7954791,-0.5402402866174321
548,/title/tt0062512/,You Only Live Twice,"Kagoshima Bay, Kagoshima, Japan",,"鹿児島市, 鹿児島県, 892-8677, 日本 (Japan)",31.572494,130.527873
549,/title/tt0062512/,You Only Live Twice,"Sakurajima Volcano, Kagoshima, Japan",,"桜島, 鹿児島市, 鹿児島県, 日本 (Japan)",31.5805744,130.657984
550,/title/tt0062512/,You Only Live Twice,Gibraltar,(Harbour - Destroyer HMS Tenby F-65 used for Bond's burial-at-sea)                        ,"Gibraltar, GX11 1AA, Gibraltar",36.140807,-5.3541295
551,/title/tt0062512/,You Only Live Twice,"Mount Shinmoe, Kagoshima, Japan",,,,
552,/title/tt0062512/,You Only Live Twice,"The Pentagon - 48 N. Rotary Road, Arlington, Virginia, USA",(stock footage)                        ,,,
553,/title/tt0062512/,You Only Live Twice,"Torremolinos, Málaga, Andalucía, Spain",(Little Nellie helicopter chase and battle)                        ,"Torremolinos, Costa del Sol Occidental, Málaga, Andalucía, España",36.6242841,-4.4995448
554,/title/tt0062512/,You Only Live Twice,"Akime, Kagoshima, Japan",(environs)                        ,"坊津町秋目, 南さつま市, 鹿児島県, 日本 (Japan)",31.3599273,130.2023209
555,/title/tt0062512/,You Only Live Twice,Japan,(filmed on location in)                        ,日本,36.5748441,139.2394179
556,/title/tt0062512/,You Only Live Twice,"Scotland, UK",(plane crash)                        ,"Scotland, United Kingdom",56.7861112,-4.1140518
557,/title/tt0110213/,The Jungle Book,"Fall Creek Falls State Park, Spencer, Tennessee, USA",,,,
558,/title/tt0110213/,The Jungle Book,"Ozone Falls State Natural Area, Crab Orchard, Tennessee, USA",,,,
559,/title/tt0110213/,The Jungle Book,India,,India,22.3511148,78.6677428
560,/title/tt0110213/,The Jungle Book,"Bombay, India",(Mowgli's urban interaction scenes)                        ,"Mumbai, Mumbai City, Maharashtra, India",18.9387711,72.8353355
561,/title/tt0386117/,Max en de maximonsters,"Flinders, Victoria, Australia",,"Flinders, Shire of Mornington Peninsula, Victoria, Australia",-38.473312,145.0187057
562,/title/tt0386117/,Max en de maximonsters,"Little River, Victoria, Australia",,"Little River, Shire of East Gippsland, Victoria, Australia",-37.3012617,147.8483337
563,/title/tt0386117/,Max en de maximonsters,"Portland, Victoria, Australia",,"Portland, Shire of Glenelg, Victoria, 3305, Australia",-38.3456231,141.6042304
564,/title/tt0386117/,Max en de maximonsters,"Melbourne, Victoria, Australia",,"Melbourne, City of Melbourne, Victoria, 3000, Australia",-37.8142176,144.9631608
565,/title/tt0386117/,Max en de maximonsters,"Newport, Melbourne, Victoria, Australia",,"Melbourne, City of Melbourne, Victoria, 3000, Australia",-37.8142176,144.9631608
566,/title/tt0386117/,Max en de maximonsters,"Woodend, Victoria, Australia",,"Woodend, Shire of Macedon Ranges, Victoria, Australia",-37.3536857,144.5341381
567,/title/tt0386117/,Max en de maximonsters,"Los Angeles Center Studios - 450 S. Bixel Street, Downtown, Los Angeles, California, USA",,,,
568,/title/tt0088170/,Op zoek naar Spock,"Occidental College - 1600 Campus Road, Eagle Rock, Los Angeles, California, USA","(near the end, stairs and fountain on planet Vulcan)                        ","Occidental College, 1600, Campus Road, Eagle Rock, Los Angeles, Los Angeles County, California, 90041, United States of America",34.12719495,-118.20992029989196
569,/title/tt8515016/,Banana Fish,"New York City, New York, USA",(main location)                        ,"New York, United States of America",40.7127281,-74.0060152
570,/title/tt1568338/,Man on a Ledge,"Roosevelt Hotel - 45th Street & Madison Avenue, Manhattan, New York City, New York, USA",,,,
571,/title/tt1568338/,Man on a Ledge,"New York City, New York, USA",,"New York, United States of America",40.7127281,-74.0060152
572,/title/tt1568338/,Man on a Ledge,USA,,United States,39.7837304,-100.4458825
573,/title/tt0082509/,Heavy Metal,"England, UK",,"England, United Kingdom",52.7954791,-0.5402402866174321
574,/title/tt2569088/,The Saint,"Bucharest, Romania",,"Municipiul București, România",44.4361414,26.1027202
575,/title/tt2569088/,The Saint,"London Eye, London, England, UK",(ianbanks)                        ,"London Eye, Westminster Bridge Road, Lambeth, London Borough of Lambeth, London, Greater London, England, SE1 7PB, United Kingdom",51.50328025,-0.11968732228242385
576,/title/tt2569088/,The Saint,"London, England, UK",,"London, Greater London, England, United Kingdom",51.5073219,-0.1276474
577,/title/tt2569088/,The Saint,"San Diego, California, USA",,"San Diego, San Diego County, California, United States of America",32.7174209,-117.1627714
578,/title/tt2569088/,The Saint,USA,,United States,39.7837304,-100.4458825
579,/title/tt2569088/,The Saint,"Angels Flight Railway - 351 S Hill St, Los Angeles, California, USA",,"Angels Flight, South Hill Street, Bunker Hill, Downtown, Los Angeles, Los Angeles County, California, 90071, United States of America",34.0511576,-118.2499232
580,/title/tt0118956/,Deep Rising,"Vancouver, British Columbia, Canada",,"Vancouver, Metro Vancouver Regional District, British Columbia, Canada",49.2608724,-123.1139529
581,/title/tt0787985/,Robin Hood,"Budapest, Hungary",,"Budapest, Közép-Magyarország, 1011, Magyarország",47.4983815,19.0404707
582,/title/tt0787985/,Robin Hood,Hungary,,Magyarország,47.1817585,19.5060937
583,/title/tt4859164/,The Loud House,"Nickelodeon Animation Studio - 231 W Olive Avenue, Burbank, California, USA",,,,
584,/title/tt0164912/,Stuart Little,"Jacqueline Kennedy Onassis Reservoir, Central Park, Manhattan, New York City, New York, USA",(boat race)                        ,"Jacqueline Kennedy Onassis Reservoir, 5th Avenue, Manhattan Community Board 8, Manhattan, New York County, New York, 10035, United States of America",40.785450999999995,-73.96261042305999
585,/title/tt0164912/,Stuart Little,"Stage 30, Sony Pictures Studios - 10202 W. Washington Blvd., Culver City, California, USA",(Central Park footbridge)                        ,,,
586,/title/tt0164912/,Stuart Little,"Stage 12, Sony Pictures Studios - 10202 W. Washington Blvd., Culver City, California, USA",(interior of Little house)                        ,,,
587,/title/tt0111280/,Star Trek: Generations,"Valley of Fire State Park - Route 169, Overton, Nevada, USA",(Veridian III surface)                        ,,,
588,/title/tt0111280/,Star Trek: Generations,"Titan Missile Museum - 1580 W. Duval Mine Road, Green Valley, Arizona, USA",,"Titan Missile Museum, 1580, West Duval Mine Road, Duval, Sahuarita, Pima County, Arizona, 85629, United States of America",31.9028426,-110.99921625250153
589,/title/tt0111280/,Star Trek: Generations,"465 S Grand Ave, Pasadena, California, USA",,"465, Grand Avenue, Pasadena, Los Angeles County, California, 91105, United States of America",34.137698666666665,-118.1622160952381
590,/title/tt0111280/,Star Trek: Generations,"Kern County, California, USA",,"Kern County, California, United States of America",35.3145701,-118.7538222
591,/title/tt0111280/,Star Trek: Generations,USA,,United States,39.7837304,-100.4458825
592,/title/tt0466909/,The Omen,"Laterna Magika, Prague, Czech Republic",,,,
593,/title/tt0466909/,The Omen,"Charles Bridge, Old Town, Prague, Czech Republic",,"Karlův most, Malá Strana, Praha, okres Hlavní město Praha, Hlavní město Praha, Praha, 11665, Česká republika",50.0863704,14.4123674
594,/title/tt0466909/,The Omen,Croatia,,Hrvatska,45.5643442,17.0118954
