,Code,Show Name,Location,Scene,geocodedLocation,latitude,longitude
0,/title/tt0944947/,Game of Thrones,"Split, Split-Dalmatia County, Croatia",,"Split, Grad Split, Splitsko-dalmatinska županija, Hrvatska",43.5116383,16.4399659
1,/title/tt0944947/,Game of Thrones,"Dubrovnik, Croatia",,"Dubrovnik, Grad Dubrovnik, Dubrovačko-neretvanska županija, 20000, Hrvatska",42.6502473,18.0924947
2,/title/tt0944947/,Game of Thrones,"Ouarzazate, Morocco",,"Ouarzazate ⵡⴰⵔⵣⴰⵣⴰⵜ ورزازات, Pachalik d'Ouarzazate, Province de Ouarzazate ⵍⵉⵇⵍⵉⵎ ⵏ ⵡⴰⵔⵣⴰⵣⴰⵜ إقليم ورززات, Drâa-Tafilalet ⴷⴰⵔⵄⴰ-ⵜⴰⴼⵉⵍⴰⵍⵜ درعة تافيلالت, 45005, Maroc",30.920193,-6.910923
3,/title/tt0944947/,Game of Thrones,"Harland and Wolff Paint Hall, Titanic-Quarter, Belfast, County Antrim, Northern Ireland, UK",,,,
4,/title/tt0944947/,Game of Thrones,"Valletta, Malta",,"Valletta, Xlokk, Malta",35.8989818,14.5136759
5,/title/tt0944947/,Game of Thrones,"Klis Fortress, Klis, Croatia",,"Tvrđava Klis, Klis Castle parking, Galići, Klis, Općina Klis, Splitsko-dalmatinska županija, Hrvatska",43.5600337,16.52432709155028
6,/title/tt0944947/,Game of Thrones,"Seville, Andalucia, Spain",,"Sevilla, Andalucía, España",37.3886303,-5.9953403
7,/title/tt0944947/,Game of Thrones,"Real Alcázar, Seville, Andalucia, Spain",(Water Gardens of Dorne)                        ,"real alcazar, Patio de Banderas, Santa Cruz, Casco Antiguo, Sevilla, Andalucía, 41004, España",37.3840154,-5.9911316
8,/title/tt0944947/,Game of Thrones,"Doune Castle, Doune, Stirling, Scotland, UK",,"Doune Castle, Castle Hill Court, Buchany, Doune, Stirling, Scotland, FK16 6BT, United Kingdom",56.18509345,-4.050469490870636
9,/title/tt0944947/,Game of Thrones,"Ballymoney, County Antrim, Northern Ireland, UK",,"Ballymoney, County Antrim, Northern Ireland, BT53 6AN, United Kingdom",55.070242,-6.516895
10,/title/tt0944947/,Game of Thrones,"Belfast, County Antrim, Northern Ireland, UK",,"Belfast, County Antrim, Northern Ireland, BT1 5GS, United Kingdom",54.5964411,-5.9302761
11,/title/tt0944947/,Game of Thrones,"Carncastle, County Antrim, Northern Ireland, UK",,"Carncastle, County Antrim, Northern Ireland, BT40 2RL, United Kingdom",54.8961522,-5.8818158
12,/title/tt0944947/,Game of Thrones,"Ramparts, Essaouira, Morocco",(ramparts of Astapor)                        ,,,
13,/title/tt0944947/,Game of Thrones,"El Chorrillo, Pechina, Almeria, Andalucia, Spain",(Vaes Dothrak)                        ,,,
14,/title/tt0944947/,Game of Thrones,"Svínafellsjökull Glacier, Iceland",,"Svínafell, 9886, Sveitarfélagið Hornafjörður, Austurland, Ísland",64.0020674,-16.8660027
15,/title/tt0944947/,Game of Thrones,"Cordoba, Andalucía, Spain",(Long Bridge of Volantis)                        ,"Córdoba, Andalucía, España",37.8845813,-4.7760138
16,/title/tt0944947/,Game of Thrones,"Giant's Causeway, County Antrim, Northern Ireland, UK",,"Giant's Causeway, Causeway Coastal Way, Ardihannon, Bushmills, County Antrim, Northern Ireland, BT57 8SU, United Kingdom",55.24082145,-6.5116386404807
17,/title/tt0944947/,Game of Thrones,"Canet de Mar, Barcelona, Catalonia, Spain",(location)                        ,"Canet de Mar, N-II, Canet de Mar, Maresme, Catalunya, 08360, España",41.586446,2.581146
18,/title/tt0944947/,Game of Thrones,"Barrika, Vizcaya, País Vasco, Spain",(Dragonstone beach exterior scenes)                        ,"Barrika, Bizkaia, Euskadi, España",43.4066267,-2.9609879
19,/title/tt0944947/,Game of Thrones,"Malpartida de Cáceres, Cáceres, Extremadura, Spain",,"Malpartida de Cáceres, Tajo-Salor, Cáceres, Extremadura, 10910, España",39.445575,-6.5058549
20,/title/tt0944947/,Game of Thrones,"Los Angeles, California, USA",,"Los Angeles, Los Angeles County, California, United States of America",34.0536909,-118.2427666
21,/title/tt0944947/,Game of Thrones,"Itálica, Santiponce, Sevilla, Andalucía, Spain",(Dragonpit summit)                        ,"Conjunto Arqueológico de Itálica, 2, Avenida de Extremadura, Santiponce, Sevilla, Andalucía, 41970, España",37.4419234,-6.045392335193511
22,/title/tt0944947/,Game of Thrones,"Almodóvar del Río, Córdoba, Andalucía, Spain",(Interior castle)                        ,"Almodóvar del Río, Córdoba, Andalucía, España",37.8112483,-5.0194742
23,/title/tt0944947/,Game of Thrones,"La Alcazaba, Almería, Almería, Andalucia, Spain","(House Martell, Water gardens of Dorne)                        ","La Alcazaba, Calle Sereno, La Chanca, Almedina, Almería, Andalucía, 04071, España",36.841286,-2.4723476
24,/title/tt0413573/,Grey's Anatomy,"Veterans Hospital - 1611 Plummer Street, North Hills, Los Angeles, California, USA",(as Seattle Grace Hospital)                        ,,,
25,/title/tt0413573/,Grey's Anatomy,"Seattle, Washington, USA",,"Seattle, King County, Washington, United States of America",47.6038321,-122.3300624
26,/title/tt0413573/,Grey's Anatomy,"Fire Station 23 - 225 E. 5th Street, Los Angeles, California, USA",(Cristina and Owen Firehouse)                        ,"Fire Station 23, 225, East 5th Street, Skid Row, Downtown, Los Angeles, Los Angeles County, California, 90013, United States of America",34.0458225,-118.24658608422999
27,/title/tt8962124/,Emily in Paris,"Paris, France",,"Paris, Île-de-France, France métropolitaine, 75004, France",48.8566969,2.3514616
28,/title/tt4955642/,The Good Place,"Universal Studios - 100 Universal City Plaza, Universal City, California, USA",(studio)                        ,,,
29,/title/tt4955642/,The Good Place,"Universal City, California, USA",,"Universal City, Los Angeles County, California, 91608, United States of America",34.1412926,-118.3584364
30,/title/tt4955642/,The Good Place,"California, USA",,"California, United States of America",36.7014631,-118.7559974
31,/title/tt2306299/,Vikings,"Ballyhenry Studios, Ashford, Co Wicklow, Ireland",,,,
32,/title/tt2306299/,Vikings,"Searchmont, Ontario, Canada",,"Searchmont, Unorganized North Algoma, Algoma District, Northeastern Ontario, Ontario, P0S 1J0, Canada",46.7785824,-84.0513848
33,/title/tt2306299/,Vikings,"Ashford studios, Ballyhenry, County Wicklow, Ireland",,"Ashford Studios, Ashford Road, Newtown Boswell, Killiskey, The Municipal District of Wicklow, County Wicklow, Leinster, CO. WICKLOW, Ireland",53.0211141,-6.1055288
34,/title/tt2306299/,Vikings,"Hellesylt, Norway",(Backgrounds)                        ,"Hellesylt, Stranda, Møre og Romsdal, 6218, Norge",62.0858061,6.8668801
35,/title/tt0108778/,Friends,"New York City, New York, USA",,"New York, United States of America",40.7127281,-74.0060152
36,/title/tt0108778/,Friends,"Stage 24, Warner Brothers Burbank Studios - 4000 Warner Boulevard, Burbank, California, USA",(studio)                        ,,,
37,/title/tt0108778/,Friends,"Los Angeles, California, USA",,"Los Angeles, Los Angeles County, California, United States of America",34.0536909,-118.2427666
38,/title/tt0108778/,Friends,"Park Boulevard, Columbia/Warner Bros. Ranch - 411 North Hollywood Way, Burbank, California, USA",,,,
39,/title/tt8787802/,Away,"Vancouver, British Columbia, Canada",,"Vancouver, Metro Vancouver Regional District, British Columbia, Canada",49.2608724,-123.1139529
40,/title/tt8787802/,Away,"6741 224th Street, Langley, British Columbia, Canada",(Episode 6)                        ,,,
41,/title/tt10886166/,365 dni,Italy,,Italia,42.6384261,12.674297
42,/title/tt10886166/,365 dni,"Warsaw, Mazowieckie, Poland",,"Warszawa, województwo mazowieckie, Polska",52.2319581,21.0067249
43,/title/tt1442437/,Modern Family,"Los Angeles County, California, USA",,"Los Angeles County, California, United States of America",34.3155072,-118.2096814
44,/title/tt1442437/,Modern Family,"20th Century Fox Studios - 10201 Pico Blvd., Century City, Los Angeles, California, USA",(studio)                        ,,,
45,/title/tt3006802/,Outlander,"Doune Castle, Doune, Stirling, Scotland, UK",(Castle Leoch)                        ,"Doune Castle, Castle Hill Court, Buchany, Doune, Stirling, Scotland, FK16 6BT, United Kingdom",56.18509345,-4.050469490870636
46,/title/tt3006802/,Outlander,"Blackness Castle, Blackness, Falkirk, West Lothian, Scotland, UK",(Fort William)                        ,,,
47,/title/tt3006802/,Outlander,"Culross, Fife, Scotland, UK",,"Culross, Fife, Scotland, KY12 8HT, United Kingdom",56.0556289,-3.6283248
48,/title/tt3006802/,Outlander,"Scotland, UK",,"Scotland, United Kingdom",56.7861112,-4.1140518
49,/title/tt3006802/,Outlander,"Pollok House, Glasgow, Strathclyde, Scotland, UK",(parkland)                        ,,,
50,/title/tt3006802/,Outlander,"Hopetoun House, South Queensferry, Edinburgh, Scotland, UK",,,,
51,/title/tt1843230/,Once Upon a Time,"Steveston, Richmond, British Columbia, Canada",,"Steveston, Richmond, Metro Vancouver Regional District, British Columbia, Canada",49.1280561,-123.177415512419
52,/title/tt1843230/,Once Upon a Time,"Vancouver, British Columbia, Canada",,"Vancouver, Metro Vancouver Regional District, British Columbia, Canada",49.2608724,-123.1139529
53,/title/tt1843230/,Once Upon a Time,"The Bridge Studios, Burnaby, British Columbia, Canada","(Stages 5/6, 7)                        ","Bridge Studios, Burnaby, Metro Vancouver Regional District, British Columbia, Canada",49.2629905,-123.0205448788792
54,/title/tt0898266/,The Big Bang Theory,"Stage 25, Warner Brothers Burbank Studios - 4000 Warner Boulevard, Burbank, California, USA",,,,
55,/title/tt1405406/,The Vampire Diaries,"598 Abernathy Road, NE, Atlanta, Georgia, USA",(Salvatore Boarding House)                        ,,,
56,/title/tt1405406/,The Vampire Diaries,"Chicago, Illinois, USA",,"Chicago, Cook County, Illinois, United States of America",41.8755616,-87.6244212
57,/title/tt1405406/,The Vampire Diaries,"2104 Floyd Street NE, Covington, Georgia, USA",(the gilbert house)                        ,"2104, Floyd Street Northeast, Covington, Newton County, Georgia, 30014, United States of America",33.596762,-83.85659322955492
58,/title/tt1405406/,The Vampire Diaries,"2129 East Street SE, Covington, Georgia, USA",(Tyler's House)                        ,"2129, East Street Southeast, Covington, Newton County, Georgia, 30014, United States of America",33.5956005625,-83.855605
59,/title/tt1405406/,The Vampire Diaries,"Conyers, Georgia, USA",,"Conyers, Rockdale County, Georgia, 30013-2028, United States of America",33.6676103,-84.0176904
60,/title/tt1405406/,The Vampire Diaries,"Monroe, Georgia, USA",,"Monroe County, Georgia, United States of America",33.0142344,-83.9044159
61,/title/tt9140560/,WandaVision,"Atlanta, Georgia, USA",,"Atlanta, Georgia, United States of America",33.7490987,-84.3901849
62,/title/tt1548850/,Misfits,"Southmere Lakeside Complex, Thamesmead South, London, England, UK",(community center exterior)                        ,,,
63,/title/tt1548850/,Misfits,"London, England, UK",,"London, Greater London, England, United Kingdom",51.5073219,-0.1276474
64,/title/tt7549996/,Judy,"Hackney Empire, 291 Mare St, London, England, UK","(doubling for the ""Talk of the Town"" nightclub)                        ",,,
65,/title/tt7549996/,Judy,"West London Film Studios, London, England, UK",(studio)                        ,,,
66,/title/tt7549996/,Judy,"The Hill Garden & Pergola, The Pergola, Inverforth Cl, London NW3 7EX, United Kingdom",(Judy gets spun round.)                        ,,,
67,/title/tt5555260/,This Is Us,"Los Angeles, California, USA",,"Los Angeles, Los Angeles County, California, United States of America",34.0536909,-118.2427666
68,/title/tt5555260/,This Is Us,"Stage 32, Paramount Studios - 5555 Melrose Avenue, Hollywood, Los Angeles, California, USA",,,,
69,/title/tt0118276/,Buffy the Vampire Slayer,"1313 Cota Drive, Torrance, California, USA",(Buffy's house)                        ,,,
70,/title/tt0118276/,Buffy the Vampire Slayer,"El Pueblo Apartments - 4616 Greenwood Place, Los Feliz, Los Angeles, California, USA",(establishing shots of Giles' apartment)                        ,,,
71,/title/tt0118276/,Buffy the Vampire Slayer,"California State University Northridge - 18111 Nordhoff Street, Northridge, Los Angeles, California, USA",(shots from the Oviatt Library)                        ,"California State University, Northridge, 18111, Nordhoff Street, Northridge, Los Angeles, Los Angeles County, California, 91330, United States of America",34.2455346,-118.52631936633176
72,/title/tt0118276/,Buffy the Vampire Slayer,"Ennis House - 2607 Glendower Avenue, Los Feliz, Los Angeles, California, USA",(Angel's mansion)                        ,"Ennis House, Glendower Avenue, Los Feliz, Los Angeles, Los Angeles County, California, 90027, United States of America",34.1162064,-118.2928586
73,/title/tt0118276/,Buffy the Vampire Slayer,"1800 Stewart St., Santa Monica, California, USA",(studio)                        ,"1800, Stewart Street, Santa Monica, Los Angeles County, California, 90404, United States of America",34.028224,-118.46493
74,/title/tt0118276/,Buffy the Vampire Slayer,"Walt Disney's Golden Oak Ranch - 19802 Placerita Canyon Road, Newhall, California, USA",,,,
75,/title/tt0460649/,How I Met Your Mother,"20th Century Fox Studios - 10201 Pico Blvd., Century City, Los Angeles, California, USA",(studio)                        ,,,
76,/title/tt0460627/,Bones,"Stage 9, 20th Century Fox Studios - 10201 Pico Blvd., Century City, Los Angeles, California, USA",(FBI set)                        ,,,
77,/title/tt0460627/,Bones,"Washington, District of Columbia, USA",(establishing shots)                        ,"Washington, District of Columbia, 20230, United States of America",38.8949924,-77.0365581
78,/title/tt1606375/,Downton Abbey,"Highclere Castle, Highclere, Newbury, Berkshire, England, UK",(Downton Abbey)                        ,,,
79,/title/tt1606375/,Downton Abbey,"Alnwick Castle, Alnwick, Northumberland, England, UK",(Series 5 & 6 - Christmas episodes)                        ,"Alnwick Castle, Bailiffgate, Alnwick, Northumberland, North East England, England, NE66 1NQ, United Kingdom",55.41546099999999,-1.7065170268123597
80,/title/tt1606375/,Downton Abbey,"Bampton, Oxfordshire, England, UK",(Downton village)                        ,"Bampton, Oxfordshire, South East, England, OX18 2HB, United Kingdom",51.724965,-1.5447554
81,/title/tt1606375/,Downton Abbey,"Hall Place, Wycombe End, Beaconsfield, Buckinghamshire, England, UK",(Mrs Crawley's house: interior)                        ,,,
82,/title/tt1606375/,Downton Abbey,"Halton House, Halton, Wendover, Buckinghamshire, England, UK",(Haxby Park: interiors - Series 2)                        ,"Halton Lane, Halton, Wendover, Buckinghamshire, South East, England, HP22 6AU, United Kingdom",51.7761326,-0.749667
83,/title/tt1606375/,Downton Abbey,"Ealing Studios, Ealing, London, England, UK",(servants' quarters)                        ,"Ealing Studios, London Borough of Ealing, London, Greater London, England, United Kingdom",51.50903755,-0.30734058249777363
84,/title/tt1606375/,Downton Abbey,"Waddesdon Manor, Waddesdon, Buckinghamshire, England, UK",(Haxby Park: exteriors - Series 2)                        ,"Waddesdon Manor, North Avenue, Waddesdon, Buckinghamshire, South East, England, HP18 0JH, United Kingdom",51.84250175,-0.9373236865937951
85,/title/tt1606375/,Downton Abbey,"Churchgate House, Bampton, Oxfordshire, England, UK",(Mrs Crawley's house: exterior)                        ,,,
86,/title/tt1606375/,Downton Abbey,"Cogges Manor Farm, Witney, Oxfordshire, England, UK",(Yew Tree Farm: Mr Drewe's farm)                        ,"cogges manor farm (a living museum), Witney, West Oxfordshire, Oxfordshire, South East, England, OX28 3LA, United Kingdom",51.7842081,-1.4763910240651614
87,/title/tt0108757/,ER,"Chicago, Illinois, USA",,"Chicago, Cook County, Illinois, United States of America",41.8755616,-87.6244212
88,/title/tt0108757/,ER,"Mexican Street, Backlot, Universal Studios - 100 Universal City Plaza, Universal City, California, USA",,,,
89,/title/tt0108757/,ER,"Los Angeles, California, USA",,"Los Angeles, Los Angeles County, California, United States of America",34.0536909,-118.2427666
90,/title/tt0108757/,ER,"New York Street, Warner Brothers Burbank Studios - 4000 Warner Boulevard, Burbank, California, USA",,,,
91,/title/tt0108757/,ER,"Stage 2, Warner Brothers Burbank Studios - 4000 Warner Boulevard, Burbank, California, USA",,,,
92,/title/tt4126476/,After,"Atlanta, Georgia, USA",,"Atlanta, Georgia, United States of America",33.7490987,-84.3901849
93,/title/tt4126476/,After,"Emory University - 201 Dowman Dr, Atlanta, Georgia, USA",(School)                        ,,,
94,/title/tt4126476/,After,USA,,United States,39.7837304,-100.4458825
95,/title/tt4126476/,After,"The Howard House, 229 Howard St, Atlanta, Georgia",(Hardin's House)                        ,,,
96,/title/tt9866072/,Holidate,"Atlanta, Georgia, USA",,"Atlanta, Georgia, United States of America",33.7490987,-84.3901849
97,/title/tt0369179/,Two and a Half Men,"Malibu Colony Road, Malibu, California, USA","(Malibu beachfront homes, aerial cutaway scenes)                        ","Malibu Colony Road, Malibu Beach, Malibu, Los Angeles County, California, 90265-4797, United States of America",34.0337025,-118.6882211
98,/title/tt1284575/,Bad Teacher,"Chatsworth, Los Angeles, California, USA",,"Chatsworth, Los Angeles, Los Angeles County, California, United States of America",34.2595715,-118.6023247
99,/title/tt1284575/,Bad Teacher,"Springfield, Illinois, USA",(Exterior Shots)                        ,"Springfield, Sangamon County, Illinois, United States of America",39.7990175,-89.6439575
100,/title/tt1284575/,Bad Teacher,"Plummer St & Oakdale Av, Los Angeles, California, USA",,,,
101,/title/tt1284575/,Bad Teacher,"Santa Clarita, California, USA",,"Santa Clarita, Los Angeles County, California, United States of America",34.3916641,-118.542586
102,/title/tt5420376/,Riverdale,"530 E 41st Ave, Vancouver, British Columbia, Canada",(Riverdale High School)                        ,"John Oliver Secondary School, 530, East 41st Avenue, Riley Park, Vancouver, Metro Vancouver Regional District, British Columbia, V5W 1P3, Canada",49.23195665,-123.09259959764182
103,/title/tt5420376/,Riverdale,"Alouette Lake, Golden Ears Provincial Park, British Columbia, Canada",(Sweetwater River)                        ,,,
104,/title/tt5420376/,Riverdale,"3939 W 16th Ave, Vancouver , British Columbia, Canada",(Riverdale High School)                        ,"West 16th Avenue, Kitsilano, Vancouver, Metro Vancouver Regional District, British Columbia, V6J 2G1, Canada",49.2572819,-123.1524732
105,/title/tt5420376/,Riverdale,"21122 12 Avenue, Langley, British Columbia, Canada",(The Blossom Mansion)                        ,"21122, 12 Avenue, Fern Ridge, Township of Langley, Metro Vancouver Regional District, British Columbia, Canada",49.0230553,-122.6371592
106,/title/tt5420376/,Riverdale,"2037 East 3rd Avenue, Vancouver, British Columbia, Canada",(Archie's House)                        ,"East 3rd Avenue, Hastings-Sunrise, Vancouver, Metro Vancouver Regional District, British Columbia, V5M 3H8, Canada",49.267551,-123.0364668
107,/title/tt5420376/,Riverdale,"Cecil Green Park House - 6251 Cecil Green Park Road, Vancouver, British Columbia, Canada",(The Blossom Mansion)                        ,"Cecil Green Park House, Cecil Green Park Road, University of British Columbia, Electoral Area A, Metro Vancouver Regional District, British Columbia, V6T 1Z2, Canada",49.27137675,-123.25770394938536
108,/title/tt5420376/,Riverdale,"23320 Mavis Ave, Langley, British Columbia, Canada",(season 2 episode 1)                        ,"Mavis Avenue, Fort Langley, Township of Langley, Metro Vancouver Regional District, British Columbia, V1M 2S5, Canada",49.1699951,-122.5773166
109,/title/tt5420376/,Riverdale,"6741 224th Street, Langley, British Columbia, Canada",(Blossom Thistlehouse)                        ,,,
110,/title/tt5420376/,Riverdale,"Harbor Springs, Michigan, USA",(Riverdale Aerial Images)                        ,"Harbor Springs, Emmet County, Michigan, United States of America",45.431676,-84.991999
111,/title/tt5420376/,Riverdale,"9048 Glover Road, Langley, British Columbia, Canada",(The Riverdale Register)                        ,"Glover Road, Milner, Township of Langley, Metro Vancouver Regional District, British Columbia, V3A 0A3, Canada",49.1141879,-122.6417431
112,/title/tt5420376/,Riverdale,"20146 100a Avenue, Langley, British Columbia, Canada",(studio)                        ,"20146, 100A Avenue, Walnut Grove, Township of Langley, Metro Vancouver Regional District, British Columbia, V1M 0B1, Canada",49.1840481,-122.66246142171815
113,/title/tt5420376/,Riverdale,"Mission, British Columbia, Canada",,"Mission, British Columbia, Canada",49.1589351,-122.2835833
114,/title/tt5420376/,Riverdale,"British Columbia, Canada",,"British Columbia, Canada",55.001251,-125.002441
115,/title/tt5420376/,Riverdale,"Bowen Island, British Columbia, Canada",(Episode 2.14)                        ,"Bowen Island, Bowen Island Municipality, Metro Vancouver Regional District, British Columbia, Canada",49.37682385,-123.3693118710236
116,/title/tt0397442/,Gossip Girl,"Brooklyn, New York City, New York, USA",,"Brooklyn, Kings County, New York, United States of America",40.6501038,-73.9495823
117,/title/tt0397442/,Gossip Girl,"New York City, New York, USA",,"New York, United States of America",40.7127281,-74.0060152
118,/title/tt0397442/,Gossip Girl,"Queens, New York City, New York, USA",,"Queens, Queens County, New York, United States of America",40.7498243,-73.7976337
119,/title/tt1099212/,Twilight,"218 Rim Drive, Washougal, Columbia River Gorge, Washington, USA",(Edward and Bella tree scene)                        ,,,
120,/title/tt1099212/,Twilight,"Corbett Elementary School - 35800 East Historic Columbia River Highway, Corbett, Columbia River Gorge, Oregon, USA",,,,
121,/title/tt1099212/,Twilight,"Silver Falls State Park, Sublimity, Oregon, USA",(forest scenes)                        ,,,
122,/title/tt1099212/,Twilight,"Madison High School, Portland, Oregon, USA",(Forks High School interiors and cafeteria)                        ,"Madison High School, 2735, Northeast 82nd Avenue, Madison South, Portland, Multnomah County, Oregon, 97220, United States of America",45.540446349999996,-122.58021204506753
123,/title/tt1099212/,Twilight,"Stonecliff Inn Restaurant & Bar - 17900 S. Clackamas River Drive, Oregon City, Oregon, USA",,,,
124,/title/tt1099212/,Twilight,"Gresham, Oregon, USA",,"Gresham, Multnomah County, Oregon, United States of America",45.4997475,-122.4309766
125,/title/tt1099212/,Twilight,"Vernonia, Oregon, USA",(as Forks)                        ,"Vernonia, Columbia County, Oregon, United States of America",45.8587229,-123.1928926
126,/title/tt1099212/,Twilight,"Blue Heron Paper Company - 419 Main Street, Oregon City, Oregon, USA",,,,
127,/title/tt1099212/,Twilight,"Multnomah Falls Lodge - 5000 E Historic Columbia River Hwy, Corbett, Columbia River Gorge, Oregon, USA",,,,
128,/title/tt1099212/,Twilight,"The Shire - 28852 State Route 14, Prindle, Columbia River Gorge, Washington, USA",(baseball scene)                        ,,,
129,/title/tt1099212/,Twilight,"Multnomah Falls, Columbia River Gorge, Oregon, USA",,,,
130,/title/tt1099212/,Twilight,"Oxbow Regional Park, Sandy River Gorge, Oregon, USA",,,,
131,/title/tt1099212/,Twilight,"Portland, Oregon, USA",,"Portland, Multnomah County, Oregon, United States of America",45.5202471,-122.6741949
132,/title/tt1099212/,Twilight,"Hyatt Valencia - 24500 Town Center Drive, Valencia, California, USA",(hiding out in Phoenix hotel)                        ,,,
133,/title/tt1099212/,Twilight,"Damascus, Oregon, USA",(Forks cafe)                        ,"Damascus, Clackamas County, Oregon, 97089, United States of America",45.4176261,-122.458985
134,/title/tt1099212/,Twilight,"Washington, USA",,"Washington, District of Columbia, 20230, United States of America",38.8949924,-77.0365581
135,/title/tt1099212/,Twilight,USA,,United States,39.7837304,-100.4458825
136,/title/tt0279600/,Smallville,"Hatley Castle, Royal Roads, Colwood, British Columbia, Canada",(Luthor mansion exteriors)                        ,,,
137,/title/tt0279600/,Smallville,"Clova Cinemas - 5732 176 Street, Cloverdale, Surrey, British Columbia, Canada",(as Talon exteriors)                        ,,,
138,/title/tt0279600/,Smallville,"Buntzen Lake, Anmore, British Columbia, Canada",(Crater Lake)                        ,"Buntzen Lake, Pumphouse Road, Anmore, Metro Vancouver Regional District, British Columbia, V3H 4W5, Canada",49.347628400000005,-122.86013423429901
139,/title/tt0279600/,Smallville,"Koerner Plaza, University of British Columbia, Robson Square Campus - 800 Robson Street, Vancouver, British Columbia, Canada",,,,
140,/title/tt0279600/,Smallville,"South Delta Baptist Church, Tsawwassen, Delta, British Columbia, Canada",,"South Delta Baptist Church, 1988, 56 Street, Tsawwassen, Delta, Metro Vancouver Regional District, British Columbia, V4L 1J3, Canada",49.0382235,-123.06755818831559
141,/title/tt0279600/,Smallville,"Vancouver, British Columbia, Canada",,"Vancouver, Metro Vancouver Regional District, British Columbia, Canada",49.2608724,-123.1139529
142,/title/tt0279600/,Smallville,"Tsawwassen, Delta, British Columbia, Canada",,"Tsawwassen, Delta, Metro Vancouver Regional District, British Columbia, Canada",49.02428425,-123.07622361968933
143,/title/tt2771200/,Beauty and the Beast,"Shepperton Studios, Shepperton, Surrey, England, UK",,,,
144,/title/tt2771200/,Beauty and the Beast,"Ashridge Estate, Hertfordshire, England, UK",(Mob of villagers march to the Beast's castle)                        ,"Ashridge Drive, St Stephen, St Albans, Hertfordshire, East of England, England, AL2 3SZ, United Kingdom",51.7081013,-0.3711653
145,/title/tt2771200/,Beauty and the Beast,UK,,United Kingdom,54.7023545,-3.2765753
146,/title/tt2771200/,Beauty and the Beast,"A Stage, Shepperton Studios, Shepperton, Surrey, England, UK",(castle entrance; castle terrace; rooftop walkway)                        ,,,
147,/title/tt2771200/,Beauty and the Beast,"C Stage, Shepperton Studios, Shepperton, Surrey, England, UK",(ballroom)                        ,,,
148,/title/tt2771200/,Beauty and the Beast,"E Stage, Shepperton Studios, Shepperton, Surrey, England, UK",,,,
149,/title/tt2771200/,Beauty and the Beast,"G Stage, Shepperton Studios, Shepperton, Surrey, England, UK",(interior of Gaston's tavern)                        ,,,
150,/title/tt3281548/,Little Women,"Concord, Massachusetts, USA",(Orchard and Lawrence Houses)                        ,"Concord, Middlesex County, Massachusetts, 01742, United States of America",42.4605189,-71.3488963
151,/title/tt3281548/,Little Women,"Gibbet Hill, Groton, Massachusetts, USA",(Overlooking valley with Jo and Laurie)                        ,"Gibbet Hill, Groton, Middlesex County, Massachusetts, 01450, United States of America",42.6100904,-71.5592337
152,/title/tt3281548/,Little Women,"Castle Hill, Ipswich, Massachusetts, USA",(Multiple Paris scenes)                        ,"Castle Hill, Ipswich, Essex County, Massachusetts, United States of America",42.6858822,-70.7787322
153,/title/tt3281548/,Little Women,"Eleanor Cabot Bradley Estate, Canton, Massachusetts, USA",(Aunt March's home)                        ,,,
154,/title/tt3281548/,Little Women,"Lawrence, Massachusetts, USA",(New York City)                        ,"Lawrence, Essex County, Massachusetts, 01840, United States of America",42.7070354,-71.1631137
155,/title/tt3281548/,Little Women,"Gibson House, Beacon Street, Boston, Massachusetts, USA","(NY publisher's office, Jo's apt)                        ","Gibson House, 137, Beacon Street, Beacon Hill, Boston, Suffolk County, Massachusetts, 02116, United States of America",42.3547395,-71.0741161
156,/title/tt3281548/,Little Women,"Boston, Massachusetts, USA",,"Boston, Suffolk County, Massachusetts, United States of America",42.3602534,-71.0582912
157,/title/tt3281548/,Little Women,"Franklin, Massachusetts, USA",(Interior - March home)                        ,"Franklin, Norfolk County, Massachusetts, United States of America",42.0834313,-71.396725
158,/title/tt3281548/,Little Women,USA,,United States,39.7837304,-100.4458825
159,/title/tt3774694/,Love,"Parc des Buttes Chaumont, Paris 19, Paris, France",(Murphy and Electra meeting for the first time)                        ,"Parc des Buttes-Chaumont, Quartier du Combat, Paris, Île-de-France, France métropolitaine, 75019, France",48.879555100000005,2.3820982131570987
160,/title/tt3774694/,Love,"Paris, France",,"Paris, Île-de-France, France métropolitaine, 75004, France",48.8566969,2.3514616
161,/title/tt0120338/,Titanic,"Titanic wreck, Titanic Canyon, North Atlantic, Atlantic Ocean",(location)                        ,,,
162,/title/tt0120338/,Titanic,"Halifax, Nova Scotia, Canada",(location)                        ,"Halifax, Nova Scotia, Canada",44.648618,-63.5859487
163,/title/tt0120338/,Titanic,"Rosarito, Baja California Norte, Mexico",(location)                        ,"Rosarito, Playas de Rosarito, Baja California, 22703, México",32.3648126,-117.0556261
164,/title/tt0120338/,Titanic,"S.S. Lane Victory, Pier 94, San Pedro, Los Angeles, California, USA",(shots of Titanic's wake)                        ,,,
165,/title/tt0120338/,Titanic,"Santa Clarita, California, USA",(location)                        ,"Santa Clarita, Los Angeles County, California, United States of America",34.3916641,-118.542586
166,/title/tt0414387/,Pride & Prejudice,"Chatsworth House, Edensor, Derbyshire, England, UK",(Pemberley exteriors/Pemberley's grand staircase/Pemberley's sculpture gallery)                        ,"Chatsworth House, Broadwalk, Chatsworth CP, Derbyshire Dales, Derbyshire, East Midlands, England, DE45 1PJ, United Kingdom",53.227588850000004,-1.611362475457475
167,/title/tt0414387/,Pride & Prejudice,"Basildon Park, Lower Basildon, Berkshire, England, UK",(Netherfield)                        ,"Basildon Park, Blue Walk, Basildon, Lower Basildon, West Berkshire, South East, England, RG8 9NR, United Kingdom",51.499082650000005,-1.1214313652486754
168,/title/tt0414387/,Pride & Prejudice,"Groombridge Place, Groombridge, Kent, England, UK",(Longbourn)                        ,"Groombridge Place, Groombridge Hill, Speldhurst, Tunbridge Wells, Kent, South East, England, TN3 9NA, United Kingdom",51.11736689999999,0.18951845822367414
169,/title/tt0414387/,Pride & Prejudice,"Stanage Edge, Hathersage Moor, Hathersage, Derbyshire, England, UK",(Elizabeth standing on precipice)                        ,,,
170,/title/tt0414387/,Pride & Prejudice,"Weekley, Northamptonshire, England, UK",(Mr Collins vicarage)                        ,"Weekley, Northamptonshire, East Midlands, England, NN16 9UP, United Kingdom",52.4182521,-0.6963666
171,/title/tt0414387/,Pride & Prejudice,"Stamford, Lincolnshire, England, UK",(Meryton village/Milliner's shop)                        ,"Stamford, Lincolnshire, East Midlands, England, PE9 2AJ, United Kingdom",52.6520552,-0.4804363
172,/title/tt0414387/,Pride & Prejudice,"Wiltshire, England, UK",,"Wiltshire, Patney, Wiltshire, South West England, England, United Kingdom",51.324162,-1.9032486699002247
173,/title/tt1832979/,Dokter Hart,"Alabama, USA",,"Alabama, United States of America",33.2588817,-86.8295337
174,/title/tt1832979/,Dokter Hart,"Warner Brothers Burbank Studios - 4000 Warner Boulevard, Burbank, California, USA",(studio)                        ,,,
175,/title/tt1567432/,Teen Wolf,"Northridge, Los Angeles, California, USA",,"Northridge, Los Angeles, Los Angeles County, California, 91324, United States of America",34.2345615,-118.5369316
176,/title/tt1567432/,Teen Wolf,"Clark Residences - 306 Loma Drive - Los Angeles, California, USA",(The Eichen House)                        ,,,
177,/title/tt1567432/,Teen Wolf,"11 W Andrews Dr NW, Atlanta, Georgia, USA",(Lydia's house)                        ,"11, West Andrews Drive Northwest, A, Buckhead, Atlanta, Georgia, 30305, United States of America",33.839668,-84.3928355
178,/title/tt1567432/,Teen Wolf,"Palisades High School - 15777 Bowdoin Street, Pacific Palisades, Los Angeles, California, USA",(Beacon Hills High School)                        ,,,
179,/title/tt1567432/,Teen Wolf,"4470 Thurgood Estates Dr, Ellenwood, Georgia, USA",(Allison's house)                        ,,,
180,/title/tt1567432/,Teen Wolf,"885 Courtenay Dr Ne, Atlanta, Georgia, USA",(Isaac's house)                        ,"885, Courtenay Drive Northeast, Atlanta, Georgia, 30306, United States of America",33.789716850000005,-84.35802937315157
181,/title/tt1567432/,Teen Wolf,"North Druid Hills Road, Atlanta, Georgia, USA",(Beacon Hills High School)                        ,"North Druid Hills, DeKalb County, Georgia, 30329-3905, United States of America",33.8167711,-84.3132574
182,/title/tt1567432/,Teen Wolf,"2470 Stokes Canyon Road, Calabasas, California, USA",(Lydia's lake house)                        ,,,
183,/title/tt1567432/,Teen Wolf,"17651 Corinthian Drive, Encino, California, USA",(Heather's house)                        ,"17651, Corinthian Drive, Encino, Los Angeles, Los Angeles County, California, 91316, United States of America",34.158536081632654,-118.51772936734693
184,/title/tt1567432/,Teen Wolf,"Hawthorne Plaza - 12124 Hawthorne Blvd., Hawthorne, California, USA",(Abandoned mall)                        ,"Hawthorne Plaza, Hawthorne Boulevard, Hawthorne, Los Angeles County, California, 90250, United States of America",33.91967925,-118.35166192995533
185,/title/tt1567432/,Teen Wolf,"Woodley Avenue, Van Nuys, California, USA",(Deer jumps through windshield)                        ,,,
186,/title/tt1567432/,Teen Wolf,"Glen Capri Motel - 6700 San Fernando Rd., Glendale, California, USA",(Motel)                        ,,,
187,/title/tt1567432/,Teen Wolf,"Fort MacArthur, San Pedro, Los Angeles, California, USA",(Oak Creek Internment Camp)                        ,,,
188,/title/tt1567432/,Teen Wolf,"Woodley Park, California, USA",(Lacrosse field)                        ,"Woodley Park, Los Angeles, Los Angeles County, California, United States of America",34.1808707,-118.48241464171679
189,/title/tt0077631/,Grease,"Huntington Park High School - 6020 Miles Avenue, Huntington Park, California, USA",(classroom and big dance contest scenes)                        ,,,
190,/title/tt0077631/,Grease,"Pickwick Drive-In Theater - 1100 W. Alameda Avenue, Burbank, California, USA",(drive-in theatre - now demolished)                        ,,,
191,/title/tt0077631/,Grease,"Leo Carrillo State Beach - 35000 W. Pacific Coast Highway, Malibu, California, USA",(Opening beach scene)                        ,,,
192,/title/tt0077631/,Grease,"4524 Kingswell Avenue, Hollywood, Los Angeles, California, USA",(The Slumber Party)                        ,,,
193,/title/tt0077631/,Grease,"Virgil Junior High School - 152 N. Vermont Avenue, Los Angeles, California, USA",,,,
194,/title/tt0077631/,Grease,"Silver Lake, Los Angeles, California, USA",,"Silver Lake, Los Angeles, Los Angeles County, California, 90026-2106, United States of America",34.0896518,-118.2693735
195,/title/tt0077631/,Grease,"6th Street Viaduct, Los Angeles, California, USA",(Thunder Road Car Race)                        ,"6th St Viaduct, East 6th Street, Arts District, Downtown, Los Angeles, Los Angeles County, California, 90021, United States of America",34.0382287,-118.2259863
196,/title/tt0077631/,Grease,"Los Angeles, California, USA",,"Los Angeles, Los Angeles County, California, United States of America",34.0536909,-118.2427666
197,/title/tt0077631/,Grease,"Burbank, California, USA",,"Burbank, Los Angeles County, California, United States of America",34.1816482,-118.3258554
198,/title/tt1442449/,Spartacus: Blood and Sand,New Zealand,,New Zealand / Aotearoa,-41.5000831,172.8344077
199,/title/tt1442449/,Spartacus: Blood and Sand,"Mount Wellington, Auckland, New Zealand",(studio)                        ,"Mount Wellington, Auckland, 1741, New Zealand",-36.9047927,174.8351177
200,/title/tt0844441/,True Blood,"Shreveport, Louisiana, USA",(pilot)                        ,"Shreveport, Caddo Parish, Louisiana, United States of America",32.5221828,-93.7651944
201,/title/tt0844441/,True Blood,"Mansfield, Louisiana, USA",(pilot)                        ,"Mansfield, De Soto Parish, Louisiana, United States of America",32.0376629,-93.7001819
202,/title/tt0844441/,True Blood,"Raleigh Studios Baton Rouge, Celtic Media Centre, Baton Rouge, Louisiana, USA",,,,
203,/title/tt0844441/,True Blood,"Longwood - 140 Lower Woodville Road, Natchez, Mississippi, USA",(Russel Edgington's mansion)                        ,"Longwood, 140, Lower Woodville Road, Hawthorne, Natchez, Adams County, Mississippi, 39120, United States of America",31.536778,-91.4052404
204,/title/tt0844441/,True Blood,"Jungle Set, Warner Brothers Burbank Studios - 4000 Warner Boulevard, Burbank, California, USA",,,,
205,/title/tt0844441/,True Blood,"Canoga Park, Los Angeles, California, USA",,"Canoga Park, Los Angeles, Los Angeles County, California, 91303, United States of America",34.2010541,-118.5977282
206,/title/tt0844441/,True Blood,"Blue Cloud Movie Ranch - 20000 Blue Cloud Road, Santa Clarita, California, USA",,,,
207,/title/tt0844441/,True Blood,"Hollywood Center Studios - 1040 N. Las Palmas Avenue, Hollywood, Los Angeles, California, USA",,"Hollywood Center Studios, Romaine Street, Hollywood, Los Angeles, Los Angeles County, California, 90038, United States of America",34.08981165,-118.33500930891499
208,/title/tt0844441/,True Blood,"Hawthorne, California, USA",,"Hawthorne, Los Angeles County, California, United States of America",33.9188589,-118.3483256
209,/title/tt0844441/,True Blood,"Pasadena, California, USA",,"Pasadena, Los Angeles County, California, United States of America",34.1476452,-118.1444779
210,/title/tt0844441/,True Blood,"Long Beach, California, USA",,"Long Beach, Los Angeles County, California, United States of America",33.7690164,-118.1916048
211,/title/tt0101862/,Father of the Bride,"843 S. El Molino Avenue, Pasadena, California, USA",(Banks family home)                        ,"843, South El Molino Avenue, Oak Knoll, Pasadena, Los Angeles County, California, 91106, United States of America",34.131312,-118.13685127272727
212,/title/tt0101862/,Father of the Bride,"1015 California Avenue, Santa Monica, California, USA",(wedding church interiors)                        ,"1015, California Avenue, Santa Monica, Los Angeles County, California, 90403, United States of America",34.0254265,-118.493936
213,/title/tt0101862/,Father of the Bride,"Cheval Bistro, 41 South Delacy Street, Pasadena, California, USA",(bar)                        ,,,
214,/title/tt0101862/,Father of the Bride,"Melrose Place, West Hollywood, California, USA",(boutique of Franck Eggelhoffer)                        ,,,
215,/title/tt0101862/,Father of the Bride,"Trinity Baptist Church - 2040 W. Jefferson Boulevard, Santa Monica, California, USA",(wedding church exteriors)                        ,,,
216,/title/tt0101862/,Father of the Bride,"Pasadena, California, USA",,"Pasadena, Los Angeles County, California, United States of America",34.1476452,-118.1444779
217,/title/tt7335184/,You,"1575 York Ave, New York, USA",(Logos Book Store doubling for Mooney's where Joe works)                        ,"Logos Bookstore, 1575, York Avenue, Yorkville, Manhattan Community Board 8, Manhattan, New York County, New York, 10128, United States of America",40.7744668,-73.9484218
218,/title/tt7335184/,You,"New York City, New York, USA",,"New York, United States of America",40.7127281,-74.0060152
219,/title/tt7335184/,You,"308 E 139th Street, Mott Haven, Bronx, New York City, New York, USA",(Joe and Paco's Apartment Building)                        ,"308, East 139th Street, The Bronx, Bronx County, New York, 10454, United States of America",40.8107501,-73.92518490867373
220,/title/tt7335184/,You,"Los Angeles, California, USA",(Season 2)                        ,"Los Angeles, Los Angeles County, California, United States of America",34.0536909,-118.2427666
221,/title/tt7335184/,You,"Long Island City, Queens, New York City, New York, USA",,"Long Island City, Borden Avenue, Queens, Queens County, New York, 11109, United States of America",40.7415095,-73.9569751
222,/title/tt7335184/,You,USA,,United States,39.7837304,-100.4458825
223,/title/tt11100856/,"Love, Guaranteed","Vancouver, British Columbia, Canada",,"Vancouver, Metro Vancouver Regional District, British Columbia, Canada",49.2608724,-123.1139529
224,/title/tt0368530/,One Tree Hill,"Wilmington, North Carolina, USA",,"Wilmington, New Hanover County, North Carolina, United States of America",34.2257282,-77.9447107
225,/title/tt0368530/,One Tree Hill,"Screen Gems Studios - 1223 North 23rd Street, Wilmington, North Carolina, USA",,,,
226,/title/tt0368530/,One Tree Hill,"Bellevue Cemetery, Wilmington, North Carolina, USA",,,,
227,/title/tt0071007/,Het kleine huis op de prairie,"Old Tucson - 201 S. Kinney Road, Tucson, Arizona, USA","(As the town of Mankato, Minnesota)                        ","Old Tucson, 201, Kinney Road, Tucson Estates, Pima County, Arizona, 85735, United States of America",32.2186224,-111.1300273
228,/title/tt0071007/,Het kleine huis op de prairie,"San Rafael Ranch State Park, Patagonia, Arizona, USA",,,,
229,/title/tt0071007/,Het kleine huis op de prairie,"Red Hills Ranch, Sonora, California, USA",,,,
230,/title/tt0071007/,Het kleine huis op de prairie,"Mescal, Arizona, USA",,"Mescal, Cochise County, Arizona, United States of America",31.9900824,-110.4353531
231,/title/tt0071007/,Het kleine huis op de prairie,"Benson, Arizona, USA",,"Benson, Cochise County, Arizona, United States of America",31.9678611,-110.2945174
232,/title/tt0071007/,Het kleine huis op de prairie,"Patagonia, Arizona, USA",,"Patagonia, Santa Cruz County, Arizona, 85624, United States of America",31.5393138,-110.7563046
233,/title/tt0071007/,Het kleine huis op de prairie,"Mt. Lemmon, Arizona, USA",,"Mount Lemmon, Pima County, Arizona, 85619, United States of America",32.4431311,-110.7884295
234,/title/tt0071007/,Het kleine huis op de prairie,"Las Cienegas National Conservation Area, Arizona, USA",,"Las Cienegas National Conservation Area, Red Cloud Mine Road, Pima County, Arizona, United States of America",31.78308655,-110.6048063412536
235,/title/tt0758790/,The Tudors,"Drimnagh Castle, Drimnagh, Dublin, County Dublin, Ireland",,"Drimnagh Castle, Long Mile Road, Drimnagh, Walkinstown A ED, Dublin 12, County Dublin, Leinster, 12, Ireland",53.3249011,-6.333028
236,/title/tt0758790/,The Tudors,"Kilmainham Jail, Dublin, County Dublin, Ireland",,"Kilmainham Gaol, Inchicore Road, Kilmainham, Kilmainham B ED, Dublin 8, County Dublin, Leinster, D08P 89W, Ireland",53.34174585,-6.309578660652412
237,/title/tt0758790/,The Tudors,"Cathedral of the Holy Trinity, Christ Church Cathedral, Christchurch, Dublin, County Dublin, Ireland",,,,
238,/title/tt0758790/,The Tudors,"Kilruddery House, Bray, County Wicklow, Ireland",(season 4)                        ,"Kilruddery Deerpark, Kilmacanoge, The Municipal District of Bray, County Wicklow, Leinster, Ireland",53.1714415,-6.111532481202543
239,/title/tt0758790/,The Tudors,"Ardmore Studios, Herbert Road, Bray, County Wicklow, Ireland",,,,
240,/title/tt0159206/,Sex and the City,"Paris, France",(final episodes)                        ,"Paris, Île-de-France, France métropolitaine, 75004, France",48.8566969,2.3514616
241,/title/tt0159206/,Sex and the City,"Bryant Park, Manhattan, New York City, New York, USA",,"Bryant Park, 6th Avenue, Theater District, Manhattan Community Board 5, Manhattan, New York County, New York, 10018, United States of America",40.75375085,-73.98353680295259
242,/title/tt0159206/,Sex and the City,"Bungalow 8, 515 West 27th Street, New York City, New York, USA",,,,
243,/title/tt0159206/,Sex and the City,"Millstone Township, New Jersey, USA",(Cree-Me-Freez Ice Cream on Route 33 E. -- Last episode of Season 5 when the girls go to Long Island for the wedding/Samantha's party)                        ,"Millstone Township, New Jersey, United States of America",40.2023684,-74.4079671
244,/title/tt0159206/,Sex and the City,"Hayden's Country Cabin, West Orange, New Jersey, USA",,,,
245,Code,Show Name,Location,Scene,"Location, Tucker County, West Virginia, United States of America",39.2138905,-79.6371124
246,/title/tt0159206/,Sex and the City,"Paris, France",(final episodes)                        ,"Paris, Île-de-France, France métropolitaine, 75004, France",48.8566969,2.3514616
247,/title/tt0159206/,Sex and the City,"Bryant Park, Manhattan, New York City, New York, USA",,"Bryant Park, 6th Avenue, Theater District, Manhattan Community Board 5, Manhattan, New York County, New York, 10018, United States of America",40.75375085,-73.98353680295259
248,/title/tt0159206/,Sex and the City,"Bungalow 8, 515 West 27th Street, New York City, New York, USA",,,,
249,/title/tt0159206/,Sex and the City,"Millstone Township, New Jersey, USA",(Cree-Me-Freez Ice Cream on Route 33 E. -- Last episode of Season 5 when the girls go to Long Island for the wedding/Samantha's party)                        ,"Millstone Township, New Jersey, United States of America",40.2023684,-74.4079671
250,/title/tt0159206/,Sex and the City,"Hayden's Country Cabin, West Orange, New Jersey, USA",,,,
251,/title/tt0109830/,Forrest Gump,"Monument Valley, Utah, USA",,"Monument, Disera Boulevard, Magna, Salt Lake County, Utah, 84044, United States of America",40.7143227,-112.1045506
252,/title/tt0109830/,Forrest Gump,"Savannah, Georgia, USA",,"Savannah, Chatham County, Georgia, United States of America",32.0809263,-81.0911768
253,/title/tt0109830/,Forrest Gump,"Beaufort, South Carolina, USA",,"Beaufort, Beaufort County, South Carolina, United States of America",32.4315813,-80.6698286
254,/title/tt0109830/,Forrest Gump,"Valley of the Gods, Mexican Hat, Utah, USA",,,,
255,/title/tt0109830/,Forrest Gump,"Santa Monica Pier, Santa Monica, California, USA",,"Santa Monica Pier, Santa Monica, Los Angeles County, California, United States of America",34.00889605,-118.49740225045329
256,/title/tt0109830/,Forrest Gump,"Biltmore Estate - 1 Approach Road, Asheville, North Carolina, USA",,,,
257,/title/tt0109830/,Forrest Gump,"Twin Arrows, Arizona, USA",(smiley face scene)                        ,"Twin Arrows, Coconino County, Arizona, United States of America",35.1606687,-111.2793943
258,/title/tt0109830/,Forrest Gump,"Blackfeet Indian Reservation, Montana, USA",(second unit)                        ,,,
259,/title/tt0109830/,Forrest Gump,"Paramount Studios - 5555 Melrose Avenue, Hollywood, Los Angeles, California, USA",(studio)                        ,,,
260,/title/tt0109830/,Forrest Gump,"Orange, California, USA",,"Orange County, California, United States of America",33.7500378,-117.8704931
261,/title/tt0109830/,Forrest Gump,"University of Southern California, Los Angeles, California, USA",(college scenes)                        ,"University of Southern California, Flower Street, University Park, Los Angeles, Los Angeles County, California, 90089-0871, United States of America",34.0218833,-118.28586726915088
262,/title/tt0109830/,Forrest Gump,"Ambassador Hotel - 3400 Wilshire Boulevard, Los Angeles, California, USA",(disco and strip club scenes)                        ,,,
263,/title/tt0109830/,Forrest Gump,"Grauman's Chinese Theater - 6925 Hollywood Blvd., Hollywood, Los Angeles, California, USA",,,,
264,/title/tt0109830/,Forrest Gump,"Monument Valley, Arizona, USA",,"Monument Valley Navajo Tribal Park, Navajo County, Arizona, United States of America",36.9820026,-110.1108327
265,/title/tt0410975/,Desperate Housewives,"Colonial Street, Backlot, Universal Studios - 100 Universal City Plaza, Universal City, California, USA",(Wisteria Lane)                        ,,,
266,/title/tt0410975/,Desperate Housewives,"Backlot, Universal Studios - 100 Universal City Plaza, Universal City, California, USA",(front porch)                        ,,,
267,/title/tt0410975/,Desperate Housewives,"Universal City, California, USA",,"Universal City, Los Angeles County, California, 91608, United States of America",34.1412926,-118.3584364
268,/title/tt0410975/,Desperate Housewives,USA,,United States,39.7837304,-100.4458825
269,/title/tt0410975/,Desperate Housewives,"Studio City, Los Angeles, California, USA",(Restaurant)                        ,"Studio City, Los Angeles, Los Angeles County, California, 91604, United States of America",34.1483989,-118.3961877
270,/title/tt0410975/,Desperate Housewives,"Saddle Ranch Chop House - 1000 Universal Studios Blvd, Universal City, California, USA",,,,
271,/title/tt0410975/,Desperate Housewives,"Stage 1, Universal Studios - 100 Universal City Plaza, Universal City, California, USA",,,,
272,/title/tt0410975/,Desperate Housewives,"Stage 4, Universal Studios - 100 Universal City Plaza, Universal City, California, USA",,,,
273,/title/tt0093779/,The Princess Bride,"Cliffs of Moher, County Clare, Ireland",(Cliffs of Insanity)                        ,"Cliffs of Moher, R478, Lislorkan North, Ballysteen, West Clare Municipal District, County Clare, Munster, Ireland",52.9717877,-9.4291244
274,/title/tt0093779/,The Princess Bride,"Baron's Hall, Penshurst Place, Penshurst, Kent, England, UK",(Inigo duels Count Rugen)                        ,,,
275,/title/tt0093779/,The Princess Bride,"Burnham Beeches, Buckinghamshire, England, UK",(forest scenes)                        ,"Burnham Beeches, Dukes Drive, Burnham, Farnham Common, Buckinghamshire, South East, England, SL2 3LD, United Kingdom",51.5565286,-0.6327670695416168
276,/title/tt0093779/,The Princess Bride,"Lathkill Dale, Derbyshire, England, UK","(The ""battle of wits"")                        ","Lathkill Dale, Derbyshire Dales, Derbyshire, East Midlands, England, DE45 1QW, United Kingdom",53.1881391,-1.7164465
277,/title/tt0093779/,The Princess Bride,"Carl Wark, Peak District National Park, Yorkshire, England, UK",(Buttercup and Dread Pirate Roberts cross the moors)                        ,,,
278,/title/tt0093779/,The Princess Bride,"Shepperton Studios, Shepperton, Surrey, England, UK",(studio)                        ,,,
279,/title/tt0093779/,The Princess Bride,"C Stage, Shepperton Studios, Shepperton, Surrey, England, UK",(clifftop ruins; Westley and Inigo duel)                        ,,,
280,/title/tt0093779/,The Princess Bride,"M Stage, Shepperton Studios, Shepperton, Surrey, England, UK",(interior of Miracle Max's hovel)                        ,,,
281,/title/tt0120647/,Deep Impact,"Prince William Pkwy SR 234, Manassas, Virginia, USA",(packed freeway scene)                        ,"Prince William Parkway, Hynson Knolls, Buckhall, Prince William County, Virginia, 2010, United States of America",38.7400281,-77.4511497
282,/title/tt0120647/,Deep Impact,"Francis Scott Key Bridge, Washington, District of Columbia, USA",(Jenny pulled over by FBI)                        ,"Francis Scott Key Bridge, Georgetown, Washington, District of Columbia, 20057, United States of America",38.9043344,-77.0689449
283,/title/tt0120647/,Deep Impact,"Washington, District of Columbia, USA",,"Washington, District of Columbia, 20230, United States of America",38.8949924,-77.0365581
284,/title/tt0120647/,Deep Impact,"Wilson Blvd & N. Lynn Street, Rosslyn, Arlington, Virginia, USA",(disaster refugee centers)                        ,,,
285,/title/tt0120647/,Deep Impact,"Colonial Street, Backlot, Universal Studios - 100 Universal City Plaza, Universal City, California, USA",,,,
286,/title/tt0120647/,Deep Impact,"Robert C. Weaver Federal Building - 451 Seventh Street SW, Washington, District of Columbia, USA",(rooftop sequence)                        ,,,
287,/title/tt0120647/,Deep Impact,"Times Square, Manhattan, New York City, New York, USA",(New York destruction & special broadcast sequences)                        ,"Times Square, West 45th Street, Times Square, Manhattan Community Board 5, Times Square, New York County, New York, 10036, United States of America",40.757280550000004,-73.98585503545917
288,/title/tt0120647/,Deep Impact,"Los Angeles, California, USA",,"Los Angeles, Los Angeles County, California, United States of America",34.0536909,-118.2427666
289,/title/tt0120647/,Deep Impact,"Washington Square Park, Greenwich Village, Manhattan, New York City, New York, USA",(New York destruction sequence)                        ,,,
290,/title/tt0120647/,Deep Impact,"45 Whalers Lane, Amagansett, Long Island, New York, USA",(beach house)                        ,,,
291,/title/tt0120647/,Deep Impact,"Paramount Studios - 5555 Melrose Avenue, Hollywood, Los Angeles, California, USA",(studio) (studio: outer space)                        ,,,
292,/title/tt0120647/,Deep Impact,"California, USA",,"California, United States of America",36.7014631,-118.7559974
293,/title/tt0120647/,Deep Impact,USA,,United States,39.7837304,-100.4458825
294,/title/tt7984766/,The King,"Szilvásvárad, Hungary",(location)                        ,"Szilvásvárad, Bélapátfalvai járás, Heves megye, Észak-Magyarország, Alföld és Észak, 3348, Magyarország",48.1033386,20.3871297
295,/title/tt7984766/,The King,"Komarom, Hungary",(location)                        ,"Komárom, Komáromi járás, Komárom-Esztergom megye, Közép-Dunántúl, Dunántúl, Magyarország",47.7417349,18.1218256
296,/title/tt7984766/,The King,"Lincolnshire, England, UK",(location)                        ,"Lincolnshire, Stixwould and Woodhall, East Lindsey, Lincolnshire, East Midlands, England, United Kingdom",53.1823034,-0.2031208542548153
297,/title/tt7984766/,The King,"Battle Abbey, Butter Cross, High St, Battle TN33 0AE, United Kingdom",(Exterior shots with Hal and his sister)                        ,,,
298,/title/tt9059760/,Normal People,"Sligo, Ireland",,"Sligo, County Sligo, Connacht, Ireland",54.2720696,-8.4751357
299,/title/tt9059760/,Normal People,"Trinity College, Dublin, County Dublin, Ireland",,"Trinity College, College Green, Royal Exchange A ED, Dublin 2, County Dublin, Leinster, D02 HR67, Ireland",53.3444162,-6.2589561
300,/title/tt9059760/,Normal People,Italy,,Italia,42.6384261,12.674297
301,/title/tt1219024/,Castle,"Los Angeles, California, USA",,"Los Angeles, Los Angeles County, California, United States of America",34.0536909,-118.2427666
302,/title/tt9484998/,Palm Springs,"Santa Clarita, California, USA",,"Santa Clarita, Los Angeles County, California, United States of America",34.3916641,-118.542586
303,/title/tt9484998/,Palm Springs,"Four Aces Movie Ranch - 14499 E Ave Q, Palmdale, California, USA",(location)                        ,,,
304,/title/tt2660806/,Mom,"Stage 20, Warner Brothers Burbank Studios - 4000 Warner Boulevard, Burbank, California, USA",(studio)                        ,,,
305,/title/tt5057130/,Medici,"Florence, Tuscany, Italy","(Palazzo Vecchio, Florence Cathedral, Florence Baptistery, Basilica of St Lawrence, Bargello Palace)                        ","Firenze, Toscana, Italia",43.7698712,11.2555757
306,/title/tt5057130/,Medici,"Montepulciano, Siena, Tuscany, Italy",,"Montepulciano, Unione dei Comuni Valdichiana Senese, Siena, Toscana, Italia",43.0927229,11.780972
307,/title/tt5057130/,Medici,"Tivoli, Rome, Lazio, Italy","(Hadrian's Villa, Villa d'Este)                        ","Tivoli, Paterno, Tivoli, Roma Capitale, Lazio, 00019, Italia",41.95948185,12.797478884048815
308,/title/tt5057130/,Medici,"Bagno Vignoni, San Quirico d'Orcia, Siena, Tuscany, Italy",,"Bagno Vignoni, San Quirico d'Orcia, Unione dei Comuni Amiata Val d'Orcia, Siena, Toscana, Italia",43.0280846,11.6188173
309,/title/tt5057130/,Medici,"Pistoia, Tuscany, Italy",,"Pistoia, Toscana, Italia",43.9740957,10.868708114044026
310,/title/tt5057130/,Medici,"Viterbo, Lazio, Italy",,"Viterbo, Lazio, Italia",42.49368885,11.945067829807687
311,/title/tt5726616/,Call Me by Your Name,"Crema, Cremona, Lombardy, Italy",,"Crema, Cremona, Lombardia, Italia",45.362828,9.6874573
312,/title/tt5726616/,Call Me by Your Name,"Sirmione, Brescia, Lombardy, Italy","(Elio, Oliver and Mr. Perlman at the archaeological site by Lake Garda)                        ","Sirmione, Brescia, Lombardia, 25019, Italia",45.4688494,10.6078237
313,/title/tt5726616/,Call Me by Your Name,"Valbondione, Bergamo, Lombardy, Italy",,"Valbondione, Bergamo, Lombardia, Italia",46.034193,10.005855
314,/title/tt5726616/,Call Me by Your Name,"Montodine, Cremona Lombardy, Italy",,"Montodine, Cremona, Lombardia, Italia",45.285171,9.707262
315,/title/tt5726616/,Call Me by Your Name,"Pandino, Cremona, Lombardy, Italy",,"Pandino, Cremona, Lombardia, 26025, Italia",45.407073,9.553456
316,/title/tt5726616/,Call Me by Your Name,"Campagnola Cremasca, Cremona, Lombardy, Italy",,"Campagnola Cremasca, Cremona, Lombardia, Italia",45.398474,9.669459
317,/title/tt5726616/,Call Me by Your Name,"Basilica Santa Maria Maggiore, Bergamo, Lombardy, Italy",,,,
318,/title/tt5726616/,Call Me by Your Name,"Corte Palasio, Lodi, Lombardy, Italy",,"Corte Palasio, Lodi, Lombardia, 26834, Italia",45.3096097,9.564308
319,/title/tt5726616/,Call Me by Your Name,"Ateneo di Scienze Lettere ed Arti, Bergamo, Lombardy, Italy",,,,
320,/title/tt5726616/,Call Me by Your Name,"Piazza Vittorio Emanuele III, Pandino, Cremona, Lombardy, Italy",(World war 1 statue)                        ,"Piazza Vittorio Emanuele III, Pandino, Cremona, Lombardia, 26025, Italia",45.4049494,9.5527991
321,/title/tt5726616/,Call Me by Your Name,"Northern Italy, Italy",,"Northern Italy Pipeline System, SP22, Casetti, Solarolo, Unione della Romagna Faentina, Ravenna, Emilia-Romagna, 48027, Italia",44.3729329,11.824373
322,/title/tt5726616/,Call Me by Your Name,"Cremona, Lombardia, Italy",,"Cremona, Lombardia, Italia",45.22086405,10.037037979628856
323,/title/tt0091326/,The Karate Kid Part II,"O'ahu, Hawaii, USA",,"Oʻahu, Mililani, Honolulu County, Hawaii, United States of America",21.48349555,-158.03640389298
324,/title/tt0091326/,The Karate Kid Part II,"Stage 16, Warner Brothers Burbank Studios - 4000 Warner Boulevard, Burbank, California, USA",,,,
325,/title/tt0091326/,The Karate Kid Part II,"Stage 18, Warner Brothers Burbank Studios - 4000 Warner Boulevard, Burbank, California, USA",,,,
326,/title/tt0091326/,The Karate Kid Part II,USA,,United States,39.7837304,-100.4458825
327,/title/tt0486655/,Stardust,"Horn, Hornafjörður, Iceland",(Septimus's soothsayer casts his runes to determine which way to go next)                        ,"Camping Horn - Viking Cafe, Stokksnesvegur, Sveitarfélagið Hornafjörður, Austurland, Ísland",64.2550806,-14.9948992
328,/title/tt0486655/,Stardust,"Black Park, Iver Heath, Buckinghamshire, England, UK",(Tristan and Yvaine walk through the wood and Yvaine rides off on the unicorn)                        ,"Black Park, Wexham, Iver Heath, Buckinghamshire, South East, England, United Kingdom",51.542492100000004,-0.5441123704462851
329,/title/tt0486655/,Stardust,"Quiraing, Skye, Highland, Scotland, UK",(Lamia casts her runes / Tristain and Yvaine find the road to Wall)                        ,,,
330,/title/tt0486655/,Stardust,"Llyn y Fan Fach, Carmarthenshire, Wales, UK",,"Llyn y Fan Fach, South Wales Traverse (off piste), Llanddeusant, Carmarthenshire, Cymru / Wales, SA19 9UW, United Kingdom",51.8820106,-3.7412745613682423
331,/title/tt0486655/,Stardust,"Ashridge Park, Little Gaddesden, Hertfordshire, England, UK",(the gap in the wall between Wall and Stormhold)                        ,"Ashridge, Dacorum, Hertfordshire, East of England, England, HP4 1LU, United Kingdom",51.8062413,-0.5806941
332,/title/tt0486655/,Stardust,"Elm Hill, Norwich, Norfolk, England, UK",(Stormhold streets and market scenes)                        ,"Elm Hill, Heigham Grove, Norwich, Norfolk, East of England, England, NR3 1HN, United Kingdom",52.6310924,1.2966388
333,/title/tt0486655/,Stardust,"Eilean Iarmain, Skye, Highland, Scotland, UK",,,,
334,/title/tt0486655/,Stardust,"Stowe School, Buckingham, Buckinghamshire, England, UK",(opening scene in Victorian observatory)                        ,"Stowe Avenue, Page Hill, Buckingham, Buckinghamshire, South East, England, MK18 1HT, United Kingdom",52.0013724,-0.9936383
335,/title/tt0486655/,Stardust,Iceland,,Ísland,64.9841821,-18.1059013
336,/title/tt0486655/,Stardust,"Höfn, Iceland",,"Höfn, Sveitarfélagið Hornafjörður, Austurland, 780, Ísland",64.2532647,-15.2080441
337,/title/tt0486655/,Stardust,"Pinewood Studios, Iver Heath, Buckinghamshire, England, UK",(studio)                        ,"Pinewood Studios, Pinewood Green, Iver, Iver Heath, Buckinghamshire, South East, England, SL0 0QJ, United Kingdom",51.54831515,-0.5346765566753087
338,/title/tt0486655/,Stardust,"Borehamwood, Hertfordshire, England, UK",,"Borehamwood, Hertfordshire, East of England, England, WD6 5HL, United Kingdom",51.6604863,-0.2706506
339,/title/tt0059712/,Ship of Fools,"Hollywood, California, USA",,"Hollywood, Los Angeles, Los Angeles County, California, 90028-8127, United States of America",34.0980031,-118.329523
340,/title/tt2322441/,Fifty Shades of Grey,"Vancouver, British Columbia, Canada",,"Vancouver, Metro Vancouver Regional District, British Columbia, Canada",49.2608724,-123.1139529
341,/title/tt2322441/,Fifty Shades of Grey,"British Columbia, Canada",,"British Columbia, Canada",55.001251,-125.002441
342,/title/tt2322441/,Fifty Shades of Grey,"Hotel Vancouver, Vancouver, British Columbia, Canada",(Portland's Heathman Hotel)                        ,"Vancouver, Metro Vancouver Regional District, British Columbia, Canada",49.2608724,-123.1139529
343,/title/tt2322441/,Fifty Shades of Grey,"Coal Harbour, Vancouver, British Columbia, Canada",(Grey jogging)                        ,"Coal Harbour, Downtown, Vancouver, Metro Vancouver Regional District, British Columbia, V6G, Canada",49.2903749,-123.1292813
344,/title/tt2322441/,Fifty Shades of Grey,"Seattle, Washington, USA",(Aerial views)                        ,"Seattle, King County, Washington, United States of America",47.6038321,-122.3300624
345,/title/tt2322441/,Fifty Shades of Grey,"Boundary Bay Airport, Delta, British Columbia, Canada",(aircraft hangar)                        ,"Boundary Bay Airport, 7800, Alpha Way, Delta, Metro Vancouver Regional District, British Columbia, V4K 0A7, Canada",49.07362195,-123.00442235916404
346,/title/tt2322441/,Fifty Shades of Grey,"Rainier Provisions Cafe, Carrall Street, Vancouver, British Columbia, Canada",,,,
347,/title/tt2322441/,Fifty Shades of Grey,"The Paper Hound Bookshop, West Pender Street, Vancouver, British Columbia, Canada",,,,
348,/title/tt1343092/,The Great Gatsby,"Centennial Park, Sydney, New South Wales, Australia",(Gatsby's Estate and Nick Carraway's house set)                        ,"Centennial Park, Sydney, Randwick City Council, New South Wales, 2021, Australia",-33.8977778,151.2338889
349,/title/tt1343092/,The Great Gatsby,"Cook Road, Centennial Park, Sydney, New South Wales, Australia",(Entrance to Buchanan's Mansion)                        ,"Cook Road, Centennial Park, Sydney, Council of the City of Sydney, New South Wales, 2021, Australia",-33.8967075,151.2271275
350,/title/tt1343092/,The Great Gatsby,"Sydney, New South Wales, Australia",,"Sydney, New South Wales, Australia",-33.8548157,151.2164539
351,/title/tt1343092/,The Great Gatsby,"Waverley Cemetery, Bronte, Sydney, New South Wales, Australia",(Gatsby's Funeral Scenes)                        ,"Waverley Cemetery, Bronte, Sydney, Waverley Council, New South Wales, 2024, Australia",-33.90904885,151.26700171762218
352,/title/tt1343092/,The Great Gatsby,"White Bay Power Station, Sydney, New South Wales, Australia",(Valley of the Ashes)                        ,"White Bay Power Station, Rozelle, Sydney, Inner West Council, New South Wales, 2039, Australia",-33.8668995,151.17653176987523
353,/title/tt1343092/,The Great Gatsby,"Glebe Island, Sydney, New South Wales, Australia",,"Glebe, Sydney, Council of the City of Sydney, New South Wales, 2037, Australia",-33.8777782,151.1862377
354,/title/tt1343092/,The Great Gatsby,"Melbourne, Victoria, Australia",(They found out about the setting in St. Kilda through Leo's knowledge of the area due to him being born in Victoria.)                        ,"Melbourne, City of Melbourne, Victoria, 3000, Australia",-37.8142176,144.9631608
355,/title/tt1343092/,The Great Gatsby,"Mount Wilson, Blue Mountains, New South Wales, Australia",(Rural driving scenes)                        ,"Mount Wilson, Blue Mountains City Council, New South Wales, 2786, Australia",-33.515,150.3677778
356,/title/tt11212172/,Love at Look Lodge,"Cascades, Quebec, Canada",(Filming location)                        ,"Cascades, Rivière-au-Tonnerre, Minganie, Côte-Nord, Québec, Canada",50.314064,-65.2409371
357,/title/tt0446029/,Scott Pilgrim vs. the World,"Toronto, Ontario, Canada",,"Toronto, Peel, Golden Horseshoe, Ontario, Canada",43.6534817,-79.3839347
358,/title/tt0446029/,Scott Pilgrim vs. the World,"Bloor Street West, Toronto, Ontario, Canada",,"Bloor Street West, Davenport, Old Toronto, Toronto, Peel, Golden Horseshoe, Ontario, M6H 1L5, Canada",43.6611895,-79.4292859
359,/title/tt0446029/,Scott Pilgrim vs. the World,"Pinewood Toronto Studios, Port Lands, Toronto, Ontario, Canada",,"Pinewood Toronto Studios, Munition Street, Toronto—Danforth, Old Toronto, Toronto, Peel, Golden Horseshoe, Ontario, M4M 3P2, Canada",43.6465663,-79.35106457413957
360,/title/tt0446029/,Scott Pilgrim vs. the World,"Casa Loma, Toronto, Ontario, Canada",(as itself)                        ,"Casa Loma, 1, Austin Terrace, Toronto—St. Paul's, Old Toronto, Toronto, Peel, Golden Horseshoe, Ontario, M5R 1X9, Canada",43.6781015,-79.409415775
361,/title/tt0446029/,Scott Pilgrim vs. the World,"Baldwin Steps, Toronto, Ontario, Canada",(Scott dares Lucas Lee to go down the rail on his skateboard)                        ,"Baldwin Steps, Toronto—St. Paul's, Old Toronto, Toronto, Peel, Golden Horseshoe, Ontario, M5R 1X9, Canada",43.6776885,-79.4081645
362,/title/tt0446029/,Scott Pilgrim vs. the World,"65 Alberta Avenue, Toronto, Ontario, Canada",(Scott's home)                        ,"65, Alberta Avenue, Davenport, Old Toronto, Toronto, Peel, Golden Horseshoe, Ontario, M6H 2M1, Canada",43.67680036666667,-79.4322103
363,/title/tt0446029/,Scott Pilgrim vs. the World,"294 Carlton Street, Toronto, Ontario, Canada",(Ramona's home)                        ,"294, Carlton Street, Toronto Centre, Old Toronto, Toronto, Peel, Golden Horseshoe, Ontario, M5A 2J1, Canada",43.66511627692308,-79.36549743076924
364,/title/tt0446029/,Scott Pilgrim vs. the World,"Pizza Pizza, 558 Bloor Street West, Toronto, Ontario, Canada",(Scott and friends eat pizza)                        ,"Pizza Pizza, 558, Bloor Street West, University—Rosedale, Old Toronto, Toronto, Peel, Golden Horseshoe, Ontario, M6G 1K1, Canada",43.6652157,-79.411422
365,/title/tt0446029/,Scott Pilgrim vs. the World,Canada,,Canada,61.0666922,-107.9917071
366,/title/tt0096928/,Bill & Ted's Excellent Adventure,"Metrocenter Mall - 9801 N. Metro Pkwy W., Phoenix, Arizona, USA",(Joan of Arc scenes)                        ,,,
367,/title/tt0096928/,Bill & Ted's Excellent Adventure,"Coronado High School - 2501 N. 74th Street, Scottsdale, Arizona, USA",,,,
368,/title/tt0096928/,Bill & Ted's Excellent Adventure,"1010 West Southern Avenue, Tempe, Arizona, USA",(Circle K)                        ,"1010, West Southern Avenue, Contempo Tempe, Tempe, Maricopa County, Arizona, 85282, United States of America",33.392953,-111.95246248979592
369,/title/tt0096928/,Bill & Ted's Excellent Adventure,"7337 E 2nd St, Scottsdale, Arizona, USA",(Police Station)                        ,"Scottsdale Radiation Oncology Center, 7337, East 2nd Street, Scottsdale, Maricopa County, Arizona, 85251, United States of America",33.491087449999995,-111.9235819
370,/title/tt0096928/,Bill & Ted's Excellent Adventure,"N. 18th Street & W. Bethany Home Road, Phoenix, Arizona, USA",(Bill's house)                        ,,,
371,/title/tt0096928/,Bill & Ted's Excellent Adventure,"AMF Tempe Village Lanes - 4407 S. Rural Road, Tempe, Arizona, USA",(bowling alley scenes)                        ,,,
372,/title/tt0096928/,Bill & Ted's Excellent Adventure,"Tempe, Arizona, USA",,"Tempe, Maricopa County, Arizona, United States of America",33.4255056,-111.9400125
373,/title/tt0096928/,Bill & Ted's Excellent Adventure,"San Dimas, California, USA",,"San Dimas, Los Angeles County, California, 91773, United States of America",34.1066756,-117.8067257
374,/title/tt0096928/,Bill & Ted's Excellent Adventure,"Scottsdale, Arizona, USA","(San Dimas, California, USA)                        ","Scottsdale, Maricopa County, Arizona, United States of America",33.4942189,-111.9260184
375,/title/tt0096928/,Bill & Ted's Excellent Adventure,Italy,,Italia,42.6384261,12.674297
376,/title/tt0096928/,Bill & Ted's Excellent Adventure,"Arizona, USA",,"Arizona, United States of America",34.395342,-111.7632755
377,/title/tt0096928/,Bill & Ted's Excellent Adventure,"Rome, Lazio, Italy",,"Roma Capitale, Lazio, Italia",41.85223935,12.631036615953583
378,/title/tt0213847/,Malèna,Morocco,,Maroc / ⵍⵎⵖⵔⵉⴱ / المغرب,31.1728205,-7.3362482
379,/title/tt0213847/,Malèna,"Noto, Syracuse, Sicily, Italy",(Castelcuto)                        ,"Noto, Siracusa, Sicilia, 96017, Italia",36.8908864,15.0706454
380,/title/tt0213847/,Malèna,"Taormina, Messina, Sicily, Italy",,"Taormina, Messina, Sicilia, 98039, Italia",37.8517921,15.2856523
381,/title/tt0213847/,Malèna,"Ruderi di Poggioreale, Trapani, Sicily, Italy",,,,
382,/title/tt0119217/,Good Will Hunting,"Central Tech. High School, Toronto, Ontario, Canada",,,,
383,/title/tt0119217/,Good Will Hunting,"University of Toronto, Toronto, Ontario, Canada",(dorm scenes)                        ,"University of Toronto, King's College Circle, University—Rosedale, Old Toronto, Toronto, Peel, Golden Horseshoe, Ontario, M5S 1A1, Canada",43.663461999999996,-79.39775965337452
384,/title/tt0119217/,Good Will Hunting,"Upfront Bar & Grill - 106 Front Street E., Toronto, Ontario, Canada","(interior of ""college bar"" scenes)                        ",,,
385,/title/tt0119217/,Good Will Hunting,"Dorchester, Boston, Massachusetts, USA",,"Dorchester, Boston, Suffolk County, Massachusetts, 02124, United States of America",42.2973205,-71.0744952
386,/title/tt0119217/,Good Will Hunting,"Dunster House, Harvard University, Cambridge, Massachusetts, USA",,,,
387,/title/tt0119217/,Good Will Hunting,"The Tasty, Harvard Square, Cambridge, Massachusetts, USA",(demolished in 1997)                        ,"Tasty Burger, Mount Auburn Street, Harvard Square, Old Cambridge, Cambridgeport, Cambridge, Middlesex County, Massachusetts, 02138-2903, United States of America",42.3725971,-71.1199019
388,/title/tt0119217/,Good Will Hunting,"Boston, Massachusetts, USA",,"Boston, Suffolk County, Massachusetts, United States of America",42.3602534,-71.0582912
389,/title/tt0119217/,Good Will Hunting,"Bow & Arrow Pub - 1 Bow Street, Harvard Square, Cambridge, Massachusetts, USA",,,,
390,/title/tt0119217/,Good Will Hunting,"Massachusetts Institute of Technology - 77 Massachusetts Avenue, Cambridge, Massachusetts, USA",,,,
391,/title/tt0119217/,Good Will Hunting,"Bunker Hill Community College - 250 N. Rutherford Avenue, Charlestown, Massachusetts, USA",,,,
392,/title/tt0119217/,Good Will Hunting,"Harvard Square, Cambridge, Massachusetts, USA",,"Harvard Square, Massachusetts Avenue, Harvard Square, Cambridge, Middlesex County, Massachusetts, 02138-2903, United States of America",42.3734734,-71.1189431
393,/title/tt6139732/,Aladdin,"Wadi Rum, Jordan",(location)                        ,"وادي رم, الراشدية, العقبة, Jordan / الأُرْدُن",29.48125245,35.4687082704589
394,/title/tt6139732/,Aladdin,"Petra, Jordan",(location)                        ,"البتراء (Petra), ""Royal tombs"" footpath, أم صيحون, معان, 71811, Jordan / الأُرْدُن",30.3273975,35.4464006
395,/title/tt1798709/,Her,"Shanghai, China",,"上海市, 黄浦区, China 中国",31.2322758,121.4692071
396,/title/tt1798709/,Her,"Sugar Bowl Resort - 629 Sugar Bowl Road, Norden, California, USA",,,,
397,/title/tt1798709/,Her,"Manhattan Beach, California, USA",(Theodore and Samantha's beach trip destination)                        ,"Manhattan Beach, Los Angeles County, California, 90266, United States of America",33.8915985,-118.3951241
398,/title/tt1798709/,Her,"Lujiazui, Pudong, Shanghai, China",(futuristic Los Angeles)                        ,"陆家嘴, 东西通道 ( 预留线位 ), 上海市, 2000080, China 中国",31.24016825,121.49794463601899
399,/title/tt1798709/,Her,"Pacific Design Center - 8687 Melrose Avenue, West Hollywood, California, USA",(Airplane sculpture)                        ,"Pacific Design Center, Melrose Avenue, West Hollywood, Los Angeles County, California, 90069, United States of America",34.08237595,-118.38241523654585
400,/title/tt1798709/,Her,"400 South Hope Street, Los Angeles, California, USA",(Theodore's office building)                        ,"Pez Cantina, 400, South Hope Street, Financial District, Downtown, Los Angeles, Los Angeles County, California, 90071, United States of America",34.0514794,-118.2532872
401,/title/tt1798709/,Her,"Los Angeles, California, USA",,"Los Angeles, Los Angeles County, California, United States of America",34.0536909,-118.2427666
402,/title/tt1798709/,Her,"California, USA",,"California, United States of America",36.7014631,-118.7559974
403,/title/tt2194499/,About Time,"Portloe, Cornwall, England, UK",,"Portloe, Cornwall, South West England, England, TR2 5QU, United Kingdom",50.2184625,-4.8928681
404,/title/tt2194499/,About Time,"Porthpean House, St Austell, Cornwall, England, UK",(Tim's family home in Cornwall)                        ,,,
405,/title/tt2194499/,About Time,"Maida Vale Underground Station, Maida Vale, London, England, UK",(Underground station where Mary and Tim take the Bakerloo line repeatedly)                        ,,,
406,/title/tt2194499/,About Time,"Paddington Station, Paddington, London, England, UK",,"Paddington Station, Praed Street, Paddington, City of Westminster, London, Greater London, England, W2 1BA, United Kingdom",51.5155439,-0.1755506
407,/title/tt2194499/,About Time,"Brondesbury Road, Queen's Park, London, England, UK",,,,
408,/title/tt2194499/,About Time,"59 Brondesbury Road, Queen's Park, London, England, UK",(Harry's house)                        ,,,
409,/title/tt2194499/,About Time,"The Old Vic - The Cut, London, England, UK",(Harry's play)                        ,"The Old Vic, 103, The Cut, South Bank, Lambeth, London Borough of Lambeth, London, Greater London, England, SE1 8NB, United Kingdom",51.5020002,-0.10933009731256743
410,/title/tt2194499/,About Time,"National Theatre, South Bank Centre, South Bank, Lambeth, London, England, UK",(Tim bumps into Charlotte)                        ,,,
411,/title/tt2194499/,About Time,"London, England, UK",,"London, Greater London, England, United Kingdom",51.5073219,-0.1276474
412,/title/tt2194499/,About Time,"Courtfield Gardens, Earl's Court, London, England, UK",(Tim crashes the party)                        ,"Courtfield Gardens, The Boltons, Earl's Court, Royal Borough of Kensington and Chelsea, London, Greater London, England, SW5 0PH, United Kingdom",51.4929281,-0.1898078
413,/title/tt0099487/,Edward Scissorhands,"Southgate Shopping Center - 2515 Florida Ave S, Lakeland, Florida, USA",,,,
414,/title/tt0099487/,Edward Scissorhands,"Tinsmith Circle, Lutz, Florida, USA",,,,
415,/title/tt0099487/,Edward Scissorhands,"Dade City, Florida, USA",,"Dade City, Pasco County, Florida, United States of America",28.3647248,-82.1959178
416,/title/tt0099487/,Edward Scissorhands,"Stage 14, 20th Century Fox Studios - 10201 Pico Blvd., Century City, Los Angeles, California, USA",(studio)                        ,,,
417,/title/tt1578873/,Pretty Little Liars,"Vancouver, British Columbia, Canada",(pilot)                        ,"Vancouver, Metro Vancouver Regional District, British Columbia, Canada",49.2608724,-123.1139529
418,/title/tt1578873/,Pretty Little Liars,"Warner Brothers Burbank Studios - 4000 Warner Boulevard, Burbank, California, USA",(exteriors in Rosewood)                        ,,,
419,/title/tt2216156/,Last Tango in Halifax,"Knowl Farm, Norden, Rochdale, Lancashire, England, UK",(Gillian's farm in Ripponden)                        ,,,
420,/title/tt2216156/,Last Tango in Halifax,"Co-Operative Store, Peel Street, Marsden, West Yorkshire, England, UK",(Greenhough's Supermarket where Gillian works)                        ,,,
421,/title/tt2674426/,Me Before You,"Pembroke Castle, Pembrokeshire, Wales, UK",,"Pembroke Castle, Castle Walk, Pembroke, Pembrokeshire, Cymru / Wales, SA71 4LE, United Kingdom",51.6772486,-4.9207686
422,/title/tt2674426/,Me Before You,"Sandown Park, Surrey, England, UK",(External Airport)                        ,"Sandown Park, Portsmouth Road, Esher, Surrey, South East, England, KT10 9AB, United Kingdom",51.3736503,-0.3592436
423,/title/tt2674426/,Me Before You,"Pinewood Studios, Iver Heath, Buckinghamshire, England, UK",(studio)                        ,"Pinewood Studios, Pinewood Green, Iver, Iver Heath, Buckinghamshire, South East, England, SL0 0QJ, United Kingdom",51.54831515,-0.5346765566753087
424,/title/tt2674426/,Me Before You,"Paris, France",,"Paris, Île-de-France, France métropolitaine, 75004, France",48.8566969,2.3514616
425,/title/tt8613070/,Portrait de la jeune fille en feu,"Saint-Pierre Quiberon, Morbihan, France",(beach and sea arch)                        ,"Saint-Pierre-Quiberon, Lorient, Morbihan, Bretagne, France métropolitaine, 56510, France",47.5305,-3.13689
426,/title/tt8613070/,Portrait de la jeune fille en feu,"Bretagne, France",,"Bretagne, France métropolitaine, France",48.16282835,-2.684147344521837
427,/title/tt8613070/,Portrait de la jeune fille en feu,France,,France,46.603354,1.8883335
428,/title/tt8613070/,Portrait de la jeune fille en feu,"Paris, France",(studio)                        ,"Paris, Île-de-France, France métropolitaine, 75004, France",48.8566969,2.3514616
429,/title/tt2235695/,Rebecca,"Hatfield House, Hatfield, Hertfordshire, England, UK",(Manderley)                        ,"Hatfield House, The Stable Yard, Hatfield, Welwyn Hatfield, Hertfordshire, East of England, England, AL9 5NF, United Kingdom",51.7605139,-0.20879851305478084
430,/title/tt2235695/,Rebecca,"Cornwall, England, UK",,"Cornwall, Broadoak, Cornwall, South West England, England, United Kingdom",50.443348900000004,-4.62465658489158
431,/title/tt2235695/,Rebecca,France,,France,46.603354,1.8883335
432,/title/tt0096542/,Baywatch,"Will Rogers State Beach - 17700 Pacific Coast Highway, Pacific Palisades, Los Angeles, California, USA",,"Will Rogers State Beach, Pacific Coast Highway, Pacific Palisades, Los Angeles, Los Angeles County, California, 90272-3002, United States of America",34.038496249999994,-118.55317561805094
433,/title/tt0096542/,Baywatch,"Venice Beach, Venice, Los Angeles, California, USA",,"Venice Beach, Crestmoore Place, Venice, Los Angeles, Los Angeles County, California, 90291-3879, United States of America",33.97996005,-118.46877706707772
434,/title/tt0096542/,Baywatch,"RMS Queen Mary - 1126 Queens Highway, Long Beach, California, USA",,,,
435,/title/tt0096542/,Baywatch,"Honolulu, O'ahu, Hawaii, USA",(1999-2001 seasons)                        ,,,
436,/title/tt0118300/,Dawson's Creek,"Cape Cod, Massachusetts, USA",,"Cape Cod, Massachusetts, United States of America",41.7988074,-69.9960134711573
437,/title/tt0118300/,Dawson's Creek,"Airlie Gardens - 300 Airlie Road, Wilmington, North Carolina, USA",(The ruins)                        ,,,
438,/title/tt0118300/,Dawson's Creek,"Dockside Restaurant and Bar - 1308 Airlie Road, Wilmington, North Carolina, USA",(Ice House exteriors)                        ,,,
439,/title/tt0118300/,Dawson's Creek,"Wilmington, North Carolina, USA",,"Wilmington, New Hanover County, North Carolina, United States of America",34.2257282,-77.9447107
440,/title/tt0118300/,Dawson's Creek,"Head Road, Wilmington, North Carolina, USA",(Dawson's house/ Jen's house)                        ,"Head Road, Masonboro, Wilmington, New Hanover County, North Carolina, 28409, United States of America",34.191787,-77.84554
441,/title/tt0118300/,Dawson's Creek,"Dock Street, Wilmington, North Carolina, USA",(Joey's wall - located at the corner of Dock and Front street)                        ,"Dock Street, Brooklyn, Wilmington, New Hanover County, North Carolina, 28401, United States of America",34.234349,-77.946589
442,/title/tt0118300/,Dawson's Creek,"Holiday Inn Sunspree Resort - 1706 N. Lumina Avenue, Wrightsville Beach, North Carolina, USA",(Audrey's rehab facility)                        ,,,
443,/title/tt0118300/,Dawson's Creek,"USS North Carolina Battleship Memorial Park - 1 Battleship Road NE, Wilmington, North Carolina, USA",,"USS North Carolina Battleship Memorial, 1, Battleship Road Northeast, Brooklyn, New Hanover County, North Carolina, 28401, United States of America",34.23653825,-77.95435755900867
444,/title/tt0118300/,Dawson's Creek,"Federal Building and Courthouse - North Water Stree, Wilmington, North Carolina, USA",(Steps in opening credits)                        ,,,
445,/title/tt0118300/,Dawson's Creek,"Duke University, Durham, North Carolina, USA",,"Duke University, Sumter Street, Burch Avenue, Mill Grove, Durham, Durham County, North Carolina, 27708, United States of America",36.00015569999999,-78.94422972195878
446,/title/tt0118300/,Dawson's Creek,"South Carolina, USA",,"South Carolina, United States of America",33.6874388,-80.4363743
447,/title/tt0118300/,Dawson's Creek,"5 South Water Street, Wilmington, North Carolina, USA",(Leery's Fresh Fish)                        ,"5, South Water Street, Brooklyn, Wilmington, New Hanover County, North Carolina, 28401, United States of America",34.23485433333333,-77.94960566666667
448,/title/tt0118300/,Dawson's Creek,"CD Alley Music - 8 Market Street, Wilmington, North Carolina, USA",(Music store)                        ,,,
449,/title/tt0118300/,Dawson's Creek,"W Atlanta Street, Wrightsville Beach, North Carolina, USA",(Pacey and Gretchen's beach house)                        ,"West Atlanta Street, Channel Acres, Wrightsville Beach, New Hanover County, North Carolina, 28480, United States of America",34.210081,-77.794371
450,/title/tt0118300/,Dawson's Creek,"Greenfield Park, 1739 Burnett Blvd., Wilmington, North Carolina, USA",(Swings)                        ,,,
451,/title/tt0118300/,Dawson's Creek,"5426 Efird Road, Wilmington, North Carolina, USA",(Arthur Brooks's house)                        ,"Efird Road, Millbrook, Wilmington, New Hanover County, North Carolina, 28409, United States of America",34.189233,-77.86238
452,/title/tt0118300/,Dawson's Creek,"Yacht Basin Drive, Southport, North Carolina, USA",(Joey's Marina job)                        ,"Yacht Basin Drive, Southport, Brunswick County, North Carolina, 28461, United States of America",33.9176467,-78.0234125
453,/title/tt0338013/,Eternal Sunshine of the Spotless Mind,"Montauk, New York, USA",,"Montauk, Suffolk County, New York, 11954, United States of America",41.043629800000005,-71.94387532055404
454,/title/tt0338013/,Eternal Sunshine of the Spotless Mind,"Bayonne, New Jersey, USA",(studio)                        ,"Bayonne, Hudson County, New Jersey, 07002, United States of America",40.6687141,-74.1143091
455,/title/tt0338013/,Eternal Sunshine of the Spotless Mind,"208 Saratoga Avenue, Yonkers, New York, USA",,"208, Saratoga Avenue, Lowerre, Yonkers, Westchester County, New York, 10705, United States of America",40.912102519832104,-73.89234973959411
456,/title/tt0338013/,Eternal Sunshine of the Spotless Mind,"Mt. Vernon, New York, USA",,"Mount Vernon, 33 N, Westchester County, New York, 10550, United States of America",40.9125815,-73.8370786
457,/title/tt0338013/,Eternal Sunshine of the Spotless Mind,"New York City, New York, USA",,"New York, United States of America",40.7127281,-74.0060152
458,/title/tt3104988/,Crazy Rich Asians,"Langkawi, Malaysia",(Ariminta's bachelorette party resort destination.)                        ,"Langkawi, Kedah, Malaysia",6.3700386,99.7928634
459,/title/tt3104988/,Crazy Rich Asians,"Newton Food Centre, Newton, Singapore","(Ariminta, Colin & Nick introduces Rachel to a hawker food court during their first night out in Singapore)                        ","Newton Food Centre, 500, Clemenceau Avenue North, Newton, Singapore, Central, 229495, Singapore",1.3121232,103.83972339469418
460,/title/tt3104988/,Crazy Rich Asians,"Carcosa Seri Negara, Wilayah Persekutuan Kuala Lumpur, Malaysia",(Tyersall Park estate aka Young family ancestrial estate & Amah's home.)                        ,,,
461,/title/tt3104988/,Crazy Rich Asians,"Marina Bay Sands Hotel, 10 Bayfront Ave, Singapore",(Finale rooftop infinity pool engagement party & skyline exteriors)                        ,"Marina Bay Sands, 10, Bayfront Avenue, Bayfront, Downtown Core, Singapore, Central, 018956, Singapore",1.2836965,103.8607226
462,/title/tt3104988/,Crazy Rich Asians,"The Four Seasons Langkawi Island, Jalan Tanjung Rhu, Kedah, Malaysia",(Amanda & Rachel resort scenes)                        ,,,
463,/title/tt3104988/,Crazy Rich Asians,"Sentosa Island, Singapore","(flyover shots, location of Colin's house)                        ","Sentosa, Southwest, Singapore",1.24894585,103.83430564159272
464,/title/tt3104988/,Crazy Rich Asians,"Cheong Fatt Tze Mansion, Leith Street, George Town, Pulau Penang, Malaysia",(Rachel & Eleanor's mahjong showdown)                        ,"Cheong Fatt Tze Mansion, 14, Lebuh Leith, Bandaraya George Town, Pulau Pinang, 10200, Malaysia",5.421560749999999,100.33480057689914
465,/title/tt3104988/,Crazy Rich Asians,"Subang Jaya, Petaling District, Selangor, Malaysia",(Airport hangar reception for Ariminta's bachelorette party)                        ,,,
466,/title/tt6911608/,Mamma Mia! Here We Go Again,"Vis, Croatia",,"Vis, Grad Vis, Splitsko-dalmatinska županija, Hrvatska",43.0434206,16.165472532604653
467,/title/tt6911608/,Mamma Mia! Here We Go Again,"Jastozera Restaurant, Komiza, Vis Island, Croatia",(Taverna)                        ,,,
468,/title/tt6911608/,Mamma Mia! Here We Go Again,"Barjaci, Vis Island, Croatia",(Jetty)                        ,,,
469,/title/tt6911608/,Mamma Mia! Here We Go Again,"Godstow Nunnery, Oxfordshire, England, UK",(Riverbank)                        ,"Godstow Nunnery, Godstow Road, Wytham, Oxford, Oxfordshire, South East, England, OX2 8PN, United Kingdom",51.7782669,-1.3001628
470,/title/tt6911608/,Mamma Mia! Here We Go Again,"Shepperton Studios, Shepperton, Surrey, England, UK",(studio)                        ,,,
471,/title/tt6911608/,Mamma Mia! Here We Go Again,UK,,United Kingdom,54.7023545,-3.2765753
472,/title/tt6911608/,Mamma Mia! Here We Go Again,"Hampton Court Palace, East Molesey, Surrey, England, UK",(Tuilerie Gardens)                        ,,,
473,/title/tt6911608/,Mamma Mia! Here We Go Again,"Royal College of Physicians, Regent's Park, London, England, UK",(Awards Dinner)                        ,,,
474,/title/tt9214832/,Emma.,"Chavenage House, Tetbury, GL8 8XP, UK",(location)                        ,"Chavenage House, Chavenage Lane, Beverston, Cotswold, Gloucestershire, South West England, England, GL8 8XP, United Kingdom",51.65541595,-2.1877236736426857
475,/title/tt9214832/,Emma.,"Wilton House, Wilton, Wiltshire, England, UK","(Donwell Abbey, Mr. Knightley's estate)                        ","Wilton House, Palladian Bridge, Wilton, Wiltshire, South West England, England, SP2 0BZ, United Kingdom",51.07803345,-1.859626978896501
476,/title/tt9214832/,Emma.,"Lower Slaughter, Cheltenham, England, UK",(Hartfield village)                        ,,,
477,/title/tt9214832/,Emma.,"All Saints Church, St. Paul's Walden, Hitchins, England, UK",(Hartfield Church)                        ,,,
478,/title/tt9214832/,Emma.,"Pinewood Studios, Iver Heath, Buckinghamshire, England, UK",(studio)                        ,"Pinewood Studios, Pinewood Green, Iver, Iver Heath, Buckinghamshire, South East, England, SL0 0QJ, United Kingdom",51.54831515,-0.5346765566753087
479,/title/tt0080453/,The Blue Lagoon,"Turtle Island, Fiji",,"Vatoa, Eastern, Fiji",-19.8173631,-178.24282599306488
480,/title/tt0080453/,The Blue Lagoon,"Comino Island, Malta",(blue lagoon scenes)                        ,"Kemmuna, Għajnsielem, Għawdex, Malta",36.01188515,14.336927675414367
481,/title/tt0080453/,The Blue Lagoon,Fiji,,Viti,-18.1239696,179.0122737
482,/title/tt1517451/,A Star Is Born,"Glastonbury Festival, Pilton, Somerset, England, UK",(festival scenes)                        ,,,
483,/title/tt1517451/,A Star Is Born,"Riverside County, California, USA",(location)                        ,"Riverside County, California, United States of America",33.7219991,-116.0372472
484,/title/tt1517451/,A Star Is Born,"Los Angeles, California, USA",,"Los Angeles, Los Angeles County, California, United States of America",34.0536909,-118.2427666
485,/title/tt1517451/,A Star Is Born,"Shrine Auditorium - 665 W. Jefferson Boulevard, Los Angeles, California, USA",(Grammys)                        ,"Shrine Auditorium, West Jefferson Boulevard, University Park, Los Angeles, Los Angeles County, California, 90089-0871, United States of America",34.0233199,-118.2815445
486,/title/tt1517451/,A Star Is Born,"Sunset Boulevard, Hollywood, California, USA",(Lady Gaga Face on Billboard)                        ,"Sunset Boulevard, East Hollywood, Los Angeles, Los Angeles County, California, 90027-5517, United States of America",34.0981514,-118.2912164
487,/title/tt1517451/,A Star Is Born,"Palm Springs Convention Center, Palm Springs, California, USA",(Pharmaceutical Convention)                        ,"Palm Springs Convention Center, East Amado Road, Old Las Palmas, Palm Springs, Riverside County, California, 92292, United States of America",33.82585005,-116.53796823301772
488,/title/tt1517451/,A Star Is Born,"Chateau Marmont - 8221 Sunset Blvd., Hollywood, Los Angeles, California, USA",(The hotel where they see Ally's face on billboard)                        ,"Chateau Marmont, 8221, West Sunset Boulevard, Sunset Strip, Hollywood Hills West, West Hollywood, Los Angeles County, California, 90046, United States of America",34.098249749999994,-118.36840487975618
489,/title/tt1517451/,A Star Is Born,"Millennium Biltmore Hotel - 506 S Grand Avenue, Downtown, Los Angeles, California, USA",(Service ramp in opening titles)                        ,"Millennium Biltmore Hotel, 506, South Grand Avenue, Financial District, Downtown, Los Angeles, Los Angeles County, California, 90071, United States of America",34.049275,-118.25352705575739
490,/title/tt1707386/,Les Misérables,"Old Royal Naval College, Greenwich, London, England, UK",,"Old Royal Naval College, Park Row, East Greenwich, Royal Borough of Greenwich, London, Greater London, England, SE10 9NL, United Kingdom",51.4829661,-0.006257671681354558
491,/title/tt1707386/,Les Misérables,"Pultney Bridge and Weir, Bath, Somerset, UK",,,,
492,/title/tt1707386/,Les Misérables,"Winchester Cathedral, Winchester, Hampshire, England, UK",,"Winchester Cathedral, Cathedral Close, Hyde, Winchester, Hampshire, South East, England, SO23 9LS, United Kingdom",51.0607248,-1.3132624608152665
493,/title/tt1707386/,Les Misérables,"Ashridge Park, Little Gaddesden, Hertfordshire, England, UK",(winter countryside outside Paris)                        ,"Ashridge, Dacorum, Hertfordshire, East of England, England, HP4 1LU, United Kingdom",51.8062413,-0.5806941
494,/title/tt1707386/,Les Misérables,"Pinewood Studios, Iver Heath, Buckinghamshire, England, UK",,"Pinewood Studios, Pinewood Green, Iver, Iver Heath, Buckinghamshire, South East, England, SL0 0QJ, United Kingdom",51.54831515,-0.5346765566753087
495,/title/tt1707386/,Les Misérables,"Winchester, Hampshire, England, UK",,"Winchester, Hampshire, South East, England, United Kingdom",51.0612766,-1.3131692
496,/title/tt1707386/,Les Misérables,France,,France,46.603354,1.8883335
497,/title/tt1707386/,Les Misérables,"Frithsden Beeches, Hertfordshire, England, UK",(woodlands)                        ,"Frithsden Beeches, Frithsden Copse, Nettleden with Potten End, Dacorum, Hertfordshire, East of England, England, HP4 2RQ, United Kingdom",51.7812839,-0.5525768758269511
498,/title/tt11388822/,Romance on the Menu,"Shorncliffe, Queensland, Australia",(main location)                        ,"Shorncliffe, Brisbane City, Queensland, Australia",-27.3260995,153.08185
499,/title/tt11388822/,Romance on the Menu,"Woolloongabba, Queensland, Australia",(Restaurant)                        ,"Woolloongabba, Brisbane City, Queensland, 4102, Australia",-27.4853896,153.0364488
500,/title/tt0183790/,A Knight's Tale,"Barrandov Studios, Prague, Czech Republic",(studio)                        ,,,
501,/title/tt0120791/,Practical Magic,"Whidbey Island, Washington, USA",,"Whidbey Island, Island County, Washington, United States of America",48.15811705,-122.59766298496532
502,/title/tt0120791/,Practical Magic,"San Juan Park Rd, Friday Harbor, Washington, USA",(The Owens house)                        ,,,
503,/title/tt0120791/,Practical Magic,"Friday Harbor, Washington, USA",,"Friday Harbor, San Juan County, Washington, 98250, United States of America",48.5342662,-123.0171242
504,/title/tt0120791/,Practical Magic,"Front St NW, Coupeville, Washington, USA","(Sally first sees Michael, truck accident)                        ",,,
505,/title/tt0120791/,Practical Magic,"13 Front St NW, Coupeville, Washington, USA",(Officer Hallet's accommodation)                        ,,,
506,/title/tt0120791/,Practical Magic,USA,,United States,39.7837304,-100.4458825
507,/title/tt9077530/,Virgin River,"Vancouver, British Columbia, Canada",,"Vancouver, Metro Vancouver Regional District, British Columbia, Canada",49.2608724,-123.1139529
508,/title/tt3288518/,Younger,"New York City, New York, USA",,"New York, United States of America",40.7127281,-74.0060152
509,/title/tt0113041/,Father of the Bride Part II,"West Dayton Street & South Delacy Street, Pasadena, California, USA",(gang encounter scene)                        ,,,
510,/title/tt0113041/,Father of the Bride Part II,"Whittier, California, USA",,"Whittier, Los Angeles County, California, United States of America",33.9708782,-118.0308396
511,/title/tt0113041/,Father of the Bride Part II,"Altadena, California, USA",,"Altadena, Los Angeles County, California, 91001, United States of America",34.1863161,-118.1352329
512,/title/tt0113041/,Father of the Bride Part II,"CBS Studio Center - 4024 Radford Avenue, Studio City, Los Angeles, California, USA",(studio)                        ,,,
513,/title/tt3636060/,Poldark,"Poldark Mine, Trenear, Helston, Cornwall, UK",(underground mining scenes)                        ,,,
514,/title/tt3636060/,Poldark,"Wheal Owles Mine, Penwith, St Just, Cornwall, England, UK",(Wheal Leisure mine)                        ,,,
515,/title/tt3636060/,Poldark,"St Fagans National History Museum, St Fagans, South Glamorgan, Wales, UK",(interiors)                        ,,,
516,/title/tt3636060/,Poldark,"Gunwalloe Church Cove, nr Helston, Cornwall, England, UK",,,,
517,/title/tt3636060/,Poldark,"Lizard Point, Landewednack, nr Helston, Cornwall, England, UK",(shipwreck)                        ,,,
518,/title/tt3636060/,Poldark,"Town Hall, Corsham, Wiltshire, England, UK",,"Corsham, Wiltshire, South West England, England, SN13, United Kingdom",51.4303211,-2.1869766
519,/title/tt3636060/,Poldark,"Levant Mine, Trewellard, St Just, Cornwall, England, UK",,"Levant Mine and Beam Engine, Levant Road, St. Just, Boscaswell, Cornwall, South West England, England, TR19 7SX, United Kingdom",50.1520179,-5.6853918
520,/title/tt3636060/,Poldark,"Chavenage Chapel, Tetbury, Gloucestershire, England, UK",(Sawle church)                        ,"Chavenage, Cotswold, Gloucestershire, South West England, England, GL8 8XP, United Kingdom",51.6540809,-2.1832619
521,/title/tt3636060/,Poldark,"Prior Park, Bath, Somerset, England, UK",,"Prior Park, Ralph Allen Drive, Combe Down, Bath, Bath and North East Somerset, South West England, England, BA2 5AH, United Kingdom",51.3666175,-2.3445083
522,/title/tt3636060/,Poldark,"Porthcothan, Cornwall, England, UK",(Nampara cove)                        ,"Porthcothan, Treyarnon, Cornwall, South West England, England, PL28 8LW, United Kingdom",50.508608,-5.0223532
523,/title/tt3636060/,Poldark,"Constantine Bay, near Padstow, Cornwall, England, UK",,,,
524,/title/tt3636060/,Poldark,"Bristol, England, UK",(studio)                        ,"Bristol, City of Bristol, South West England, England, United Kingdom",51.4538022,-2.5972985
525,/title/tt1661199/,Cinderella,"Old Royal Naval College, Greenwich, London, England, UK",(palace interior)                        ,"Old Royal Naval College, Park Row, East Greenwich, Royal Borough of Greenwich, London, Greater London, England, SE10 9NL, United Kingdom",51.4829661,-0.006257671681354558
526,/title/tt1661199/,Cinderella,"Black Park, Iver Heath, Buckinghamshire, England, UK",(forest scenes)                        ,"Black Park, Wexham, Iver Heath, Buckinghamshire, South East, England, United Kingdom",51.542492100000004,-0.5441123704462851
527,/title/tt1661199/,Cinderella,"Pinewood Studios, Iver Heath, Buckinghamshire, England, UK",(studio)                        ,"Pinewood Studios, Pinewood Green, Iver, Iver Heath, Buckinghamshire, South East, England, SL0 0QJ, United Kingdom",51.54831515,-0.5346765566753087
528,/title/tt1661199/,Cinderella,"E Stage, Pinewood Studios, Iver Heath, Buckinghamshire, England, UK",,,,
529,/title/tt1661199/,Cinderella,"M Stage, Pinewood Studios, Iver Heath, Buckinghamshire, England, UK",,,,
530,/title/tt1661199/,Cinderella,"Backlot, Pinewood Studios, Iver Heath, Buckinghamshire, England, UK",(castle exteriors)                        ,,,
531,/title/tt0332280/,The Notebook,"Boone Hall Plantation - 1235 Long Point Road, Mount Pleasant, South Carolina, USA",(the Hamilton's beach house)                        ,"Boone Hall Plantation, 1235, Long Point Road, Palmetto Fort, Mount Pleasant, Charleston County, South Carolina, 29466, United States of America",32.85415555,-79.81710750471724
532,/title/tt0332280/,The Notebook,"Edisto Island, South Carolina, USA",,"Edisto Island, Charleston County, South Carolina, 29438, United States of America",32.5593516,-80.2950995
533,/title/tt0332280/,The Notebook,"The Battery, Charleston, South Carolina, USA",,"Battery Point, Charleston County, South Carolina, 29412, United States of America",32.7429553,-79.9489786
534,/title/tt0332280/,The Notebook,"Mount Pleasant, South Carolina, USA",(Seabrook village scenes)                        ,"Mount Pleasant, Charleston County, South Carolina, United States of America",32.7940651,-79.8625851
535,/title/tt0332280/,The Notebook,"Los Angeles, California, USA",(beach scenes)                        ,"Los Angeles, Los Angeles County, California, United States of America",34.0536909,-118.2427666
536,Code,Show Name,Location,Scene,"Location, Tucker County, West Virginia, United States of America",39.2138905,-79.6371124
537,/title/tt2177461/,A Discovery of Witches,"Venice, Veneto, Italy",,"Venezia, Veneto, Italia",45.4371908,12.3345898
538,/title/tt2177461/,A Discovery of Witches,"Corn Street, Bristol, UK",,"Corn Street, Old City, City Centre, Bristol, City of Bristol, South West England, England, BS1 1HT, United Kingdom",51.454111,-2.5951212
539,/title/tt2177461/,A Discovery of Witches,"Cardiff, Wales, UK",,"Cardiff, Cymru / Wales, CF, United Kingdom",51.4816546,-3.1791934
540,/title/tt2177461/,A Discovery of Witches,"Bodleian Library, Broad Street, Oxford, Oxfordshire, England, UK",,"Weston Library, Broad Street, St Ebbes, City Centre, Oxford, Oxfordshire, South East, England, OX1 3SP, United Kingdom",51.7550536,-1.2551059831608038
