,Code,Show Name,Location,Scene,geocodedLocation,latitude,longitude
0,/title/tt0913968/,,"Beijing, China",,"北京市, 通州区, 北京市, China 中国",39.9020668,116.718583
1,/title/tt0913968/,,China,,中国,35.000074,104.999927
2,/title/tt0066955/,,Namibia,"(desert scenes, namely dunes)",Namibia,-23.2335499,17.3231107
3,/title/tt0297174/,,"Madrid, Spain",,"Madrid, Área metropolitana de Madrid y Corredor del Henares, Comunidad de Madrid, 28001, España",40.4167047,-3.7035825
4,/title/tt0086005/,,"Atlin, British Columbia, Canada",,"Atlin, Stikine Region, British Columbia, V0W 1A0, Canada",59.5744934,-133.7043181
5,/title/tt0086005/,,"British Columbia, Canada",,"British Columbia, Canada",55.001251,-125.002441
6,/title/tt0070030/,,"Buxton, Oregon, USA",(Timber Trestle),"Buxton, Washington County, Oregon, 97125, United States of America",45.6887697,-123.1909341
7,/title/tt0081467/,,"Complesso Natatorio del Foro Italico, Piazza Lauro de Bosis, Rome, Lazio, Italy",(Atlantis scenes staged),,,
8,/title/tt0081467/,,"Cala Luna, Nuoro, Sardinia, Italy",(beach scenes),"Cala Luna, Durgali/Dorgali, Nuoro, Sardegna, 08022, Italia",40.2248341,9.6263572
9,/title/tt0081467/,,"Maui, Hawaii, USA",(additional scenes),"Maui, Maui County, Hawaii, United States of America",20.802956799999997,-156.31068331602177
10,/title/tt0081467/,,"Elios Studios, Rome, Lazio, Italy",(interior filming),"Titanus Elios, 1361, Via Tiburtina, Municipio Roma IV, Zona VI Settecamini, Roma Capitale, Lazio, 00131, Italia",41.93940235,12.618602234352963
11,/title/tt3804114/,,Iceland,,Ísland,64.9841821,-18.1059013
12,/title/tt3804114/,,"Chicago Illinois, USA",(Dig site),"Chicago, Cook County, Illinois, United States of America",41.8755616,-87.6244212
13,/title/tt0082247/,,"Canmore, Alberta, Canada",,"Canmore, Town of Canmore, Alberta, T1W 2H4, Canada",51.0866897,-115.3481135
14,/title/tt0082247/,,"Drumheller, Alberta, Canada",,"Drumheller, Town of Drumheller, Alberta, T0J 0Y0, Canada",51.4662795,-112.7046642
15,/title/tt0082247/,,"Rocky Mountains, Alberta, Canada",,"Rocky Mountains, Kananaskis Improvement District, Alberta, Canada",50.4994522,-114.7336579
16,/title/tt0082247/,,"Banff, Banff National Park, Alberta, Canada",,"Banff, Alberta, T1L 1A6, Canada",51.1777781,-115.5682504
17,/title/tt0026174/,,"Corona, California, USA",,"Corona, Riverside County, California, United States of America",33.8752945,-117.5664449
18,/title/tt0026174/,,"Laguna Beach, California, USA",,"Laguna Beach, Orange County, California, United States of America",33.5426975,-117.785366
19,/title/tt0026174/,,"Stage 14, Warner Brothers Burbank Studios - 4000 Warner Boulevard, Burbank, California, USA",,,,
20,/title/tt0026174/,,"Stage 17, Warner Brothers Burbank Studios - 4000 Warner Boulevard, Burbank, California, USA",,,,
21,/title/tt0026174/,,"Stage 27A, Warner Brothers Burbank Studios - 4000 Warner Boulevard, Burbank, California, USA",,,,
22,/title/tt0026174/,,"Stage 8, Warner Brothers Burbank Studios - 4000 Warner Boulevard, Burbank, California, USA",,,,
23,/title/tt0068245/,,"Wichita, Kansas, USA",,"Wichita, Sedgwick County, Kansas, United States of America",37.6922361,-97.3375448
24,/title/tt0066630/,,"Vancouver, British Columbia, Canada",,"Vancouver, Metro Vancouver Regional District, British Columbia, Canada",49.2608724,-123.1139529
25,/title/tt0181199/,,"Erfoud, Morocco",,"Erfoud ⴰⵔⴼⵓⴷ أرفود, Pachalik de Arfoud, Province d'Errachidia إقليم الرشيدية, Drâa-Tafilalet ⴷⴰⵔⵄⴰ-ⵜⴰⴼⵉⵍⴰⵍⵜ درعة تافيلالت, 52200, Maroc",31.4324061,-4.2342572
26,/title/tt0181199/,,Yemen,,اليمن,16.3471243,47.8915271
27,/title/tt0181199/,,"Antalya, Turkey",,"Antalya, Muratpaşa, Antalya, Akdeniz Bölgesi, 07010, Türkiye",36.9009641,30.6954846
28,/title/tt0409011/,,"Ocean World, Puerto Plata, Dominican Republic",,"Ocean World, Navarrete - Pto. Plata, Barrio Los Rieles, Cofresí, Puerto Plata, República Dominicana",19.8262642,-70.7307574
29,/title/tt0409011/,,Dominican Republic,,República Dominicana,19.0974031,-70.3028026
30,/title/tt0340477/,,Greece,,Ελλάς,38.9953683,21.9877132
31,/title/tt0102178/,,"British Columbia, Canada",,"British Columbia, Canada",55.001251,-125.002441
32,/title/tt0102178/,,Canada,,Canada,61.0666922,-107.9917071
33,/title/tt0250371/,,"Auckland, New Zealand",(location),"Auckland, 1010, New Zealand",-36.852095,174.7631803
34,/title/tt0099327/,,"Plumas National Forest, California, USA",,"Plumas National Forest, Plumas County, California, United States of America",39.8975536,-120.40545824264498
35,/title/tt0095241/,,South Africa,,South Africa,-28.8166236,24.991639
36,/title/tt0060121/,,"Hurley, Berkshire, England, UK",(final scene),,,
37,/title/tt0060121/,,"London Zoo, Regent's Park, London, England, UK",,,,
38,/title/tt0060121/,,"Ascot, Berkshire, England, UK",,"Ascot, Windsor and Maidenhead, South East, England, SL5 7FW, United Kingdom",51.4101286,-0.6680194
39,/title/tt0060121/,,"Pinewood Studios, Iver Heath, Buckinghamshire, England, UK",,"Pinewood Studios, Pinewood Green, Iver, Iver Heath, Buckinghamshire, South East, England, SL0 0QJ, United Kingdom",51.54831515,-0.5346765566753087
40,/title/tt0060121/,,"Crumlin, Caerphilly, Wales, UK",,"Crumlin, Caerphilly, Cymru / Wales, United Kingdom",51.6781517,-3.1404356
41,/title/tt0060121/,,"St. John's College, St Giles', Oxford, Oxfordshire, England, UK",(David's college),"St John's College, St Giles', St Thomas', City Centre, Oxford, Oxfordshire, South East, England, OX1 3JP, United Kingdom",51.7572533,-1.2577727066901434
42,/title/tt3741632/,,"McDonough, Georgia, USA",(McDonough Square),"McDonough, Henry County, Georgia, United States of America",33.4473361,-84.1468616
43,/title/tt3741632/,,"Spokane, Washington, USA",(location),"Spokane, Spokane County, Washington, United States of America",47.6579425,-117.4212265
44,/title/tt3741632/,,"Stone Mountain Park, Georgia, USA",(Georgia),"Stone Mountain Park, DeKalb County, Georgia, 30087, United States of America",33.80696945,-84.14231933134678
45,/title/tt3741632/,,"Big Pine Key, Florida, USA",(Bahia Honda State Park),"Big Pine Key, Monroe County, Florida, 33043, United States of America",24.68926855,-81.36890042063636
46,/title/tt3741632/,,"Route 1, USA",,"Route 1, Oak Hill, Scarborough, Cumberland County, Maine, 04074, United States of America",43.589769,-70.33673
47,/title/tt3741632/,,"Atlanta, Georgia, USA",,"Atlanta, Georgia, United States of America",33.7490987,-84.3901849
48,/title/tt0997047/,,"New Haven, Connecticut, USA",,"New Haven, New Haven County, Connecticut, United States of America",41.3082138,-72.9250518
49,/title/tt0997047/,,"Bridgeport, Connecticut, USA",,"Bridgeport, Fairfield County, Connecticut, United States of America",41.1670412,-73.2048348
50,/title/tt0997047/,,"Watertown, Connecticut, USA",(Taft School),"Watertown, Litchfield County, Connecticut, United States of America",41.6062078,-73.1181658
51,/title/tt0997047/,,"Stamford, Connecticut, USA",,"Stamford, Fairfield County, Connecticut, United States of America",41.0534302,-73.5387341
52,/title/tt0040876/,,"Busch Gardens - S. Grove Avenue, Pasadena, California, USA",(duel between D'Artagnan and Jussac),,,
53,/title/tt0040876/,,"Backlot, Metro-Goldwyn-Mayer Studios - 10202 W. Washington Blvd., Culver City, California, USA",,,,
54,/title/tt0040876/,,"Monterey, California, USA",,"Monterey County, California, United States of America",36.2231079,-121.3877428
55,/title/tt0108539/,,"New York City, New York, USA",,"New York, United States of America",40.7127281,-74.0060152
56,/title/tt1034320/,,"Bossier City, Louisiana, USA",,"Bossier City, Bossier Parish, Louisiana, United States of America",32.5369356,-93.6952689
57,/title/tt1034320/,,"Shreveport, Louisiana, USA",,"Shreveport, Caddo Parish, Louisiana, United States of America",32.5221828,-93.7651944
58,/title/tt0069436/,,"Nogales, Arizona, USA",,"Nogales, Santa Cruz County, Arizona, 85621, United States of America",31.3402134,-110.9360818
59,/title/tt0069436/,,"Tucson, Arizona, USA",,"Tucson, Pima County, Arizona, United States of America",32.2228765,-110.9748477
60,/title/tt0069436/,,"Ruby, Arizona, USA",,"Ruby, Santa Cruz County, Arizona, United States of America",31.46121,-111.2366592
61,/title/tt0069436/,,"Huachuca Mountains, Arizona, USA",,,,
62,/title/tt0069436/,,"Harshaw, Arizona, USA",,"Harshaw, Santa Cruz County, Arizona, United States of America",31.4673182,-110.707029
63,/title/tt0069436/,,"Pajarito Mountains, Arizona, USA",,,,
64,/title/tt0069436/,,"Rio Rico, Arizona, USA",,"Rio Rico, Santa Cruz County, Arizona, 85648, United States of America",31.4714828,-110.9764769
65,/title/tt0069436/,,"Pantano, Arizona, USA",,"Pantano, Pima County, Arizona, United States of America",31.9995262,-110.5800789
66,/title/tt0069436/,,"Hereford, Arizona, USA",,"Hereford, Cochise County, Arizona, United States of America",31.4384325,-110.0978554
67,/title/tt0069436/,,"Duquesne, Arizona, USA",,"Duquesne, Santa Cruz County, Arizona, United States of America",31.3709328,-110.6853608
68,/title/tt0114108/,,"Sullivan Bluth Studios - Phoenix House, Conyngham Road, Dublin, Ireland",,,,
69,/title/tt6483422/,,"Olympia, Washington, USA",,"Olympia, Thurston County, Washington, United States of America",47.0451022,-122.8950075
70,/title/tt6483422/,,"Tacoma, Washington, USA",,"Tacoma, Pierce County, Washington, United States of America",47.2495798,-122.4398746
71,/title/tt6483422/,,"Federal Way, Washington, USA",(shed),"Federal Way, King County, Washington, United States of America",47.313494,-122.3393103
72,/title/tt0080889/,,"Mirabellplatz Garden, 5020 Salzburg, Austria",(Where Miles Kendig meets Mikhail Yaskov),"Mirabellplatz, Neustadt, Salzburg, 5020, Österreich",47.8051627,13.04302858105148
73,/title/tt0080889/,,"Salzburg, Salzburg, Austria",,"Salzburg, 5020, Österreich",47.7981346,13.0464806
74,/title/tt0080889/,,Bermuda,(location shooting),Bermuda,32.3018217,-64.7603583
75,/title/tt0080889/,,"East Sussex, England, UK",,"East Sussex, Dallington, Rother, East Sussex, South East, England, United Kingdom",50.9404266,0.3699977891068864
76,/title/tt0080889/,,"London, England, UK",,"London, Greater London, England, United Kingdom",51.5073219,-0.1276474
77,/title/tt0080889/,,"Washington Dulles International Airport - 45020 Aviation Drive, Sterling, Virginia, USA",(Miles arrives back in the USA at beginning of film),,,
78,/title/tt0080889/,,"Tybee Island, Georgia, USA","(small floatplane flies past lighthouse, painted in its previous pattern, depicting flight to Bermuda)","Tybee Island, Chatham County, Georgia, 31328, United States of America",31.9987321,-80.8469427
79,/title/tt0080889/,,"Calais, Pas-de-Calais, France",(Hoverlloyd ferry dock in France),"Calais, Pas-de-Calais, Hauts-de-France, France métropolitaine, 62100, France",50.9488,1.87468
80,/title/tt0080889/,,"Beachy Head, East Sussex, England, UK",(Miles' plane explodes and crashes near the lighthouse here),"Beachy Head, Beachy Head Road, Eastbourne, East Sussex, South East, England, BN20 7YA, United Kingdom",50.738185,0.2494669
81,/title/tt0063060/,,"Casper, Wyoming, USA",,"Casper, Natrona County, Wyoming, United States of America",42.866632,-106.313081
82,/title/tt0063060/,,"Jackson Airport, Jackson Hole, Wyoming, USA",,,,
83,/title/tt0063060/,,"Baytown, Texas, USA",(Goose Creek Oilfield),"Baytown, Harris County, Texas, United States of America",29.7355047,-94.9774274
84,/title/tt0063060/,,"Universal Studios - 100 Universal City Plaza, Universal City, California, USA",(studio),,,
85,/title/tt3859980/,,"Jabalpur, Madhya Pradesh, India",,"Jabalpur, Jabalpur Tahsil, Jabalpur, Madhya Pradesh, India",23.1608938,79.9497702
86,/title/tt0079336/,,"Cuernavaca, Morelos, Mexico",(most Tijada scenes),"Cuernavaca, Morelos, 62000, México",18.9218274,-99.2342282
87,/title/tt0079336/,,"Pasadena, California, USA",(Sheldon's house),"Pasadena, Los Angeles County, California, United States of America",34.1476452,-118.1444779
88,/title/tt0079336/,,"New York City, New York, USA",,"New York, United States of America",40.7127281,-74.0060152
89,/title/tt0079336/,,"Washington, District of Columbia, USA",,"Washington, District of Columbia, 20230, United States of America",38.8949924,-77.0365581
90,/title/tt2272350/,,"Bridgeport, Connecticut, USA",(opening scenes by the beach),"Bridgeport, Fairfield County, Connecticut, United States of America",41.1670412,-73.2048348
91,/title/tt2272350/,,"Connecticut, USA",,"Connecticut, United States of America",41.6500201,-72.7342163
92,/title/tt0062480/,,"Paris, France",,"Paris, Île-de-France, France métropolitaine, 75004, France",48.8566969,2.3514616
93,/title/tt0080846/,,"Black Park Lake, Black Park, Iver Heath, Buckinghamshire, England, UK",,,,
94,/title/tt0080846/,,"Pinewood Studios, Iver Heath, Buckinghamshire, England, UK",(studio),"Pinewood Studios, Pinewood Green, Iver, Iver Heath, Buckinghamshire, South East, England, SL0 0QJ, United Kingdom",51.54831515,-0.5346765566753087
95,/title/tt0027623/,,"Universal Studios - 100 Universal City Plaza, Universal City, California, USA",(studio),,,
96,/title/tt0058089/,,"Route des Crêtes; La Roche-Guyon, Val-d'Oise, France",(roadblock scene),"Route des Crêtes, Les Verdières, La Roche-Guyon, Pontoise, Val-d'Oise, Île-de-France, France métropolitaine, 95780, France",49.0784584,1.6159225
97,/title/tt0058089/,,"Vienne-en-Arthies, Val d'Oise, France",(car stunt scene),"Vienne-en-Arthies, Pontoise, Val-d'Oise, Île-de-France, France métropolitaine, 95510, France",49.066114,1.7335397
98,/title/tt0058089/,,"Place Vendôme, Paris 1, Paris, France",(opening scene at Jeweller's shop),"1, Place Vendôme, Quartier Vendôme, Paris, Île-de-France, France métropolitaine, 75001, France",48.8670343,2.3287322
99,/title/tt0058089/,,"Avenue de Versailles, Paris 16, Paris, France",,"Avenue de Versailles, Hameau Boileau, Paris 16e Arrondissement, Paris, Île-de-France, France métropolitaine, 75016, France",48.8435072,2.2697664
100,/title/tt0058089/,,"Galeries La Boétie, 52 avenue des Champs-Elysées, Paris 8, Paris, France",(presentation of the jewels on a rooftop-terrace),,,
101,/title/tt0058089/,,"Sur des toits, Paris, France",(scenes on the Paris rooftops following the jewel theft featuring Fantômas disguised as Fandor),,,
102,/title/tt0058089/,,"Quai de la Tournelle, Paris 5, Paris, France","(Juve and Bertrand, now released, in a taxi)","Quai de la Tournelle, Quartier Saint-Victor, Paris, Île-de-France, France métropolitaine, 75005, France",48.8494363,2.3566693
103,/title/tt0058089/,,"Place de la Nation, Paris 12, Paris, France",(Juve and Bertrand's car loses its front end),"Place de la Nation, Quartier Sainte-Marguerite, Paris, Île-de-France, France métropolitaine, 75011, France",48.8489157,2.3972989
104,/title/tt0058089/,,"Place du Trocadéro, Paris 16, Paris, France",,,,
105,/title/tt0058089/,,"Avenue du Président-Wilson, Paris 16, Paris, France","(Fantômas, disguised as Juve, drives fast to a holdup scene)","16, Avenue du Président Wilson, Quartier de Chaillot, Paris, Île-de-France, France métropolitaine, 75116, France",48.8650276,2.2954307
106,/title/tt0058089/,,"Massif de la Sainte-Baume, Var, France","(Fandor and Hélène's car, whose brakes have been sabotaged, races downhill)",,,
107,/title/tt0058089/,,"Calanque d'En-Vau, Cassis, Bouches-du-Rhône, France",(final scene),,,
108,/title/tt0058089/,,"Rue Christophe Colomb, Paris 8, Paris, France",(Commissaire Juve hanging from crane),"Rue Christophe Colomb, Quartier des Champs-Élysées, Paris, Île-de-France, France métropolitaine, 75008, France",48.8700252,2.3007627
109,/title/tt2996684/,,"Hartford, Connecticut, USA",(woods),"Hartford, Hartford County, Connecticut, United States of America",41.764582,-72.6908547
110,/title/tt0796307/,,"Los Angeles, California, USA",,"Los Angeles, Los Angeles County, California, United States of America",34.0536909,-118.2427666
111,/title/tt0033717/,,"Whitney Portal Road, Lone Pine Creek Canyon, Lone Pine, California, USA",(finale - chase),,,
112,/title/tt0033717/,,"Death Valley National Park, California, USA",,"Death Valley National Park, Inyo County, California, 92328, United States of America",36.4914385,-117.10229360771876
113,/title/tt0033717/,,"Alabama Hills, Lone Pine, California, USA",,"Alabama Hills, Lone Pine, Inyo County, California, 93545, United States of America",36.5677117,-118.0898097
114,/title/tt0033717/,,"Sierra Nevada Mountains, California, USA",(High Sierras - finale chase),"Rancho Sierra Vista, West Potrero Road, Thousand Oaks, Ventura County, California, 93012, United States of America",34.151052,-118.95678037704732
115,/title/tt0033717/,,"Venice Canals, Venice, Los Angeles, California, USA",,,,
116,/title/tt0033717/,,"Stage 25, Warner Brothers Burbank Studios - 4000 Warner Boulevard, Burbank, California, USA",,,,
117,/title/tt0033717/,,"Stage 28A, Warner Brothers Burbank Studios - 4000 Warner Boulevard, Burbank, California, USA",,,,
118,/title/tt1227183/,,"Boon Crag Farm, Coniston, Cumbria, England, UK",(Holly Howe farmhouse),"Boon Crag Farm, Coniston, South Lakeland, Cumbria, North West England, England, United Kingdom",54.3763067,-3.0547806323968687
119,/title/tt1227183/,,"Derwentwater, Lake District, Cumbria, England, UK",(Sailing scenes and children land the boat),,,
120,/title/tt1227183/,,"Coniston Water, Lake District, Cumbria, England, UK",(Sailing scenes),,,
121,/title/tt1227183/,,"Coniston Water, Lake District, Cumbria, England, UK",(Children in the boats on lake),,,
122,/title/tt1227183/,,"Oakworth Railway Station, Station Road, Oakworth, Keighley, Bradford, West Yorkshire, England, UK",(Station the family alight from),"Oakworth, Station Road, Keighley, Bradford, West Yorkshire, Yorkshire and the Humber, England, BD22 0DU, United Kingdom",53.8413069,-1.9419545
123,/title/tt1227183/,,"Stockeld Park, Wetherby, Leeds, West Yorkshire, England, UK",,,,
124,/title/tt1227183/,,"Stirlingshire, Scotland, UK",(sea plane scenes),"Stirlingshire, Scotland, FK7 8AF, United Kingdom",56.0701208,-3.9087351
125,/title/tt1227183/,,"Oakworth, Keighley, Bradford, West Yorkshire, England, UK",,"Oakworth, Station Road, Keighley, Bradford, West Yorkshire, Yorkshire and the Humber, England, BD22 0DU, United Kingdom",53.8413069,-1.9419545
126,/title/tt2599716/,,"Colts Neck, New Jersey, USA",,"Trump National Golf Club, Colts Neck, One, Westbury Place, Colts Neck Township, Monmouth, New Jersey, 07722, United States of America",40.278173100000004,-74.17801734190269
127,/title/tt8917542/,,"Azkarate, Navarra, Spain",,"Azkarate, Araitz, Navarra - Nafarroa, 31891, España",43.0348407,-2.0120927
128,/title/tt8917542/,,"Bergara, Gipuzkoa, Basque Country, Spain",,"Bergara, Debagoiena, Gipuzkoa, Euskadi, España",43.1175442,-2.4133452
129,/title/tt8917542/,,"Bilbao, Vizcaya, País Vasco, Spain",,"Bilbao, Bizkaia, Euskadi, España",43.2630051,-2.9349915
130,/title/tt8917542/,,"Hondarribia, Guipúzcoa, País Vasco, Spain",,"Hondarribia/Fontarrabie, Bidasoa Beherea / Bajo Bidasoa, Gipuzkoa, Euskadi, 20280, España",43.362053,-1.8238023734647253
131,/title/tt8917542/,,"Zumaia, Guipúzcoa, País Vasco, Spain",,"Zumaia, Urola-Kosta, Gipuzkoa, Euskadi, 20750, España",43.296653,-2.2571182
132,/title/tt8917542/,,"Errenteria, Guipúzcoa, País Vasco, Spain",,"Errenteria, Donostialdea, Gipuzkoa, Euskadi, 20100, España",43.3125271,-1.8986133
133,/title/tt8917542/,,"La Corniche, Marseille, Bouches-du-Rhône, France",,"Corniche du Président John Fitzgerald Kennedy, Le Roucas Blanc, 7e Arrondissement, Marseille, Bouches-du-Rhône, Provence-Alpes-Côte d'Azur, France métropolitaine, 13007, France",43.274906,5.360111
134,/title/tt8917542/,,"Zumárraga, Guipúzcoa, País Vasco, Spain",,"Zumarraga, Goierri, Gipuzkoa, Euskadi, 20700, España",43.0859968,-2.3140925
135,/title/tt8917542/,,"Erasun, Navarra, Spain",,"Eratsun, Navarra - Nafarroa, España",43.0832607,-1.796793
136,/title/tt8917542/,,"Getaria, Guipúzcoa, País Vasco, Spain",,"Getaria, Urola-Kosta, Gipuzkoa, Euskadi, 20808, España",43.3044559,-2.2037374
137,/title/tt8917542/,,"Sokoa, Hendaia, Nouvelle-Aquitaine, France",,"Sokoa, Rue de l'Industrie, Zone d'Activités Economiques des Joncaux, Hendaye, Bayonne, Pyrénées-Atlantiques, Nouvelle-Aquitaine, France métropolitaine, 64700, France",43.3467895,-1.7703327
138,/title/tt8917542/,,"Hernani, Guipúzcoa, País Vasco, Spain",,"Hernani, Donostialdea, Gipuzkoa, Euskadi, 20120, España",43.2661107,-1.9747419
139,/title/tt8917542/,,"Lesaka, Navarra, Spain",,"Lesaka, Navarra - Nafarroa, España",43.2471212,-1.7043191
140,/title/tt0072610/,,"Uinta Mountains, Utah, USA",,"Uinta Mountains, Duchesne County, Utah, United States of America",40.769620599999996,-110.3274977653983
141,/title/tt0072610/,,"British Columbia, Canada",,"British Columbia, Canada",55.001251,-125.002441
142,/title/tt0104922/,,"Glen Canyon, Utah, USA",,"Glen Canyon National Recreation Area, Garfield County, Utah, 86036, United States of America",37.6580958,-111.09320889669256
143,/title/tt0104922/,,"Los Angeles, California, USA",,"Los Angeles, Los Angeles County, California, United States of America",34.0536909,-118.2427666
144,/title/tt0118436/,,"Vasquez Rocks Natural Area Park - 10700 W. Escondido Canyon Rd., Agua Dulce, California, USA","(Command Center, exteriors)",,,
145,/title/tt0118436/,,"Simi Valley, California, USA",,"Simi Valley, Ventura County, California, United States of America",34.2694474,-118.781482
146,/title/tt0118436/,,"Van Nuys, Los Angeles, California, USA",,"Van Nuys, Los Angeles, Los Angeles County, California, 91401-2649, United States of America",34.1866193,-118.4486669
147,/title/tt0214874/,,"Montréal, Québec, Canada",,"Montréal, Agglomération de Montréal, Montréal (06), Québec, Canada",45.4972159,-73.6103642
148,/title/tt0312189/,,"Studio West, Glen Eden, Auckland, New Zealand",,,,
149,/title/tt6846128/,,"Harmony Park, Western Cape, South Africa",,"Harmony Park, Whispering Pines, Cape Town Ward 100, Strand, City of Cape Town, Western Cape, 7140, South Africa",-34.140508,18.8488356
150,/title/tt6846128/,,"Cape Town, South Africa",,"Cape Town, City of Cape Town, Western Cape, 8001, South Africa",-33.928992,18.417396
151,/title/tt0075503/,,"The Burbank Studios, Burbank, California, USA",,"The Burbank Studios (formerly NBC), Burbank, Los Angeles County, California, United States of America",34.1541578,-118.33330354367453
152,/title/tt2436046/,,"Fyn, Denmark",,"Fyn, Odense, Odense Kommune, Region Syddanmark, Danmark",55.324596850000006,10.347213055566993
153,/title/tt2436046/,,"Kratkrogen, Klampenborg, Zealand, Denmark",,,,
154,/title/tt10656230/,,"Jakarta, Indonesia",,"Daerah Khusus Ibukota Jakarta, Indonesia",-6.1753942,106.827183
155,/title/tt2822672/,,"Dallas, Texas, USA",(Reel FX Dallas),"Dallas, Dallas County, Texas, United States of America",32.7762719,-96.7968559
156,/title/tt0086232/,,"England, UK",,"England, United Kingdom",52.7954791,-0.5402402866174321
157,/title/tt0159193/,,"Osaka, Japan",,"大阪府, 日本 (Japan)",34.6198813,135.490357
158,/title/tt0106868/,,Namibia,,Namibia,-23.2335499,17.3231107
159,/title/tt0287871/,,"Santa Clarita, California, USA",,"Santa Clarita, Los Angeles County, California, United States of America",34.3916641,-118.542586
160,/title/tt0108395/,,"Van Nuys, California, USA",,"Van Nuys, Los Angeles, Los Angeles County, California, 91401-2649, United States of America",34.1866193,-118.4486669
161,/title/tt0108395/,,"New York City, New York, USA",,"New York, United States of America",40.7127281,-74.0060152
162,/title/tt0685628/,,"Burgh Castle, Breydon Water, Great Yarmouth, Norfolk, England, UK",,,,
163,/title/tt0685628/,,"Castle Street, Manchester, Greater Manchester, England, UK",,"Castle Street, Castlefield, City Centre, Manchester, Greater Manchester, North West England, England, M3 4LZ, United Kingdom",53.4741936,-2.2539871
164,/title/tt0685628/,,"Boadicea and Her Daughters, Victoria Embankment, Westminster, London, England, UK",,,,
165,/title/tt0685628/,,"Phoenix Wharf, Wapping High Street, St Katharine's & Wapping, London, England, UK",,,,
166,/title/tt0685628/,,"Tower of London, St Katharine's & Wapping, London, England, UK",,,,
167,/title/tt0685628/,,"Wapping Pier, Wapping, London, England, UK",,"Wapping Pier, Wapping High Street, St. George in the East, Wapping, London Borough of Tower Hamlets, London, Greater London, England, E1W 2NS, United Kingdom",51.50322235,-0.056450341233871354
168,/title/tt0685628/,,"Westminster Bridge, London, England, UK",,"Westminster Bridge, Westminster, City of Westminster, London, Greater London, England, SW1A 2JH, United Kingdom",51.5008995,-0.1227571
169,/title/tt0685628/,,"Howard Gardens, Triq tal-Muzew, Ir-Rabat, Malta",,,,
170,/title/tt0685628/,,"Triq Inguanez, Malta, Malta",,"Triq Inguanez, Mdina, L-Imdina, Tramuntana, RBT 1202, Malta",35.8859789,14.4016578
171,/title/tt0685628/,,"Liverpool, Merseyside, England, UK",,,,
172,/title/tt0110557/,,"Kirby's Pet Depot; 12112 Venice Blvd, Los Angeles, California, USA",(The Pet Store),,,
173,/title/tt0110557/,,"Roxbury Park; 401 S. Roxbury Drive, Beverly Hills, California, USA",(The park),,,
174,/title/tt0110557/,,"Sunset Boulevard and Interstate 405 Interchange, Los Angeles, California, USA",(scene where Katie's mom enters the freeway),,,
175,/title/tt0110557/,,"Santa Monica, California, USA",,"Santa Monica, Los Angeles County, California, United States of America",34.0250724,-118.4965129
176,/title/tt0084750/,,"Wentwood, Caldicot, Monmouthshire, Wales",(forest),"Wentwood View, Caldicot, Monmouthshire, Cymru / Wales, NP26 4, United Kingdom",51.5978423,-2.7534809
177,/title/tt0084750/,,"Caerphilly Castle, Caerphilly, Wales, UK",,"Caerphilly Castle, Cardiff Road, Denscombe, St Martins, Caerphilly, Cymru / Wales, CF83 1WD, United Kingdom",51.57608995,-3.220372981954223
178,/title/tt0084750/,,"Castell Coch, Tongwynlais, South Glamorgan, Wales, UK",,,,
179,/title/tt0084750/,,"Dewstow Gardens, Caldicot, Monmouthshire, Wales, UK",,"Dewstow Gardens, Caldicot, Monmouthshire, Cymru / Wales, NP26 4, United Kingdom",51.5917693,-2.7621415
180,/title/tt0084750/,,"Papal Palace, Avignon, Vaucluse, France",(King Arthur's Castle interiors),"Centre historique d’Avignon : Palais des papes, ensemble épiscopal et Pont d’Avignon, Quartier Centre, Saint-Jean, Avignon, Vaucluse, Provence-Alpes-Côte d'Azur, France métropolitaine, 84000, France",43.9519705,4.807377784233035
181,/title/tt0442674/,,"Hell's Kitchen, Manhattan, New York City, New York, USA",,"Hell's Kitchen, Manhattan Community Board 4, Manhattan, New York County, New York, United States of America",40.7644228,-73.9923918
182,/title/tt0442674/,,"Los Angeles, California, USA",(Woltz's mansion),"Los Angeles, Los Angeles County, California, United States of America",34.0536909,-118.2427666
183,/title/tt0442674/,,"New Jersey, USA",,"New Jersey, United States of America",40.0757384,-74.4041622
184,/title/tt0050095/,,"Bray Studios, Down Place, Oakley Green, Berkshire, England, UK",(studio) (studio: produced at),,,
185,/title/tt0092532/,,"Los Angeles, California, USA",,"Los Angeles, Los Angeles County, California, United States of America",34.0536909,-118.2427666
186,/title/tt0060182/,,"Meru National Park, Kenya",,"Meru National Park, Meru, East Kenya, Kenya",0.1173332,38.1638858
187,/title/tt0060182/,,"Naro Moru, Kenya",,"Naro Moru, Nyeri, Kenya",-0.1674419,37.0392307
188,/title/tt0060182/,,"Shepperton Studios, Shepperton, Surrey, England, UK",(studio),,,
189,/title/tt0060182/,,"Malindi, Kenya",,"Malindi, Kilifi, Coastal Kenya, 80200, Kenya",-3.2165987,40.1165933
190,/title/tt0091069/,,"Buchan Caves, Buchan, Victoria, Australia",,"Buchan Caves, Caves Road, Buchan, Shire of East Gippsland, Victoria, Australia",-37.4959187,148.1631179
191,/title/tt0091069/,,"The Grampians, Bellfield, Victoria, Australia",,"Bellfield, Shire of Northern Grampians, Victoria, Australia",-37.2264815,142.48432014600195
192,/title/tt3169770/,,"A Coruña, Galicia, Spain",(City),"A Coruña, Galicia / Galiza, España",43.3712091,-8.3958768
193,/title/tt0073113/,,"Marine Corps Air Station Tustin, Tustin, California, USA",,,,
194,/title/tt0073113/,,"El Toro Marine Base, Lake Forest, California, USA",,,,
195,/title/tt0073113/,,"Washington, District of Columbia, USA",(Washington Monument shot),"Washington, District of Columbia, 20230, United States of America",38.8949924,-77.0365581
196,/title/tt0073113/,,"Hollywood Burbank Airport - 2627 North Hollywood Way, Burbank, California, USA",(Frankfurt airfield interior. Source: Anne Bancroft: A Life by Douglass K. Daniel),,,
197,/title/tt0073113/,,"Stage 12, Universal Studios - 100 Universal City Plaza, Universal City, California, USA",,,,
198,/title/tt0498318/,,"Miami, Florida, USA",,"Miami, Miami-Dade County, Florida, United States of America",25.7742658,-80.1936589
199,/title/tt0075347/,,"Colusa, California, USA",(Shot on the Sacramento River during scenes that take place on the Mississippi River.),"Colusa County, California, United States of America",39.1465578,-122.2209563
200,/title/tt0075347/,,"Magic Kingdom Park, Walt Disney World Resort, Bay Lake, Orange County, Florida, USA",(Discovery Island is used during the film's climax.),,,
201,/title/tt0075347/,,"Florida Keys, Florida, USA",,"Florida Keys, Monroe County, Florida, United States of America",24.6670875,-81.5831421
202,/title/tt0049782/,,"Mount Aso, Kumamoto, Japan",,"阿蘇山, 阿蘇山公園道路, 南阿蘇村, 阿蘇郡, 熊本県, 日本 (Japan)",32.8848462,131.0856638
203,/title/tt2459156/,,"Skagen, Jylland, Denmark",,,,
204,/title/tt2459156/,,"Tivoli, Copenhagen, Denmark",,"Tivoli, H.C. Andersens Boulevard, Vesterbro, København, Københavns Kommune, Region Hovedstaden, 1553, Danmark",55.6733426,12.56904219598006
205,/title/tt2459156/,,"Berlin, Germany",,"Berlin, 10117, Deutschland",52.5170365,13.3888599
206,/title/tt2182384/,,"New York City, New York, USA",,"New York, United States of America",40.7127281,-74.0060152
207,/title/tt0118172/,,"Chiddingstone, Kent, England, UK",(The Welcome Inn),"Chiddingstone, Sevenoaks, Kent, South East, England, United Kingdom",51.1858536,0.1459325
208,/title/tt0118172/,,"Bluebell Railway, West Sussex, England, UK",,"Bluebell Railway, Garden Wood Road, East Grinstead, Mid Sussex, West Sussex, South East, England, RH19 1SL, United Kingdom",51.1227705,-0.0241434
209,/title/tt0118172/,,"Camel Estuary, Cornwall, England, UK",,,,
210,/title/tt1123373/,,China,,中国,35.000074,104.999927
211,/title/tt1123373/,,"Henan, China",,"河南省, China 中国",34.0000001,113.9999999
212,/title/tt0095867/,,"Las Vegas, Nevada, USA",,"Las Vegas, Clark County, Nevada, United States of America",36.1672559,-115.1485163
213,/title/tt0095867/,,"Caddo Lake, Texas, USA",,"Caddo, Wilson County, Texas, United States of America",29.2927401,-97.9030579
214,/title/tt0095867/,,"Kä`anapali, Maui, Hawaii, USA",,"Kāʻanapali, Maui County, Hawaii, 96761, United States of America",20.9250419,-156.6899009
215,/title/tt0095867/,,"Maui, Hawaii, USA",,"Maui, Maui County, Hawaii, United States of America",20.802956799999997,-156.31068331602177
216,/title/tt0095867/,,"O'ahu, Hawaii, USA",,"Oʻahu, Mililani, Honolulu County, Hawaii, United States of America",21.48349555,-158.03640389298
217,/title/tt0095867/,,"Shreveport, Louisiana, USA",,"Shreveport, Caddo Parish, Louisiana, United States of America",32.5221828,-93.7651944
218,/title/tt5610626/,,Romania,,România,45.9852129,24.6859225
219,/title/tt5610626/,,"Hunedoara, Romania",,"Hunedoara, România",45.7958547,22.944483784106403
220,/title/tt5956100/,,"Abu Dhabi, United Arab Emirates",,"أبوظبي, أبو ظبي, United Arab Emirates",24.4747961,54.3705762
221,/title/tt5956100/,,"Kaunertal Valley, Tyrol, Austria",(Dil Diyan Gallan Song),"Gemeinde Kaunertal, Bezirk Landeck, Tirol, 6524, Österreich",46.9470059,10.734868453783353
222,/title/tt0315064/,,"Metro-Goldwyn-Mayer Studios - 10202 W. Washington Blvd., Culver City, California, USA",,,,
223,/title/tt0101412/,,"Coal Mine Canyon, Tuba City, Arizona, USA",,,,
224,/title/tt0101412/,,"Phoenix, Arizona, USA",,"Phoenix, Maricopa County, Arizona, United States of America",33.4484367,-112.0741417
225,/title/tt0101412/,,"Glen Canyon, Utah, USA",,"Glen Canyon National Recreation Area, Garfield County, Utah, 86036, United States of America",37.6580958,-111.09320889669256
226,/title/tt0415160/,,Luxembourg,,Lëtzebuerg,49.8158683,6.1296751
227,/title/tt0069956/,,"Bangkok, Thailand",(environs),"กรุงเทพมหานคร, เขตพระนคร, กรุงเทพมหานคร, 10200, ประเทศไทย",13.7542529,100.493087
228,/title/tt0054679/,,"Custom House Docks, Dublin, County Dublin, Ireland",,"The Harbourmaster Pub, Mayor Street Lower, International Financial Services Centre, North Dock, North Dock C ED, Dublin 1, County Dublin, Leinster, D01 W0X8, Ireland",53.349991599999996,-6.24901269775512
229,/title/tt6710826/,,"Oklahoma, USA",,"Oklahoma, United States of America",34.9550817,-97.2684063
230,/title/tt6723522/,,"Arizona, USA",,"Arizona, United States of America",34.395342,-111.7632755
231,/title/tt6723522/,,"Sonoran Desert, Arizona, USA",,"Sonoran Desert, Bates Well Road, Pima County, Arizona, United States of America",32.2598642,-112.9262583
232,/title/tt8500086/,,"Madrid, Spain",(exterior scenes),"Madrid, Área metropolitana de Madrid y Corredor del Henares, Comunidad de Madrid, 28001, España",40.4167047,-3.7035825
233,/title/tt0088760/,,"Walt Disney Studios, 500 South Buena Vista Street, Burbank, California, USA",,,,
234,/title/tt0203425/,,"Los Angeles, California, USA",,"Los Angeles, Los Angeles County, California, United States of America",34.0536909,-118.2427666
235,/title/tt3532278/,,"South Tyrol, Italy",(location),"Bolzano - Bozen, Trentino-Alto Adige/Südtirol, 39010, Italia",46.65594215,11.229637264169462
236,/title/tt3532278/,,"Tirol, Austria",(location),"Tirol, Österreich",47.223193,11.5261028
237,/title/tt0337593/,,"Bucharest, Romania",,"Municipiul București, România",44.4361414,26.1027202
238,/title/tt0015175/,,"Studio Babelsberg, Potsdam, Brandenburg, Germany",(studio),"Studio Babelsberg, 15, Babelsberg, Potsdam, Brandenburg, 14482, Deutschland",52.38260355,13.113726021425222
239,/title/tt0062551/,,"Grim's Dyke House, Old Redding, Harrow Weald, Middlesex, England, UK","(episode ""Body Snatchers"" & ""The Final Countdown, The"")",,,
240,/title/tt0099387/,,Canada,,Canada,61.0666922,-107.9917071
241,/title/tt3147312/,,"Sonoran Desert, Baja California, Mexico",,,,
242,/title/tt3147312/,,"Puerto Penasco, Sonora, Mexico",,"Puerto Peñasco, Sonora, México",31.530171799999998,-113.38971892127962
243,/title/tt3147312/,,"Pinacate and Grand Desert of Altar, Sonora, Mexico",,,,
244,/title/tt1104806/,,"Minden, Ontario, Canada","(as The Township of Minden Hills, ON)","Minden, Haliburton County, Central Ontario, Ontario, K0M 2K0, Canada",44.9254436,-78.72493
245,/title/tt1104806/,,"Thunder Bay, Ontario, Canada","(as The City of Thunder Bay, ON)","Thunder Bay, Thunder Bay District, Northwestern Ontario, Ontario, Canada",48.406414,-89.259796
246,/title/tt1104806/,,"Ranchmen Motel, Medicine Hat, Alberta, Canada","(Scene at the Ranchmen Motel, sign seen)","Ranchmen Motel, 535, 16 Street Southwest, City of Medicine Hat, Alberta, T1A 5E7, Canada",50.023954599999996,-110.69947975272794
247,/title/tt1104806/,,"Banff, Banff National Park, Alberta, Canada","(as Banff National Park, AB)","Banff, Alberta, T1L 1A6, Canada",51.1777781,-115.5682504
248,/title/tt1104806/,,"Dinosaur Provincial Park, Alberta, Canada","(as Dinosaur Provincial Park, AB)","Dinosaur Provincial Park, Range Road 113, Special Area No. 2, Alberta, Canada",50.74711015,-111.46764424216288
249,/title/tt1104806/,,"Duncan, British Columbia, Canada","(as The City of Duncan, BC)","Duncan, Cowichan Valley Regional District, British Columbia, Canada",48.7786872,-123.7080446
250,/title/tt1104806/,,"Glenboro, Manitoba, Canada","(as The Village of Glenboro, MB)","Glenboro, Manitoba, Canada",49.5577313,-99.2877494
251,/title/tt1104806/,,"Gravenhurst, Ontario, Canada","(as The Town of Gravenhurst, ON)","Gravenhurst, District Municipality of Muskoka, Muskoka District, Central Ontario, Ontario, Canada",44.91741,-79.373131
252,/title/tt1104806/,,"Kenora, Ontario, Canada","(as The City of Kenora, ON)","Kenora, Kenora District, Northwestern Ontario, Ontario, Canada",49.766215,-94.4893528
253,/title/tt1104806/,,"Medicine Hat, Alberta, Canada","(as The City of Medicine Hat, AB)","City of Medicine Hat, Alberta, Canada",50.04303,-110.679016
254,/title/tt1104806/,,"Radium Hot Springs, British Columbia, Canada","(as The Village of Radium Hot Springs, BC)","Radium Hot Springs, Regional District of East Kootenay, British Columbia, V0A 1M0, Canada",50.6200728,-116.0760592
255,/title/tt1104806/,,"Saint Lupicin, Manitoba, Canada","(as Saint Lupicine, MB)","St. Lupicin, Manitoba, Canada",49.4584399,-98.4767038
256,/title/tt1104806/,,"Sudbury, Ontario, Canada","(as The City of Greater Sudbury, ON)","Sudbury, Sudbury District, Northeastern Ontario, Ontario, P3C 1S9, Canada",46.49272,-80.991211
257,/title/tt1104806/,,"Toronto, Ontario, Canada","(as The City of Toronto, ON)","Toronto, Golden Horseshoe, Ontario, Canada",43.6534817,-79.3839347
258,/title/tt1104806/,,"Upsala, Ontario, Canada","(as The Town of Upsala, ON)","Upsala, Unorganized Thunder Bay District, Thunder Bay District, Northwestern Ontario, Ontario, Canada",49.0507382,-90.4706008
259,/title/tt1104806/,,"Virden, Manitoba, Canada","(as The Town of Virden, MB)","Virden, Manitoba, R0M 2C0, Canada",49.8485092,-100.9322654
260,/title/tt1104806/,,"Whitby, Ontario, Canada","(as The Town of Whitby, ON)","Whitby, Durham Region, Golden Horseshoe, Ontario, L1N 4K6, Canada",43.87982,-78.9421751
261,/title/tt10364808/,,"Burbank, California, USA",(studio) (Cartoon Network Studios),"Burbank, Los Angeles County, California, United States of America",34.1816482,-118.3258554
262,/title/tt10364808/,,"New York City, New York, USA",(operational) (Cartoon Network),"New York, United States of America",40.7127281,-74.0060152
263,/title/tt3513054/,,"California, USA",,"California, United States of America",36.7014631,-118.7559974
264,/title/tt4416518/,,"Mississippi, USA",,"Mississippi, United States of America",32.9715645,-89.7348497
265,/title/tt0026164/,,"Mammoth Lakes, California, USA",,"Mammoth Lakes, Mono County, California, United States of America",37.6432525,-118.9668509
266,/title/tt0026164/,,"Mount Baker Lodge - State Route 542, Mount Baker, Washington, USA",,,,
267,/title/tt0026164/,,"Tuolumne County, California, USA",,"Tuolumne County, California, United States of America",38.056944,-119.9919351
268,/title/tt0026164/,,"Big Bear Lake, Big Bear Valley, San Bernardino National Forest, California, USA",,,,
269,/title/tt0071206/,,"McKinney, Texas, USA",(house scenes),"McKinney, Collin County, Texas, United States of America",33.1976496,-96.6154471
270,/title/tt1150934/,,"Danube Delta, Romania",,"Danube Delta Biosphere Reserve, Tulcea, România",45.064384000000004,29.53113840209481
271,/title/tt1937113/,,"Paris, France",,"Paris, Île-de-France, France métropolitaine, 75004, France",48.8566969,2.3514616
272,/title/tt0158408/,,"Häna, Maui, Hawaii, USA",,"Hana, Maui County, Hawaii, 96713, United States of America",20.7573988,-155.9879846
273,/title/tt0095709/,,"Mount Ruapehu, Tongariro National Park, Central Plateau, New Zealand",,,,
274,/title/tt0095709/,,"Waitomo Caves, Waikato, New Zealand",,"Waitomo Caves, Waitomo District, Waikato, 3981, New Zealand",-38.2610936,175.1103222
275,/title/tt10468754/,,"Chicago Illinois, USA",,"Chicago, Cook County, Illinois, United States of America",41.8755616,-87.6244212
276,/title/tt2993848/,,"Changbai Mountains, China",,,,
277,/title/tt0290382/,,"Vancouver, British Columbia, Canada",,"Vancouver, Metro Vancouver Regional District, British Columbia, Canada",49.2608724,-123.1139529
278,/title/tt0072886/,,"Harold Lloyd's Greenacres Estate - 1740 Green Acres Drive, Beverly Hills, California, USA",,,,
279,/title/tt1037156/,,"Vancouver, British Columbia, Canada",,"Vancouver, Metro Vancouver Regional District, British Columbia, Canada",49.2608724,-123.1139529
280,/title/tt1037156/,,"Bridgend, Wales, UK",,"Bridgend, Swansea, Mid Glamorgan, Cymru / Wales, CF31 1BZ, United Kingdom",51.5049843,-3.5756674
281,/title/tt1037156/,,"Glenfinnan Viaduct, Fort William, Highland, Scotland, UK",,,,
282,/title/tt1037156/,,"Oakshaw street East, Paisley, Renfrewshire, Scotland, UK",,"Oakshaw Street East, Castlehead, Paisley, Renfrewshire, Scotland, PA1 2DD, United Kingdom",55.8463601,-4.4284088
283,/title/tt0167565/,,"Naples, Campania, Italy",,"Napoli, Campania, Italia",40.8359336,14.2487826
284,/title/tt0167565/,,"Senlis, Oise, France",,"Senlis, Oise, Hauts-de-France, France métropolitaine, 60300, France",49.2065404,2.5846582
285,/title/tt0167565/,,"Eglise Notre-Dame-de-l'Assomption, Place de l'Eglise, Le Plessis-Gassot, Val-d'Oise, France",(Edmond Dantes is arrested while about to marry Mercedes),,,
286,/title/tt0167565/,,"Chateau de Villette, Condecourt, Val-d'Oise, France",,"Château de Villette, Rue de la Maison Blanche, Le Bourg, Hameau de Villette, Condécourt, Pontoise, Val-d'Oise, Île-de-France, France métropolitaine, 95450, France",49.0317953,1.939420148416752
287,/title/tt0167565/,,"Paris, France",,"Paris, Île-de-France, France métropolitaine, 75004, France",48.8566969,2.3514616
288,/title/tt0047086/,,"Oakland Municipal Airport, California, USA",,,,
289,/title/tt0047086/,,"Samuel Goldwyn Studios - 7200 Santa Monica Boulevard, West Hollywood, California, USA",(studio),,,
290,/title/tt0047086/,,"Waikiki Beach, Hawaii, USA",(Wikipedia),"Waikiki Beach, Kalākaua Avenue, Waikiki, Honolulu, Honolulu County, Hawaii, 96815-2518, United States of America",21.273936,-157.82451481996466
291,/title/tt0272360/,,"Lacy Street Production Center - 2630 Lacy Street, Los Angeles, California, USA",,,,
292,/title/tt0272360/,,"Los Angeles, California, USA",,"Los Angeles, Los Angeles County, California, United States of America",34.0536909,-118.2427666
293,/title/tt0085994/,,Fiji,,Viti,-18.1239696,179.0122737
294,/title/tt0046414/,,"Piazza Duomo, Ravello, Salerno, Campania, Italy",,"Piazza Duomo, Ravello, San Martino, Ravello, Salerno, Campania, Italia",40.64926665,14.611363507736904
295,/title/tt0046414/,,"Ravello, Salerno, Campania, Italy",,"Ravello, Salerno, Campania, Italia",40.6496643,14.6122753
296,/title/tt0046414/,,"Villa Cimbrone, Ravello, Salerno, Campania, Italy",,"Villa Cimbrone, Via Santa Cosma, Castiglione, Ravello, Salerno, Campania, 84011, Italia",40.64333105,14.610438972575851
297,/title/tt0046414/,,"London, England, UK",,"London, Greater London, England, United Kingdom",51.5073219,-0.1276474
298,/title/tt0039391/,,"Monterey, California, USA",,"Monterey County, California, United States of America",36.2231079,-121.3877428
299,/title/tt0050356/,,"Long Beach, California, USA",(rescue sequence),"Long Beach, Los Angeles County, California, United States of America",33.7690164,-118.1916048
300,/title/tt0089994/,,"Cinespace Film Studios - 11030 Highway 27, Kleinburg, Ontario, Canada",(studio),,,
301,/title/tt0089994/,,"Schomberg, Ontario, Canada",,"Schomberg, York Region, Golden Horseshoe, Ontario, L0G 1T0, Canada",44.001387,-79.682541
302,/title/tt0089994/,,"Main Street S, Georgetown, Ontario, Canada",(Tournament of Mushrooms Parade),"Main Street South, Marywood Meadows, Halton Hills, Halton Region, Golden Horseshoe, Ontario, L7G 1P9, Canada",43.6413893,-79.915401
303,/title/tt0089994/,,"12872 Creditview Road, Caledon, Ontario, Canada",(Big Bird hides in the hayfield),"12872, Creditview Road, Brampton, Peel Region, Golden Horseshoe, Ontario, L7A 4R8, Canada",43.7241544,-79.8836683
304,/title/tt0091621/,,"Wilmington, Los Angeles, California, USA",(Incinerator Club),"Wilmington, Los Angeles, Los Angeles County, California, 90744-4522, United States of America",33.7800164,-118.2625095
305,/title/tt0091621/,,"Evergreen Cemetery - 204 North Evergreen Avenue, Los Angeles, California, USA",(cemetery),,,
306,/title/tt0126388/,,"Atlas Corporation Studios, Ouarzazate, Morocco",(studio),,,
307,/title/tt0126388/,,Morocco,,Maroc / ⵍⵎⵖⵔⵉⴱ / المغرب,31.1728205,-7.3362482
308,/title/tt0085356/,,"Capo Testa, Santa Teresa di Gallura, Sardinia, Italy",(Battle with Web People),"Capo Testa, Cala Francese, Lungòni/Santa Teresa Gallura, Sassari, Sardegna, 07028, Italia",41.2437272,9.1442188
309,/title/tt0032412/,,"Paramount Ranch - 2813 Cornell Road, Agoura, California, USA",(Hacienda set as South American village. Shots enhanced with matte paintings over natural ranch mountains.),,,
310,/title/tt0110305/,,"Sandstone Falls, New River Gorge National River, West Virginia, USA",,,,
311,/title/tt2400631/,,"San Juan, Puerto Rico",,"San Juan, Puerto Rico, 00901, United States of America",18.465299,-66.116666
312,/title/tt3598222/,,"Lost Creek Film Ranch, Santa Clarita, California, USA",(Ganzar Province),,,
313,/title/tt3598222/,,"Los Angeles County, California, USA",(some exteriors),"Los Angeles County, California, United States of America",34.3155072,-118.2096814
314,/title/tt3598222/,,"Sybil Brand Institute for Women - 4500 E. City Terrace Drive, Monterey Park, California, USA",(US military base and Ganzar Prison),,,
315,/title/tt0069747/,,"Saint-Denis, Seine-Saint-Denis, France","(scenes set in Rue des Rosiers, Paris 4)","Saint-Denis, Seine-Saint-Denis, Île-de-France, France métropolitaine, France",48.935773,2.3580232
316,/title/tt0069747/,,"South Street, New York City, New York, USA",(location seen during the opening credits),"South Street, Financial District, Manhattan Community Board 1, Manhattan, New York County, New York, 10038, United States of America",40.7032681,-74.0078705
317,/title/tt0069747/,,"Rue de Rivoli, Paris 1, Paris, France",(Pivert disguised as Rabbi Jacob and Slimane on a motorbike; abduction of Rabbi Jacob by Farès),"HEMA, 1, Rue de Rivoli, Quartier Saint-Gervais, Paris, Île-de-France, France métropolitaine, 75004, France",48.8554982,2.3594173
318,/title/tt0069747/,,"Ancienne distillerie, Frémainville, Val-d'Oise, France",(Lost in the night Rabbi Jacob appeals to God and the factory suddenly lights up),,,
319,/title/tt0069747/,,"Café de Flore - 172 boulevard Saint-Germain, Paris 6, Paris, France",,"Café de Flore, 172, Boulevard Saint-Germain, Quartier de Saint-Germain-des-Prés, Paris, Île-de-France, France métropolitaine, 75006, France",48.8541444,2.3326307
320,/title/tt0069747/,,"Manhattan Bridge, New York City, New York, USA",(location seen during the opening credits),"Manhattan Bridge, Cadman Plaza West, DUMBO, Brooklyn, Kings County, New York, 11201-1832, United States of America",40.7069799,-73.99046625873834
321,/title/tt0069747/,,"Rochers du Saussois, Merry-sur-Yonne, Yonne, France",(Rabbi Jacob tries to stop a vehicle on the road after he and the DS car have been taken out of the water),"Les rochers du Saussois, D 100, La Rippe, Merry-sur-Yonne, Avallon, Yonne, Bourgogne-Franche-Comté, France métropolitaine, 89660, France",47.5659548,3.64868
322,/title/tt0069747/,,"Dans les couloirs de la station de métro Palais Royal, Paris 1, Paris, France",(motorbike stunts),,,
323,/title/tt0069747/,,"Pont Alexandre III, Paris 7, Paris, France",(the black DS with a boat on its roof speeds to Is this interesting?Interesting?YesNo,"Pont Alexandre III, Quartier des Invalides, Paris, Île-de-France, France métropolitaine, 75007, France",48.8630102,2.3134682
324,/title/tt0069747/,,"Paris Studios Cinéma, Billancourt, Hauts-de-Seine, France",,,,
325,/title/tt0406728/,,"Vilnius, Vilnius County, Lithuania",,"Vilnius, Vilniaus miesto savivaldybė, Vilniaus apskritis, Lietuva",54.6870458,25.2829111
326,/title/tt1698008/,,"Marina del Rey harbor, Marina del Rey, California, USA",(Waterfront and docks),,,
327,/title/tt1334573/,,"Mediterranean Film Studios, Kalkara, Malta",,,,
328,/title/tt1334573/,,"Halifax, Nova Scotia, Canada",(interiors),"Halifax, Nova Scotia, Canada",44.648618,-63.5859487
329,/title/tt1334573/,,"Seacoast Film Production Studios, Shelburne, Nova Scotia, Canada",,,,
330,/title/tt3291632/,,"Alhambra, California, USA",(location),"Alhambra, Los Angeles County, California, United States of America",34.093042,-118.12706
331,/title/tt3291632/,,"Los Angeles, California, USA",,"Los Angeles, Los Angeles County, California, United States of America",34.0536909,-118.2427666
332,/title/tt0862748/,,"Tokyo, Japan",,"東京都, 日本 (Japan)",35.6828387,139.7594549
333,/title/tt0862748/,,"Hong Kong, China",,"香港島 Hong Kong Island, 香港 Hong Kong, China 中国",22.2793278,114.1628131
334,/title/tt0064806/,,"420 Filbert Street, San Francisco, California, USA",(Garfield Elementary School at beginning of film),"Garfield Elementary School, 420, Filbert Street, Telegraph Hill, San Francisco, San Francisco City and County, California, 94133, United States of America",37.802077749999995,-122.40674410637803
335,/title/tt0210294/,,"Fort Steele, British Columbia, Canada",,"Fort Steele, Main Street, Fort Steele, Area C (Moyie/Bull River), Regional District of East Kootenay, British Columbia, V0B 1N0, Canada",49.617777849999996,-115.63150860779737
336,/title/tt4944596/,,"Torrelavega, Cantabria, Spain",,"Torrelavega, Besaya, Cantabria, 39300, España",43.3487303,-4.0515082
337,/title/tt4944596/,,"Puerta del Sol, Madrid, Spain","(Plenty of sights of the Place along the movie when the murderer is coming out of the subway, for example)","Puerta del Sol, Sol, Centro, Madrid, Área metropolitana de Madrid y Corredor del Henares, Comunidad de Madrid, 28001, España",40.416865400000006,-3.7043021694877964
338,/title/tt0091902/,,"Hyde Park, London, England, UK",(Catherine and son in sailing toy boat),"Hyde Park, South Carriage Drive, Knightsbridge, City of Westminster, London, Greater London, England, SW7 1NR, United Kingdom",51.5074889,-0.16223668308067218
339,/title/tt0091902/,,"Trafalgar Square, London, England, UK",(Catherine talking to a Reporter),"Trafalgar Square, St. James's, Covent Garden, City of Westminster, London, Greater London, England, WC2, United Kingdom",51.508037,-0.12804941070724718
340,/title/tt0056556/,,"Walt Disney's Golden Oak Ranch - 19802 Placerita Canyon Road, Newhall, California, USA",(love scene exterior locale),,,
341,/title/tt2433040/,,"Michigan, USA",,"Michigan, United States of America",43.6211955,-84.6824346
342,/title/tt2433040/,,"Hadley, Michigan, USA",,"Hadley, Hadley Township, Lapeer County, Michigan, 48440, United States of America",42.9544722,-83.403279
343,/title/tt2433040/,,"Metamora, Michigan, USA",,"Metamora, Metamora Township, Lapeer County, Michigan, United States of America",42.9414173,-83.2891092
344,/title/tt2433040/,,"Dearborn, Michigan, USA",,"Dearborn, Wayne County, Michigan, United States of America",42.3222599,-83.1763145
345,/title/tt0062591/,,"Universal Studios - 100 Universal City Plaza, Universal City, California, USA",,,,
346,/title/tt0084935/,,"A.F.M. Studios, Istanbul, Turkey",(interiors),,,
347,/title/tt5568740/,,"British Columbia, Canada",,"British Columbia, Canada",55.001251,-125.002441
348,/title/tt0075113/,,"Newhaven, East Sussex, England, UK",(marina),"Newhaven, East Sussex, South East, England, United Kingdom",50.7945315,0.0483875
349,/title/tt0075113/,,"Piccadilly Circus, Piccadilly, London, England, UK",,"Piccadilly Circus, St. James's, Fitzrovia, City of Westminster, London, Greater London, England, SW1Y 4QE, United Kingdom",51.5098192,-0.1345484
350,/title/tt4627104/,,"Chumash Indian Museum Commemorative Airforce, Southern California, USA",,,,
351,/title/tt0115493/,,"Blackcomb Glacier Provincial Park, British Columbia, Canada",,"Blackcomb Glacier Provincial Park, Green Line, Whistler Resort Municipality, Squamish-Lillooet Regional District, British Columbia, Canada",50.095797700000006,-122.87316943071183
352,/title/tt0115493/,,"Denali National Park, Alaska, USA",,"Denali National Park and Preserve, Alaska, United States of America",63.1831737,-151.14836316660427
353,/title/tt0115493/,,"Vancouver, British Columbia, Canada",,"Vancouver, Metro Vancouver Regional District, British Columbia, Canada",49.2608724,-123.1139529
354,/title/tt0099816/,,Norway,,"Norge, Namsos, Trøndelag, Norge",64.5731537,11.52803643954819
355,/title/tt0099816/,,UK,,United Kingdom,54.7023545,-3.2765753
356,/title/tt0178145/,,"Krivoklát, Czech Republic",,"Křivoklát, okres Rakovník, Středočeský kraj, Střední Čechy, 270 23, Česká republika",50.0407511,13.881053944967714
357,/title/tt0178145/,,"Landstejn, Czech Republic",,"Landštejn, 1513, Pomezí pod Landštejnem, Staré Město pod Landštejnem, okres Jindřichův Hradec, Jihočeský kraj, Jihozápad, 37882, Česká republika",49.0240181,15.2306112
358,/title/tt0178145/,,"Los Angeles, California, USA",,"Los Angeles, Los Angeles County, California, United States of America",34.0536909,-118.2427666
359,/title/tt0178145/,,"Prague, Czech Republic",,"Praha, okres Hlavní město Praha, Hlavní město Praha, Praha, Česká republika",50.0874654,14.4212535
360,/title/tt0059977/,,"Greenwich Studios - 12100 Ivan Tors Boulevard, Miami, Florida, USA",(studio) (as Ivan Tors Studios),,,
361,/title/tt9341628/,,"Los Angeles, California, USA",,"Los Angeles, Los Angeles County, California, United States of America",34.0536909,-118.2427666
362,/title/tt0310443/,,"Fót Studios, Budapest, Hungary",(studio),,,
363,/title/tt0310443/,,"Navajo Nation, Arizona, USA",,"Navajo Nation, Apache County, Arizona, United States of America",36.3089731,-109.32568796503685
364,/title/tt0310443/,,USA,,United States,39.7837304,-100.4458825
365,/title/tt1705125/,,"Baton Rouge, Louisiana, USA",,"Baton Rouge, East Baton Rouge Parish, Louisiana, United States of America",30.4459596,-91.18738
366,/title/tt1705125/,,"Fontainebleau State Park, Mandeville, Louisiana, USA",(location),,,
367,/title/tt1705125/,,"St. Gabriel, Louisiana, USA",(location),"St. Gabriel, Iberville Parish, Louisiana, United States of America",30.25154,-91.07423740067597
368,/title/tt1705125/,,"Celtic Media Centre, 10000 Celtic Dr., Baton Rouge, Louisiana, USA",,,,
369,/title/tt0088015/,,"Kungsklyftan, Fjällbacka, Västra Götalands län, Sweden",,"Kungsklyftan, Mörhult, Fjällbacka, Tanums kommun, Västra Götalands län, Götaland, 450 71, Sverige",58.595992,11.2815747
370,/title/tt0088015/,,"Tännforsen, Jämtlands län, Sweden",,"Tännforsen, Åre kommun, Jämtlands län, Norrland, Sverige",63.445264,12.7396312
371,/title/tt0088015/,,"Norsk film A/S, Bekkestua, Bærum, Akershus, Norway",(studio),,,
372,/title/tt11297308/,,"Spetses, Greece",(Spetses Sequence),"Σπέτσες, Δήμος Σπετσών, Περιφερειακή Ενότητα Νήσων, Περιφέρεια Αττικής, Αποκεντρωμένη Διοίκηση Αττικής, 18050, Ελλάδα",37.2586936,23.139779522170315
373,/title/tt0235608/,,"Acapulco, Guerrero, Mexico",,"Acapulco, Acapulco de Juárez, Guerrero, 39300, México",16.8680495,-99.8940182
374,/title/tt0048990/,,Malta,"(Mgarr, Gozo)",Malta,35.8885993,14.4476911
375,/title/tt0048990/,,"Portsmouth, Hampshire, England, UK","(on board the ""Argonaut"")","Portsmouth, South East, England, PO1 5QH, United Kingdom",50.8036831,-1.075614
376,/title/tt0048990/,,Malta,(out at sea),Malta,35.8885993,14.4476911
377,/title/tt0048990/,,"Pinewood Studios, Iver Heath, Buckinghamshire, England, UK",(studio),"Pinewood Studios, Pinewood Green, Iver, Iver Heath, Buckinghamshire, South East, England, SL0 0QJ, United Kingdom",51.54831515,-0.5346765566753087
378,/title/tt1637728/,,Ireland,,Éire / Ireland,52.865196,-7.9794599
379,/title/tt3707110/,,"San Francisco, California, USA",,"San Francisco, San Francisco City and County, California, United States of America",37.7790262,-122.4199061
380,/title/tt3707110/,,"Chicago, Illinois, USA",,"Chicago, Cook County, Illinois, United States of America",41.8755616,-87.6244212
381,/title/tt3707110/,,"Seoul, South Korea",,"서울, 대한민국",37.5666791,126.9782914
382,/title/tt0210234/,,"Tokyo, Japan",(Shogakukan Productions),"東京都, 日本 (Japan)",35.6828387,139.7594549
383,/title/tt1275861/,,"Devonport, Auckland, New Zealand",,"Devonport, Auckland, 0624, New Zealand",-36.8296627,174.7974355
384,/title/tt1275861/,,"Mount Eden, Auckland, New Zealand",,"Mount Eden, Albert-Eden, Auckland, 1024, New Zealand",-36.8836944,174.7586604
385,/title/tt1275861/,,"Rangitoto Island, Auckland Region, New Zealand",,,,
386,/title/tt0060474/,,"Montpellier-le-Vieux, La Roque-Sainte-Marguerite, Aveyron, France",(Augustin and Stanislas disguised as German soldiers),"Chaos de Montpellier-le-Vieux, Rouge, Le Maubert, La Roque-Sainte-Marguerite, Millau, Aveyron, Occitanie, France métropolitaine, 12100, France",44.1375523,3.2029458
387,/title/tt0060474/,,"Rue Daubenton and Rue Geoffrey Saint Hilaire, Paris 5, Paris, France",(Turkish Baths exteriors),,,
388,/title/tt0060474/,,"Château de Faulin, Lichères-sur-Yonne, Yonne, France",(British officers steal nuns' truck),"Château de Faulin, D 214, Lichères-sur-Yonne, Auxerre, Yonne, Bourgogne-Franche-Comté, France métropolitaine, 89480, France",47.517626500000006,3.5965167151515183
389,/title/tt0060474/,,"Alleuze, Cantal, France",(chase scene: sidecar motorcycle cut in two),"Alleuze, Saint-Flour, Cantal, Auvergne-Rhône-Alpes, France métropolitaine, 15100, France",44.954412950000005,3.090439960231658
390,/title/tt0060474/,,"Brenoux, Lozère, France",(Mende airfield),"Brenoux, Mende, Lozère, Occitanie, France métropolitaine, 48000, France",44.4836131,3.532929
391,/title/tt0060474/,,"Butte Montmartre, Paris 18, Paris, France",,"Paris 18e Arrondissement, Paris, Île-de-France, France métropolitaine, 75018, France",48.8900117,2.3464668
392,/title/tt0060474/,,"Gare de Lyon, Paris 12, Paris, France",,"Gare de Lyon, Boulevard Diderot, Quartier des Quinze-Vingts, Paris, Île-de-France, France métropolitaine, 75012, France",48.8458762,2.3737786
393,/title/tt0060474/,,"Meursault, Côte-d'Or, France",(German HQ in city hall),"Meursault, Beaune, Côte-d'Or, Bourgogne-Franche-Comté, France métropolitaine, 21190, France",46.9783803,4.7694038
394,/title/tt0060474/,,"Opéra National de Paris Palais Garnier, 8 rue Scribe, Paris 9, Paris, France",,,,
395,/title/tt0060474/,,"Pont Ternos, Pierre-Perthuis, Yonne, France",,,,
396,/title/tt0060474/,,"Vézelay, Yonne, France",(street scenes at night in Meursault: German patrol on Rue des Ecoles),"Vézelay, Avallon, Yonne, Bourgogne-Franche-Comté, France métropolitaine, 89450, France",47.4651584,3.7470627
397,/title/tt3170902/,,"Wadi Rum, Jordan",(Pilgrim's trail),"وادي رم, الراشدية, العقبة, Jordan / الأُرْدُن",29.48125245,35.4687082704589
398,/title/tt3170902/,,"Daba'a, Jordan",(Ottoman fortress),,,
399,/title/tt0060728/,,"Monte Carlo, Monaco",,"Monte-Carlo, Monaco",43.7402961,7.426559
400,/title/tt0451192/,,"South Beach, Miami Beach, Florida, USA",,"South Beach, 5th Street, South Beach, Miami Beach, Miami-Dade County, Florida, 33139, United States of America",25.7744291,-80.1332415
401,/title/tt0098321/,,"Rome, Italy",(studio),"Roma, Roma Capitale, Italia",41.8933203,12.4829321
402,/title/tt0046906/,,"Janss Conejo Ranch, Thousand Oaks, California, USA",,,,
403,/title/tt3858372/,,"Paris, France",(sun temple),"Paris, Île-de-France, France métropolitaine, 75004, France",48.8566969,2.3514616
404,/title/tt0959086/,,"Vancouver, British Columbia, Canada",,"Vancouver, Metro Vancouver Regional District, British Columbia, Canada",49.2608724,-123.1139529
405,/title/tt4224588/,,"Kingshill Farmhouse, Elmley Nature Reserve, Kent, England, UK",(Maggie Hope's house),,,
406,/title/tt4224588/,,"Chatham Historic Dockyard, Chatham, Kent, England, UK",(as Gravesend Docks),,,
407,/title/tt4224588/,,"Queen Mary University of London, England, UK",(Dean Rees House - Jekyll's house),"Queen Mary University of London, Mile End Road, Globe Town, Mile End, London Borough of Tower Hamlets, London, Greater London, England, E1 4NS, United Kingdom",51.5247272,-0.03931034663016243
408,/title/tt0112174/,,"Kraków, Malopolskie, Poland",,"Kraków, województwo małopolskie, Polska",50.0619474,19.9368564
409,/title/tt0112174/,,"Blue Mountains, New South Wales, Australia",,"Blue Mountains City Council, New South Wales, Australia",-33.63511425,150.43750366422518
410,/title/tt0016641/,,"Santa Catalina Island, Channel Islands, California, USA",,,,
411,/title/tt0016641/,,"Anzio, Rome, Lazio, Italy",,"Anzio, Lido di Marechiaro, Anzio, Roma Capitale, Lazio, Italia",41.46927995,12.61726754638023
412,/title/tt0016641/,,"Rome, Lazio, Italy",,"Roma Capitale, Lazio, Italia",41.85223935,12.631036615953583
413,/title/tt0488658/,,"Salt Lake City, Utah, USA",,"Salt Lake City, Salt Lake County, Utah, United States of America",40.7596198,-111.8867975
414,/title/tt0488658/,,"Sandy, Utah, USA",,"Sandy, Utah, United States of America",40.5664878,-111.838904
415,/title/tt0117287/,,"Salt Lake City, Utah, USA",,"Salt Lake City, Salt Lake County, Utah, United States of America",40.7596198,-111.8867975
416,/title/tt0044413/,,"Timberline, Oregon, USA",,"Timberline, 6021, Southeast Milwaukie Avenue, Westmoreland, Sellwood-Moreland, Portland, Multnomah County, Oregon, 97202, United States of America",45.47893785,-122.6496495432844
417,/title/tt0044413/,,"Sandy River, Oregon, USA",,"Sandy River, The Villages at Mount Hood, Clackamas County, Oregon, 97011, United States of America",45.376855,-122.0221161
418,/title/tt0044413/,,"Celilo Falls, Columbia River Gorge, Oregon, USA",,,,
419,/title/tt0044413/,,"Rooster Rock State Park, Columbia River Gorge, Oregon, USA",,,,
420,/title/tt0050904/,,"Bourke, New South Wales, Australia",(the picture was shot at),"Bourke, Bourke Shire Council, New South Wales, 2840, Australia",-30.0914494,145.9429902
421,/title/tt0050904/,,"Gawler, South Australia, Australia",,"Gawler, Town of Gawler, South Australia, 5118, Australia",-34.5973311,138.7448933
422,/title/tt0050904/,,"London, England, UK",,"London, Greater London, England, United Kingdom",51.5073219,-0.1276474
423,/title/tt0050904/,,"Pinewood Studios, Iver Heath, Buckinghamshire, England, UK","(studio) (studio: A British Film made at Pinewood Studios, London, England.)","Pinewood Studios, Pinewood Green, Iver, Iver Heath, Buckinghamshire, South East, England, SL0 0QJ, United Kingdom",51.54831515,-0.5346765566753087
424,/title/tt0050904/,,"Willochra Plain, South Australia, Australia",,"Willochra Road, Salisbury Plain, Adelaide, City of Salisbury, South Australia, 5109, Australia",-34.7648291,138.6615746
425,/title/tt0036326/,,"Rio de Janeiro, Rio de Janeiro, Brazil",,"Rio de Janeiro, Região Geográfica Imediata do Rio de Janeiro, Região Metropolitana do Rio de Janeiro, Região Geográfica Intermediária do Rio de Janeiro, Rio de Janeiro, Região Sudeste, Brasil",-22.9110137,-43.2093727
426,/title/tt0045679/,,"Palm Springs, California, USA",,"Palm Springs, Riverside County, California, United States of America",33.8246269,-116.540303
427,/title/tt0045679/,,"San Diego, California, USA",,"San Diego, San Diego County, California, United States of America",32.7174209,-117.1627714
428,/title/tt0193364/,,"Tel Aviv-Yafo, Israel",,"תל אביב-יפו, מחוז תל אביב, ישראל",32.0804808,34.7805274
429,/title/tt0044760/,,"Castel Leone, Lana, Trentino-Alto Adige, Italy","(Ivanhoe searching for Richard, 1st castle he passes by)","Leonburg - Castel Leone, Ackpfeif - Acquaviva, Lana, Burggrafenamt - Burgraviato, Bolzano - Bozen, Trentino-Alto Adige/Südtirol, 39011, Italia",46.5846929,11.163527205392288
430,/title/tt0044760/,,"Castel Tasso, Vipiteno, Trentino-Alto Adige, Italy","(Ivanhoe searching for Richard, 4th castle he passes by)",,,
431,/title/tt0094888/,,"Cartagena, Bolívar, Colombia",,"Cartagena de Indias, Dique, Colombia",10.4195841,-75.5271224
432,/title/tt0094888/,,"La Guajira, Colombia",,"La Guajira, Colombia",11.2780115,-72.6135766
433,/title/tt0094888/,,"Villa de Leiva, Boyacá, Colombia",,"Villa De Leiva, El Carmen, Yariguíes, Santander, Colombia",6.6937918,-73.73099
434,/title/tt0094888/,,"Elmina, Ghana",(at Elmina Castle aka Fort Elmina),"Elmina, Central Region, Ghana",5.085879,-1.350578
435,/title/tt0094888/,,"Dahomey, Benin",,Bénin,9.5293472,2.2584408
436,/title/tt0094888/,,"Tamale, Ghana",,"Tamale, Northern Region, P.O. BOX 232, Ghana",9.4051992,-0.8423986
437,/title/tt0094888/,,Colombia,,Colombia,2.8894434,-73.783892
438,/title/tt0094888/,,Ghana,,Ghana,8.0300284,-1.0800271
439,/title/tt0091003/,,Spain,,España,39.3262345,-4.8380649
440,/title/tt0080472/,,"Eagle, Idaho, USA",,"Eagle, Ada County, Idaho, 83616, United States of America",43.6954424,-116.3540138
441,/title/tt0080472/,,"Garden City, Idaho, USA",,"Garden City, Ada County, Idaho, 83614, United States of America",43.622111,-116.2381787
442,/title/tt0080472/,,"Boise, Idaho, USA",,"Boise, Ada County, Idaho, United States of America",43.6166163,-116.200886
443,/title/tt0080861/,,Panama,(Panama Canal),Panamá,8.559559,-81.1308434
444,/title/tt0080861/,,"Puerto Vallarta, Jalisco, Mexico",,"Puerto Vallarta, San Martín de Las Flores, Tlaquepaque, San Pedro Tlaquepaque, Jalisco, 45625, México",20.6151593,-103.2928715
445,/title/tt0080861/,,Mexico,,"Ciudad de México, 06060, México",19.4326296,-99.1331785
446,/title/tt0080861/,,"Walt Disney Studios, 500 South Buena Vista Street, Burbank, California, USA",,,,
447,/title/tt3918686/,,"Provo, Utah, USA",(location) (The Castle),"Provo, Utah County, Utah, United States of America",40.2338438,-111.6585337
448,/title/tt0080062/,,"Newcastle University, Newcastle-upon-Tyne, Tyne & Wear, England, UK",,"Newcastle University, B1318, Haymarket, Newcastle upon Tyne, Tyne and Wear, North East England, England, NE1 7RU, United Kingdom",54.980219950000006,-1.6146769748056902
449,/title/tt0056676/,,"Cambridge, Cambridgeshire, England, UK",,"Cambridge, Cambridgeshire, East of England, England, United Kingdom",52.2034823,0.1235817
450,/title/tt0056676/,,"Shepperton Studios, Shepperton, Surrey, England, UK",(studio),,,
451,/title/tt0026266/,,"England, UK",(David Walking to Canterbury),"England, United Kingdom",52.7954791,-0.5402402866174321
452,/title/tt1597522/,,"Wicklow Town, County Wicklow, Ireland",,"Wicklow, County Wicklow, Leinster, A67 PP78, Ireland",52.9802376,-6.0414184
453,/title/tt1597522/,,"Brittas Bay, County Wicklow, Ireland",(beach),"Brittas Bay, Arklow to Rathnew Motorway, Ballinacor East, Dunganstown South, The Municipal District of Arklow, County Wicklow, Leinster, A67 YR12, Ireland",52.889158,-6.0992964
454,/title/tt1597522/,,"County Wicklow, Ireland",(various exterior scenes),"County Wicklow, Leinster, Ireland",52.95814675,-6.381970708677661
455,/title/tt1597522/,,"England, UK",,"England, United Kingdom",52.7954791,-0.5402402866174321
456,/title/tt1597522/,,Ireland,,Éire / Ireland,52.865196,-7.9794599
457,/title/tt1364465/,,"Montsalvat, Eltham, Victoria, Australia",,"Montsalvat, Hillcrest Avenue, Eltham, Shire of Nillumbik, Victoria, 3095, Australia",-37.7279451,145.15254512375571
458,/title/tt0067055/,,"Big Tujunga Canyon, San Gabriel Mountains, California, USA",(Original shoot - 1967 version),,,
459,/title/tt0067055/,,"Malibu, California, USA",(alternate dimension),"Malibu, Los Angeles County, California, 90265-4797, United States of America",34.035591,-118.689423
460,/title/tt0067055/,,"Bronson Canyon, Griffith Park - 4730 Crystal Springs Drive, Los Angeles, California, USA",,,,
461,/title/tt0205214/,,"London, England, UK",,"London, Greater London, England, United Kingdom",51.5073219,-0.1276474
462,/title/tt0113682/,,"Bracknell, Berkshire, England, UK",,,,
463,/title/tt0113682/,,"Loch Ness, Highland, Scotland, UK",,"Loch Ness, Highland, Scotland, PH32 4BN, United Kingdom",57.27379265,-4.485355485811402
464,/title/tt0113682/,,"Natural History Museum, South Kensington, London, England, UK",,"Natural History Museum, Queen's Gate, Brompton, Royal Borough of Kensington and Chelsea, London, Greater London, England, SW7 5QL, United Kingdom",51.4955742,-0.1790756
465,/title/tt0113682/,,"Urquhart Castle, Drumnadrochit, Loch Ness, Highland, Scotland, UK",,,,
466,/title/tt0113682/,,"Dores, Loch Ness, Highland, Scotland, UK",,,,
467,/title/tt0113682/,,"Fort Augustus, Loch Ness, Highland, Scotland, UK",,,,
468,/title/tt0113682/,,"Los Angeles, California, USA",,"Los Angeles, Los Angeles County, California, United States of America",34.0536909,-118.2427666
469,/title/tt0113682/,,"Foyers, Loch Ness, Highland, Scotland, UK",,,,
470,/title/tt0055719/,,"Athens, Greece",(opening sequence),"Αθήνα, Δήμος Αθηναίων, Περιφερειακή Ενότητα Κεντρικού Τομέα Αθηνών, Περιφέρεια Αττικής, Αποκεντρωμένη Διοίκηση Αττικής, 10667, Ελλάδα",37.9839412,23.7283052
471,/title/tt0055719/,,"Loutraki, Greece",,"Λουτράκι, Δήμος Αλμωπίας, Περιφερειακή Ενότητα Πέλλας, Περιφέρεια Κεντρικής Μακεδονίας, Αποκεντρωμένη Διοίκηση Μακεδονίας - Θράκης, 58400, Ελλάδα",40.9711768,21.9463392
472,/title/tt5629524/,,Italy,,Italia,42.6384261,12.674297
473,/title/tt5629524/,,"Moscow, Russia",,"Москва, Центральный административный округ, Москва, Центральный федеральный округ, Россия",55.7504461,37.6174943
474,/title/tt0062543/,,"Coney Island Amusement Park - 6201 Kellogg Avenue, Cincinnati, Ohio, USA",,,,
475,/title/tt0473360/,,"London, England, UK",,"London, Greater London, England, United Kingdom",51.5073219,-0.1276474
476,/title/tt0473360/,,"Trondheim, Sør Trøndelag, Norway",,,,
477,/title/tt1629705/,,"Uyuni, Bolivia",,"Uyuni, Antonio Quijarro, Potosí, Bolivia",-20.4628406,-66.8239072
478,/title/tt1185431/,,"Baltimore, Maryland, USA",,"Baltimore, Maryland, United States of America",39.2908816,-76.610759
479,/title/tt1185431/,,"Institute of Notre Dame - 901 N. Aisquith Street, Baltimore, Maryland, USA",,"Institute of Notre Dame, 901, Aisquith Street, Old Town, Baltimore, Maryland, 21202, United States of America",39.300709049999995,-76.60151142433479
480,/title/tt1185431/,,"Garson Studios, College of Santa Fe - 1600 Saint Michaels Drive, Santa Fe, New Mexico, USA",,,,
481,/title/tt1185431/,,"Mount Vernon, Baltimore, Maryland, USA",,"Mount Vernon, Baltimore, Maryland, 21201, United States of America",39.2979113,-76.6156881
482,/title/tt0089338/,,"Miami, Florida, USA",,"Miami, Miami-Dade County, Florida, United States of America",25.7742658,-80.1936589
483,/title/tt0078801/,,Kenya,,Kenya,1.4419683,38.4313975
484,/title/tt0078801/,,Egypt,,مصر,26.2540493,29.2675469
485,/title/tt0117768/,,"Uxbridge, Ontario, Canada",,"Uxbridge, Durham Region, Golden Horseshoe, Ontario, Canada",44.1088502,-79.1226768
486,/title/tt0060288/,,"Pinewood Studios, Iver Heath, Buckinghamshire, England, UK",,"Pinewood Studios, Pinewood Green, Iver, Iver Heath, Buckinghamshire, South East, England, SL0 0QJ, United Kingdom",51.54831515,-0.5346765566753087
487,/title/tt0129686/,,"Sesimbra, Setúbal, Portugal",,"Santiago, Sesimbra, Setúbal, Península de Setúbal, Área Metropolitana de Lisboa, 2970, Portugal",38.4454915,-9.099472824318077
488,/title/tt0129686/,,Ukraine,,Україна,49.4871968,31.2718321
489,/title/tt0134033/,,"London, England, UK",,"London, Greater London, England, United Kingdom",51.5073219,-0.1276474
490,/title/tt0134033/,,Spain,,España,39.3262345,-4.8380649
491,/title/tt0065361/,,"Fiumicino Airport, Fiumicino, Lazio, Italy",,"Fiumicino Aeroporto Stazione Ferroviaria, Via Leonardo da Vinci, Episcopio di Porto, Fiumicino, Roma Capitale, 00054, Italia",41.7933509,12.2518611
492,/title/tt0065361/,,"Cornwall Gardens, Kensington, London, England, UK",(Auction house and rear carpark),"Cornwall Gardens, South Kensington, Royal Borough of Kensington and Chelsea, London, Greater London, England, SW7 4AL, United Kingdom",51.4969876,-0.184913
493,/title/tt0065361/,,"Villa Torrigiani, Tenuta di Camigliano, Capannori, Lucca, Tuscany, Italy",(The Commendatore's Villa),,,
494,/title/tt0065361/,,"Camden Passage, Islington, London, England, UK","(Angel Antiques, clothing store and doctor's office location)","Camden Passage, Angel, Finsbury, London Borough of Islington, London, Greater London, England, N1 0PD, United Kingdom",51.5347736,-0.1045445
495,/title/tt0065361/,,"Cinecittà Studios, Cinecittà, Rome, Lazio, Italy",,,,
496,/title/tt0065361/,,"New York City, New York, USA",,"New York, United States of America",40.7127281,-74.0060152
497,/title/tt0065361/,,"Piazza della Quercia, Rome, Lazio, Italy",(Square where Pat flat her car's tire),"Piazza della Quercia, Rione VII Regola, Municipio Roma I, Roma, Roma Capitale, Lazio, Italia",41.8945434,12.471872086532743
498,/title/tt7781732/,,"Santa Clarita, California, USA",,"Santa Clarita, Los Angeles County, California, United States of America",34.3916641,-118.542586
499,/title/tt0127919/,,"London, England, UK",(one day of shooting),"London, Greater London, England, United Kingdom",51.5073219,-0.1276474
500,/title/tt0806027/,,"Ituzaingó, Buenos Aires, Federal District, Argentina",,,,
501,/title/tt0806027/,,"Leloir Park, Ituzaingó, Buenos Aires, Federal District, Argentina",,,,
502,/title/tt0806027/,,"Vicente López, Buenos Aires, Federal District, Argentina",,,,
503,/title/tt0044205/,,"Johnson Canyon, Kanab, Utah, USA",,,,
504,/title/tt0044205/,,"Mohave Desert, California, USA",,"The Mohave, San Luis Rey Avenue, Cahuilla Hills, Palm Desert, Riverside County, California, 92260-4381, United States of America",33.717661,-116.378784
505,/title/tt0044205/,,"Paria, Utah, USA",,"Paria, Kane County, Utah, United States of America",37.2479883,-111.9480611
506,/title/tt0044205/,,"Kanab, Utah, USA",,"Kanab, Kane County, Utah, United States of America",37.0481417,-112.5285476
507,/title/tt0044205/,,"Suprise Valley, Utah, USA",,"Suprise Overlook, Bull Canyon Road, Grand County, Utah, United States of America",38.5769218,-109.6723007
508,/title/tt0460810/,,"Los Angeles, California, USA",,"Los Angeles, Los Angeles County, California, United States of America",34.0536909,-118.2427666
509,/title/tt4685096/,,"Pensacola, Florida, USA",,"Pensacola, Escambia County, Florida, United States of America",30.421309,-87.2169149
510,/title/tt0768218/,,"Pittsburgh, Pennsylvania, USA",,"Pittsburgh, Allegheny County, Pennsylvania, United States of America",40.4416941,-79.9900861
511,/title/tt0023458/,,"Chatsworth, Los Angeles, California, USA",,"Chatsworth, Los Angeles, Los Angeles County, California, United States of America",34.2595715,-118.6023247
512,/title/tt0103962/,,Spain,,España,39.3262345,-4.8380649
513,/title/tt0103962/,,"Reguengos de Monsaraz, Alentejo, Portugal",,"Reguengos de Monsaraz, Évora, Alentejo Central, Alentejo, Portugal",38.4243996,-7.5347109
514,/title/tt0103962/,,Malta,,Malta,35.8885993,14.4476911
515,/title/tt0103962/,,"St. Thomas, U.S. Virgin Islands",,"Saint Thomas, Saint Thomas - Saint John District, United States Virgin Islands, United States of America",18.34290815,-64.91889970060265
516,/title/tt0052440/,,"Stage 9, 20th Century Fox Studios - 10201 Pico Blvd., Century City, Los Angeles, California, USA",(studio),,,
517,/title/tt0119152/,,"Howe Sound, British Columbia, Canada",,"Area F (West Howe Sound), Sunshine Coast Regional District, British Columbia, Canada",49.4801618,-123.45537513052062
518,/title/tt0119152/,,"Vancouver, British Columbia, Canada",,"Vancouver, Metro Vancouver Regional District, British Columbia, Canada",49.2608724,-123.1139529
519,/title/tt0060736/,,"Kruger National Park, South Africa",,"Kruger National Park, Ba-Phalaborwa Ward 12, Ba-Phalaborwa Local Municipality, Mopani District Municipality, Limpopo, 1320, South Africa",-23.915303350000002,31.49070131950694
520,/title/tt0060736/,,Botswana,,Botswana,-23.1681782,24.5928742
521,/title/tt2145829/,,"Northern Ireland, UK",,"Northern Ireland, United Kingdom",54.6294982,-6.7654416
522,/title/tt2740710/,,"Pensacola, Florida, USA",,"Pensacola, Escambia County, Florida, United States of America",30.421309,-87.2169149
523,/title/tt0069641/,,"Columbia/Warner Bros. Ranch - 411 North Hollywood Way, Burbank, California, USA",,,,
524,/title/tt0064471/,,"Rhine Valley, Rhineland-Palatinate, Germany",,"Rhein, Bad Breisig, Landkreis Ahrweiler, Rheinland-Pfalz, 53498, Deutschland",50.5002029,7.3149557
525,/title/tt0064471/,,"Los Angeles International Airport - 1 World Way, Los Angeles, California, USA",(stock footage) (707 landing - stock footage),,,
526,/title/tt0064471/,,"Rome, Lazio, Italy",,"Roma Capitale, Lazio, Italia",41.85223935,12.631036615953583
527,/title/tt0064471/,,"BT Tower, 60 Cleveland Street, Fitzrovia, London, England, UK",(Pull back shot under end credits),"BT Tower, Cleveland Street, London Borough of Camden, London, Greater London, England, W1T 4JZ, United Kingdom",51.5214383,-0.13880470159066816
528,/title/tt0064471/,,"Alkmaar, Noord-Holland, Netherlands",(cheese market),"Alkmaar, Noord-Holland, Nederland",52.6312592,4.7503798
529,/title/tt0064471/,,"Spanish Steps, Chiesa di Trinità dei Monti, Rome, Lazio, Italy",(group photo),,,
530,/title/tt0111477/,,"Elora, Ontario, Canada",(River Scenes - Grand River),"Elora, Wellington County, Southwestern Ontario, Ontario, N0B 1S0, Canada",43.681121,-80.429581
531,/title/tt0111477/,,"Winona, Ontario, Canada",(Stop 50 Resturant),"Winona, Hamilton, Golden Horseshoe, Ontario, L8E 5L1, Canada",43.2079674,-79.6511553
532,/title/tt0111477/,,"Toronto, Ontario, Canada",,"Toronto, Golden Horseshoe, Ontario, Canada",43.6534817,-79.3839347
533,/title/tt0839995/,,"Niagara Falls, Ontario, Canada",,"Niagara Falls, Niagara Region, Golden Horseshoe, Ontario, Canada",43.100983,-79.115295
534,/title/tt0839995/,,"New York City, New York, USA",,"New York, United States of America",40.7127281,-74.0060152
535,/title/tt0839995/,,"Paris, France",,"Paris, Île-de-France, France métropolitaine, 75004, France",48.8566969,2.3514616
536,/title/tt0062598/,,"Vibble, Gotlands län, Sweden",,"Vibble, Gotlands kommun, Gotlands län, Götaland, 622 59, Sverige",57.6038368,18.2496614
537,/title/tt0062598/,,"Kantongatan 3, 178 93 Drottningholm, Sweden",(The house where Tommy en Annika lives),"Kanton, Drottningholm, Ekerö kommun, Stockholms län, Svealand, 17893, Sverige",59.3189864,17.8695136
538,/title/tt0062598/,,"57°37'02.7""N 18°16'34.4""E",(Villa Villekulla),"Länna, Visborg, Visby, Gotlands kommun, Gotlands län, Götaland, 621 81, Sverige",57.6151468,18.2777012
