,Code,Show Name,Location,Scene,geocodedLocation,latitude,longitude
0,/title/tt1086064/,Bill & Ted Face the Music,"18447 Three Rivers Rd, Covington, Louisiana, USA",(Dave Grohl's mansion)                        ,,,
1,/title/tt1327801/,Glee,"Paramount Studios - 5555 Melrose Avenue, Hollywood, Los Angeles, California, USA",(studio)                        ,,,
2,/title/tt1327801/,Glee,"Alex Theatre - 216 North Brand Boulevard, Glendale, California, USA",,,,
3,/title/tt8580274/,Eurovision Song Contest: The Story of Fire Saga,"Húsavík, Iceland",,"Húsavík, Norðurþing, Norðurland eystra, 640, Ísland",66.0433168,-17.3410402
4,/title/tt8580274/,Eurovision Song Contest: The Story of Fire Saga,"The SSE Hydro, Exhibition Way, Glasgow, Scotland, UK",(Eurovision Song Contest - exterior)                        ,,,
5,/title/tt8580274/,Eurovision Song Contest: The Story of Fire Saga,"Warner Bros. Studios, Leavesden, Hertfordshire, England, UK",,"Warner Bros Studios Leavesden, Essex Lane, Warner Bros. Studios Leavesden, Abbots Langley, Three Rivers, Hertfordshire, East of England, England, WD25 7LP, United Kingdom",51.6934642,-0.4205376395864987
6,/title/tt8580274/,Eurovision Song Contest: The Story of Fire Saga,"Knebworth House, Stevenage, Hertfordshire, England, UK",(Alexander Letmov's mansion/castle)                        ,"Knebworth, Station Approach, Knebworth, Hertfordshire, East of England, England, SG3 6AT, United Kingdom",51.8670421,-0.187051
7,/title/tt8580274/,Eurovision Song Contest: The Story of Fire Saga,"Conway Hall, London, England, UK",(Iceland song contest)                        ,"Conway Hall, 25, Red Lion Square, Gray's Inn, Holborn, London Borough of Camden, London, Greater London, England, WC1R 4RL, United Kingdom",51.51976105,-0.11828118182579667
8,/title/tt8580274/,Eurovision Song Contest: The Story of Fire Saga,"University of Iceland, Reykjavík, Iceland",(The Icelandic Public Television building)                        ,"Háskóli Íslands, Tjarnargata, Tjarnarbrekka, Miðborg, Reykjavíkurborg, Höfuðborgarsvæðið, 101, Ísland",64.13994175,-21.949059100908592
9,/title/tt0096928/,Bill & Ted's Excellent Adventure,"Metrocenter Mall - 9801 N. Metro Pkwy W., Phoenix, Arizona, USA",(Joan of Arc scenes)                        ,,,
10,/title/tt0096928/,Bill & Ted's Excellent Adventure,"Coronado High School - 2501 N. 74th Street, Scottsdale, Arizona, USA",,,,
11,/title/tt0096928/,Bill & Ted's Excellent Adventure,"1010 West Southern Avenue, Tempe, Arizona, USA",(Circle K)                        ,"1010, West Southern Avenue, Contempo Tempe, Tempe, Maricopa County, Arizona, 85282, United States of America",33.392953,-111.95246248979592
12,/title/tt0096928/,Bill & Ted's Excellent Adventure,"7337 E 2nd St, Scottsdale, Arizona, USA",(Police Station)                        ,"Scottsdale Radiation Oncology Center, 7337, East 2nd Street, Scottsdale, Maricopa County, Arizona, 85251, United States of America",33.491087449999995,-111.9235819
13,/title/tt0096928/,Bill & Ted's Excellent Adventure,"N. 18th Street & W. Bethany Home Road, Phoenix, Arizona, USA",(Bill's house)                        ,,,
14,/title/tt0096928/,Bill & Ted's Excellent Adventure,"AMF Tempe Village Lanes - 4407 S. Rural Road, Tempe, Arizona, USA",(bowling alley scenes)                        ,,,
15,/title/tt0096928/,Bill & Ted's Excellent Adventure,"Tempe, Arizona, USA",,"Tempe, Maricopa County, Arizona, United States of America",33.4255056,-111.9400125
16,/title/tt0096928/,Bill & Ted's Excellent Adventure,"San Dimas, California, USA",,"San Dimas, Los Angeles County, California, 91773, United States of America",34.1066756,-117.8067257
17,/title/tt0096928/,Bill & Ted's Excellent Adventure,"Scottsdale, Arizona, USA","(San Dimas, California, USA)                        ","Scottsdale, Maricopa County, Arizona, United States of America",33.4942189,-111.9260184
18,/title/tt0096928/,Bill & Ted's Excellent Adventure,Italy,,Italia,42.6384261,12.674297
19,/title/tt0096928/,Bill & Ted's Excellent Adventure,"Arizona, USA",,"Arizona, United States of America",34.395342,-111.7632755
20,/title/tt0096928/,Bill & Ted's Excellent Adventure,"Rome, Lazio, Italy",,"Roma Capitale, Lazio, Italia",41.85223935,12.631036615953583
21,/title/tt6966692/,Green Book,"Houmas House Plantation, Burnside, Louisiana, USA",(Raleigh concert venue)                        ,,,
22,/title/tt6966692/,Green Book,"English Turn Golf & Country Club, 1 Clubhouse Dr, New Orleans, Louisiana, USA",(Birmingham restaurant scene)                        ,,,
23,/title/tt6966692/,Green Book,"Carnegie Hall, New York City, New York, USA",,"Carnegie Hall, 7th Avenue, Midtown, Manhattan Community Board 5, Manhattan, New York County, New York, 10019, United States of America",40.765029999999996,-73.97988681588421
24,/title/tt6966692/,Green Book,"Aloha Motel, Metairie, Louisiana, USA",(First Green Book hotel)                        ,,,
25,/title/tt6966692/,Green Book,"Clover Grill, French Quarter, New Orleans, Louisiana, USA",(Gorman's hot dog competition)                        ,"Clover Grill, 900, Bourbon Street, Vieux Carre Historic District, French Quarter, New Orleans, Orleans Parish, Louisiana, 70130, United States of America",29.9602833,-90.0640319
26,/title/tt6966692/,Green Book,"Northshore Broadcasting building, Hammond, Louisiana, USA",(Vallelonga home exteriors)                        ,,,
27,/title/tt6966692/,Green Book,"The Roosevelt New Orleans - 130 Roosevelt Way, New Orleans, Louisiana, USA",(Memphis hotel exterior)                        ,"The Roosevelt New Orleans, A Waldorf Astoria Hotel, Roosevelt Way, Vieux Carre Historic District, Storyville, New Orleans, Orleans Parish, Louisiana, 70112, United States of America",29.9543187,-90.0720965
28,/title/tt6966692/,Green Book,"Sigle's Antiques, Royal Street, New Orleans, Louisiana, USA",(Pawn shop)                        ,,,
29,/title/tt6966692/,Green Book,"Macon, Georgia",,"Macon, Bibb County, Georgia, United States of America",32.8406946,-83.6324022
30,/title/tt6966692/,Green Book,"Louisiana, USA",,"Louisiana, United States of America",30.8703881,-92.007126
31,/title/tt6966692/,Green Book,"French Quarter, New Orleans, Louisiana, USA",,"French Quarter, New Orleans, Orleans Parish, Louisiana, 70116, United States of America",29.9595056,-90.0655668
32,/title/tt6966692/,Green Book,"Hammond, Louisiana, USA",,"Hammond, Tangipahoa Parish, Louisiana, United States of America",30.5043583,-90.4611995
33,/title/tt6966692/,Green Book,USA,,United States,39.7837304,-100.4458825
34,/title/tt2582802/,Whiplash,"Santa Clarita, California, USA",,"Santa Clarita, Los Angeles County, California, United States of America",34.3916641,-118.542586
35,/title/tt2582802/,Whiplash,"Orpheum Theater - 842 South Broadway, Downtown, Los Angeles, California, USA",(Carnegie Hall)                        ,,,
36,/title/tt1727824/,Bohemian Rhapsody,"Bovingdon Airfield, Bovingdon, Hertfordshire, UK",(Doubling for Wembley Arena Live Aid concert)                        ,"Bovingdon Airfield (disused), Lysander Close, Bovingdon, Hertfordshire, East of England, England, HP3 0RY, United Kingdom",51.7285504,-0.5420498
37,/title/tt1727824/,Bohemian Rhapsody,"Weybridge, Surrey, England, UK",(Church)                        ,"Weybridge, Surrey, South East, England, United Kingdom",51.3727175,-0.4549297
38,/title/tt1727824/,Bohemian Rhapsody,"Union Street, Southwark, London, England, UK",(Freddie throws his manager out of a limo)                        ,"Union Street, Borough, Southwark, London Borough of Southwark, London, Greater London, England, SE1 1SG, United Kingdom",51.5036633,-0.09341
39,/title/tt1727824/,Bohemian Rhapsody,Hong Kong,(studio)                        ,"香港島 Hong Kong Island, 香港 Hong Kong, China 中国",22.2793278,114.1628131
40,/title/tt1727824/,Bohemian Rhapsody,"Munich, Bavaria, Germany",(only establishing shot)                        ,"München, Bayern, Deutschland",48.1371079,11.5753822
41,/title/tt1727824/,Bohemian Rhapsody,"England, UK",,"England, United Kingdom",52.7954791,-0.5402402866174321
42,/title/tt1727824/,Bohemian Rhapsody,UK,,United Kingdom,54.7023545,-3.2765753
43,/title/tt1727824/,Bohemian Rhapsody,"Twickenham, Middlesex, England, UK",(exteriors of Freddy's parents house)                        ,,,
44,/title/tt1517451/,A Star Is Born,"Glastonbury Festival, Pilton, Somerset, England, UK",(festival scenes)                        ,,,
45,/title/tt1517451/,A Star Is Born,"Riverside County, California, USA",(location)                        ,"Riverside County, California, United States of America",33.7219991,-116.0372472
46,/title/tt1517451/,A Star Is Born,"Los Angeles, California, USA",,"Los Angeles, Los Angeles County, California, United States of America",34.0536909,-118.2427666
47,/title/tt1517451/,A Star Is Born,"Shrine Auditorium - 665 W. Jefferson Boulevard, Los Angeles, California, USA",(Grammys)                        ,"Shrine Auditorium, West Jefferson Boulevard, University Park, Los Angeles, Los Angeles County, California, 90089-0871, United States of America",34.0233199,-118.2815445
48,/title/tt1517451/,A Star Is Born,"Sunset Boulevard, Hollywood, California, USA",(Lady Gaga Face on Billboard)                        ,"Sunset Boulevard, East Hollywood, Los Angeles, Los Angeles County, California, 90027-5517, United States of America",34.0981514,-118.2912164
49,/title/tt1517451/,A Star Is Born,"Palm Springs Convention Center, Palm Springs, California, USA",(Pharmaceutical Convention)                        ,"Palm Springs Convention Center, East Amado Road, Old Las Palmas, Palm Springs, Riverside County, California, 92292, United States of America",33.82585005,-116.53796823301772
50,/title/tt1517451/,A Star Is Born,"Chateau Marmont - 8221 Sunset Blvd., Hollywood, Los Angeles, California, USA",(The hotel where they see Ally's face on billboard)                        ,"Chateau Marmont, 8221, West Sunset Boulevard, Sunset Strip, Hollywood Hills West, West Hollywood, Los Angeles County, California, 90046, United States of America",34.098249749999994,-118.36840487975618
51,/title/tt1517451/,A Star Is Born,"Millennium Biltmore Hotel - 506 S Grand Avenue, Downtown, Los Angeles, California, USA",(Service ramp in opening titles)                        ,"Millennium Biltmore Hotel, 506, South Grand Avenue, Financial District, Downtown, Los Angeles, Los Angeles County, California, 90071, United States of America",34.049275,-118.25352705575739
52,/title/tt2380307/,Coco,"Pixar Animation Studios - 1200 Park Avenue, Emeryville, California, USA",,"Pixar Animation Studios, 1200, Park Avenue, Longfellow, Emeryville, Alameda County, California, 94608, United States of America",37.832671399999995,-122.28369454930086
53,/title/tt3890160/,Baby Driver,"Atlanta, Georgia, USA",,"Atlanta, Georgia, United States of America",33.7490987,-84.3901849
54,/title/tt3890160/,Baby Driver,"Dunwoody, Georgia, USA",(exterior scenes)                        ,"Dunwoody, DeKalb County, Georgia, 30338, United States of America",33.9462467,-84.3342749
55,/title/tt3890160/,Baby Driver,"Juliette, Georgia, USA",,"Juliette, Monroe County, Georgia, United States of America",33.1069934,-83.7991173
56,/title/tt3890160/,Baby Driver,USA,,United States,39.7837304,-100.4458825
57,/title/tt3783958/,La La Land,"Griffith Observatory, 2800 E Observatory Rd, Los Angeles, California, USA",(love dance in the planetarium)                        ,"Griffith Observatory, 2800, East Observatory Road, Griffith Park, Los Angeles, Los Angeles County, California, 90027, United States of America",34.11821875,-118.30029332196601
58,/title/tt3783958/,La La Land,"Hermosa Beach Pier, Pier Ave, Hermosa Beach, California, USA",(Sebastian dances on pier)                        ,,,
59,/title/tt3783958/,La La Land,"Long Beach, California, USA",(3rd St. and Gaviota residential)                        ,"Long Beach, Los Angeles County, California, United States of America",33.7690164,-118.1916048
60,/title/tt3783958/,La La Land,"Watts Towers - 1765 E. 107th Street, Watts, Los Angeles, California, USA",(Mia and Sebastian)                        ,"Watts Towers, East 107th Street, Watts, Los Angeles, Los Angeles County, California, 90002, United States of America",33.9386986,-118.2409481
61,/title/tt3783958/,La La Land,"Rialto Theatre - 1023 S. Fair Oaks Avenue, South Pasadena, California, USA","(exterior; Mia & Sebatian attend ""Rebel Without A Cause"")                        ",,,
62,/title/tt3783958/,La La Land,"The Blind Donkey - 149 Linden Ave, Long Beach, California, USA",(Seb's - interior)                        ,,,
63,/title/tt3783958/,La La Land,"W 4th St, Los Angeles, California, USA",(car interior; Mia & husband in traffic jam before pulling onto offramp)                        ,"West 4th Street, Windsor Square, Los Angeles, Los Angeles County, California, 90036-2829, United States of America",34.0671443,-118.3273089
64,/title/tt3783958/,La La Land,"1648 Wilcox Ave, Los Angeles, California, USA",(Lipton's restaurant - exterior)                        ,"1648, Wilcox Avenue, Hancock Park, Los Angeles, Los Angeles County, California, 90028, United States of America",34.09693573913044,-118.33090597658862
65,/title/tt3783958/,La La Land,"Smoke House Restaurant - 4420 West Lakeside Drive, Burbank, California, USA",(Lipton's restaurant - interior)                        ,,,
66,/title/tt3783958/,La La Land,"8225 Beverly Boulevard, Los Angeles, California, USA",(Mia leaves friends in restaurant and walks to her car)                        ,"Beverly Boulevard, Los Angeles, Los Angeles County, California, 90004, United States of America",34.0762868,-118.3008171
67,/title/tt3783958/,La La Land,"1735 Bird Way, Long Beach, California, USA",(Sebastian drives down alley and turns wrong way onto one-way street)                        ,"1735, Bird Way, Long Beach, Los Angeles County, California, 90802, United States of America",33.768893265306126,-118.17055832653061
68,/title/tt3783958/,La La Land,"Santa Clarita, California, USA",(as Boulder City)                        ,"Santa Clarita, Los Angeles County, California, United States of America",34.3916641,-118.542586
69,/title/tt3783958/,La La Land,"Dan Tana's, 9071 California Route 2, West Hollywood, California, USA",(old-timey restaurant where Sebastian plays the piano)                        ,,,
70,/title/tt3783958/,La La Land,"EastWest Studios - 6000 W Sunset Blvd, Hollywood, California, USA",(studio) (Recording Studio - interior)                        ,,,
71,/title/tt3783958/,La La Land,"Cafe Club Fais Do-Do, 5257 W Adams Blvd, Los Angeles, California, USA",(Del Rio Theater - exterior)                        ,"Cafe Club Fais Do Do, 5257, West Adams Boulevard, West Adams, Los Angeles, Los Angeles County, California, 90016, United States of America",34.0327381,-118.35710470408392
72,/title/tt3783958/,La La Land,"Hollywood Center Studios - 1040 N. Las Palmas Avenue, Hollywood, Los Angeles, California, USA",(Looking into the sound stage set)                        ,"Hollywood Center Studios, Romaine Street, Hollywood, Los Angeles, Los Angeles County, California, 90038, United States of America",34.08981165,-118.33500930891499
73,/title/tt3783958/,La La Land,"Regent Theater - 448 S. Main Street, Downtown, Los Angeles, California, USA",(Sebastian at band's photoshoot)                        ,,,
74,/title/tt3783958/,La La Land,"4533 Estrondo Dr, Encino, Los Angeles, California, USA",(pool party)                        ,"4533, Estrondo Drive, Encino, Los Angeles, Los Angeles County, California, 91436, United States of America",34.15258034353461,-118.50042259497157
75,/title/tt3783958/,La La Land,"880 La Loma Rd., Pasadena, California, USA",(Sebastian playing piano at outdoor wedding reception)                        ,"880, La Loma Road, Pasadena, Los Angeles County, California, 91105, United States of America",34.133842183673465,-118.16848253061225
76,/title/tt3783958/,La La Land,"Orcutt Ranch Horticulture Center - 23600 Roscoe Blvd, Canoga Park, Los Angeles, California, USA",(Fantasy montage Mia and Seb house exterior)                        ,,,
77,/title/tt3783958/,La La Land,"St. Luke Medical Center, 2632 E. Washington Blvd., Pasadena, California, USA",(Mia parks her car in a large parking lot before audition)                        ,,,
78,/title/tt3783958/,La La Land,"Will Rogers Memorial Park - 9650 Sunset Blvd, Beverly Hills, California, USA","(Mia's sister's engagement, beside large fountain)                        ",,,
79,/title/tt2066051/,Rocketman,"Royal Albert Hall, South Kensington, London, England, UK",(exterior scenes)                        ,"Royal Albert Hall, 4, Kensington Gore, Knightsbridge, City of Westminster, London, Greater London, England, SW7 2AP, United Kingdom",51.501004449999996,-0.17739457896545874
80,/title/tt2066051/,Rocketman,"Cannes, France",(I'm Still Standing)                        ,"Cannes, Grasse, Alpes-Maritimes, Provence-Alpes-Côte d'Azur, France métropolitaine, France",43.5515198,7.0134418
81,/title/tt2066051/,Rocketman,"Dodger Stadium - 1000 Vin Scully Avenue, Chavez Ravine, Elysian Park, Los Angeles, California, USA",(Rocket Man Scene)                        ,,,
82,/title/tt2066051/,Rocketman,"New York City, New York, USA",,"New York, United States of America",40.7127281,-74.0060152
83,/title/tt2066051/,Rocketman,USA,,United States,39.7837304,-100.4458825
84,/title/tt0190590/,"O Brother, Where Art Thou?","D'Lo Water Park, D'Lo, Mississippi, USA",(sirens scene)                        ,"D'lo Water Park, 135, D'Lo, Simpson County, Mississippi, 39062, United States of America",31.9808427,-89.896592
85,/title/tt0190590/,"O Brother, Where Art Thou?","Jackson, Mississippi, USA",,"Jackson, Hinds County, Mississippi, United States of America",32.2990384,-90.1847691
86,/title/tt0190590/,"O Brother, Where Art Thou?","Edwards, Mississippi, USA",(handcar)                        ,"Edwards, Hinds County, Mississippi, United States of America",32.3301465,-90.6056548
87,/title/tt0190590/,"O Brother, Where Art Thou?","Yazoo City, Mississippi, USA","(bank robbery, and the Woolworth store)                        ","Yazoo City, Yazoo County, Mississippi, 39194, United States of America",32.8551326,-90.4056469
88,/title/tt0190590/,"O Brother, Where Art Thou?","Alligator Lake, Long Lake Road, Vicksburg, Mississippi, USA",(mass baptism)                        ,,,
89,/title/tt0190590/,"O Brother, Where Art Thou?","Valley Park, Mississippi, USA",(radio station)                        ,"Valley Park, Issaquena County, Mississippi, 39177, United States of America",32.6334691,-90.8667691
90,/title/tt0190590/,"O Brother, Where Art Thou?","Los Angeles, California, USA",,"Los Angeles, Los Angeles County, California, United States of America",34.0536909,-118.2427666
91,/title/tt1981677/,Pitch Perfect,"Baton Rouge, Louisiana, USA",,"Baton Rouge, East Baton Rouge Parish, Louisiana, United States of America",30.4459596,-91.18738
92,/title/tt4288182/,Atlanta,"Atlanta, Georgia",,"Atlanta, Georgia, United States of America",33.7490987,-84.3901849
93,/title/tt0070992/,Happy Days,"565 North Cahuenga Avenue, Hancock Park, Los Angeles, California, USA",(exteriors: house)                        ,,,
94,/title/tt0070992/,Happy Days,"Los Angeles, California, USA",,"Los Angeles, Los Angeles County, California, United States of America",34.0536909,-118.2427666
95,/title/tt0181875/,Almost Famous,"San Diego Sports Arena - 3500 Sports Arena Boulevard San Diego, California, USA",(opening concert venue exterior where William first meets Penny)                        ,"Pechanga Arena, 3500, Sports Arena Boulevard, Loma Portal, Old Town, San Diego, San Diego County, California, 92110-9998, United States of America",32.7553042,-117.21226958193277
96,/title/tt0181875/,Almost Famous,"Continental Hyatt Hotel - 8401 W. Sunset Blvd., Hollywood, Los Angeles, California, USA",(Penny and William's encounter with eccentric Led Zeppelin fan)                        ,,,
97,/title/tt0181875/,Almost Famous,"Balboa Park - 1549 El Prado, San Diego, California, USA",,,,
98,/title/tt0181875/,Almost Famous,"Old Ajo Highway, Arizona, USA",,"Ajo, Pima County, Arizona, 85321, United States of America",32.3771926,-112.8645745
99,/title/tt0181875/,Almost Famous,"San Diego, California, USA",,"San Diego, San Diego County, California, United States of America",32.7174209,-117.1627714
100,/title/tt0181875/,Almost Famous,"Ambassador Hotel - 3400 Wilshire Boulevard, Los Angeles, California, USA",,,,
101,/title/tt0181875/,Almost Famous,"Interstate 19, Arizona, USA",,"Interstate Highway 19 Frontage Road, Arivaca Junction, Pima County, Arizona, 85645, United States of America",31.740083,-111.051401
102,/title/tt0181875/,Almost Famous,"Tumacacori, Arizona, USA",,"Tumacacori, Santa Cruz County, Arizona, 85640, United States of America",31.568702,-111.0523126
103,/title/tt0181875/,Almost Famous,"New York City, New York, USA",,"New York, United States of America",40.7127281,-74.0060152
104,/title/tt0181875/,Almost Famous,"Mormon Emmigrant Trail, El Dorado National Forest, California, USA",,,,
105,/title/tt0181875/,Almost Famous,"Los Angeles, California, USA",,"Los Angeles, Los Angeles County, California, United States of America",34.0536909,-118.2427666
106,/title/tt0181875/,Almost Famous,USA,,United States,39.7837304,-100.4458825
107,/title/tt0072562/,Saturday Night Live,"Studio 8H, NBC Studios - 30 Rockefeller Plaza, Manhattan, New York City, New York, USA",,,,
108,/title/tt0072562/,Saturday Night Live,"Los Angeles, California, USA",(Albert Brooks' shorts) (1975-1976)                        ,"Los Angeles, Los Angeles County, California, United States of America",34.0536909,-118.2427666
109,/title/tt0072562/,Saturday Night Live,"Vitagraph Studios - 15th Street & Locust Avenue, Flatbush, Brooklyn, New York City, New York, USA",(some 1976 episodes)                        ,,,
110,/title/tt8079248/,Yesterday,"Penny Lane, Mossley Hill, Liverpool, Merseyside, England, UK",,,,
111,/title/tt8079248/,Yesterday,"Cantley, Norfolk, England, UK",,"Cantley, Station Road, Cantley, Norfolk, East of England, England, NR13 3SH, United Kingdom",52.5787068,1.5136191
112,/title/tt8079248/,Yesterday,"Buckenham, Norfolk, England, UK","(studio) (""Tracks on the Tracks"" studio)                        ","Buckenham, Station Road, Strumpshaw, Broadland, Norfolk, East of England, England, NR13 4HP, United Kingdom",52.5977308,1.4700589
113,/title/tt8079248/,Yesterday,"Park Rd, Gorleston-on-Sea, Great Yarmouth, England, UK",(Malik Family Home)                        ,"Park Road, Magdalen Estate, Gorleston-on-Sea, Great Yarmouth, Norfolk, East of England, England, NR31 6EJ, United Kingdom",52.5682592,1.7271877
114,/title/tt8079248/,Yesterday,"Ramsholt, Woodbridge, Suffolk, England, UK",(Pub where Yesterday is played)                        ,,,
115,/title/tt8079248/,Yesterday,"Pier Hotel Gorleston-on-sea, Norfolk, England, UK",(beach & pier)                        ,"The Pier Hotel, Quay Road, Magdalen Estate, Gorleston-on-Sea, Great Yarmouth, Norfolk, East of England, England, NR31 6PP, United Kingdom",52.5709855,1.7338185813015743
116,/title/tt8079248/,Yesterday,"Reading, England, UK",,"Reading, South East, England, RG1 1DA, United Kingdom",51.456659,-0.9696512
117,/title/tt8079248/,Yesterday,"Moscow, Russia",,"Москва, Центральный административный округ, Москва, Центральный федеральный округ, Россия",55.7504461,37.6174943
118,/title/tt8079248/,Yesterday,Russia,,Россия,64.6863136,97.7453061
119,/title/tt2948372/,Soul,"New York City, New York, USA",,"New York, United States of America",40.7127281,-74.0060152
120,/title/tt7460806/,The Festival,"Ashton Court, Bristol, England, UK",(on location)                        ,"The Ashton, Ashton Road, Long Ashton, Leigh Woods, North Somerset, South West England, England, BS41 9LX, United Kingdom",51.4392615,-2.6349550528595787
121,/title/tt7460806/,The Festival,"Hengrove park, Bristol, England, UK",(location)                        ,"Hengrove Park, Inns Court, Hengrove, Bristol, City of Bristol, South West England, England, United Kingdom",51.41583215,-2.5819245259316417
122,/title/tt7460806/,The Festival,"Monmouth North Services, Monmouth, UK",,,,
123,/title/tt7460806/,The Festival,"Bramham Park, Bramham, Wetherby, Leeds, West Yorkshire, England, UK",,,,
124,/title/tt0253474/,The Pianist,"Instalatorów, Ochota, Warsaw, Mazowieckie, Poland",(Umschlagplatz scenes)                        ,,,
125,/title/tt0253474/,The Pianist,"Beelitz, Brandenburg, Germany",,"Beelitz, Potsdam-Mittelmark, Brandenburg, 14547, Deutschland",52.2363582,12.9700041
126,/title/tt0253474/,The Pianist,"Kozia, Sródmiescie, Warsaw, Mazowieckie, Poland",,"Kozia, Śródmieście Północne, Śródmieście, Warszawa, województwo mazowieckie, 00-075, Polska",52.2454475,21.0130101
127,/title/tt0253474/,The Pianist,"Zabkowska, Praga Pólnoc, Warsaw, Mazowieckie, Poland",,"Ząbkowska, Stara Praga, Praga-Północ, Warszawa, województwo mazowieckie, 03-742, Polska",52.2542953,21.0436457
128,/title/tt0253474/,The Pianist,"Hotel Saski, Plac Bankowy, Sródmiescie, Warsaw, Mazowieckie, Poland",,,,
129,/title/tt0253474/,The Pianist,"Kobylka, Mazowieckie, Poland",,"Kobyłka, powiat wołomiński, województwo mazowieckie, 05-230, Polska",52.33997115,21.190544150080274
130,/title/tt0253474/,The Pianist,"Rembertów, Warsaw, Mazowieckie, Poland",,"Rembertów, Warszawa, województwo mazowieckie, Polska",52.2614149,21.1628191
131,/title/tt0253474/,The Pianist,"Studio Babelsberg, Potsdam, Brandenburg, Germany",(studio)                        ,"Studio Babelsberg, 15, Babelsberg, Potsdam, Brandenburg, 14482, Deutschland",52.38260355,13.113726021425222
132,/title/tt0253474/,The Pianist,"Warsaw, Mazowieckie, Poland",,"Warszawa, województwo mazowieckie, Polska",52.2319581,21.0067249
133,/title/tt0253474/,The Pianist,Germany,,Deutschland,51.0834196,10.4234469
134,/title/tt0332379/,School of Rock,"Buckley Country Day School - I.U. Willets Road, Herricks, Long Island, New York, USA",(interiors)                        ,,,
135,/title/tt0332379/,School of Rock,"Edison, New Jersey, USA",(van-driving scene with Led Zeppelin song)                        ,"Edison, Middlesex County, New Jersey, United States of America",40.5382375,-74.39451734508772
136,/title/tt0332379/,School of Rock,"Northsix - 66 North 6th Street, Williamsburg, Brooklyn, New York City, New York, USA",(interiors)                        ,,,
137,/title/tt0332379/,School of Rock,"St. George Theatre, Staten Island, New York City, New York, USA",,,,
138,/title/tt0332379/,School of Rock,"Union County Arts Center - 1601 Irving Street, Rahway, New Jersey, USA",,,,
139,/title/tt0332379/,School of Rock,"Los Angeles, California, USA",,"Los Angeles, Los Angeles County, California, United States of America",34.0536909,-118.2427666
140,/title/tt0800325/,The Dirt,"New Orleans, Louisiana, USA",,"New Orleans, Orleans Parish, Louisiana, United States of America",29.9499323,-90.0701156
141,/title/tt0101452/,Bill & Ted's Bogus Journey,"Vasquez Rocks Natural Area Park - 10700 W. Escondido Canyon Rd., Agua Dulce, California, USA",(Bill and Ted face Death)                        ,,,
142,/title/tt0101452/,Bill & Ted's Bogus Journey,"Santa Clarita Studios - 25135 Anza Drive, Santa Clarita, California, USA",(studio)                        ,,,
143,/title/tt0101452/,Bill & Ted's Bogus Journey,USA,,United States,39.7837304,-100.4458825
144,/title/tt0101452/,Bill & Ted's Bogus Journey,"Northridge, Los Angeles, California, USA",,"Northridge, Los Angeles, Los Angeles County, California, 91324, United States of America",34.2345615,-118.5369316
145,/title/tt0112950/,Empire Records,"Wilmington, North Carolina, USA",,"Wilmington, New Hanover County, North Carolina, United States of America",34.2257282,-77.9447107
146,/title/tt0086879/,Amadeus,"Barrandov Studios, Prague, Czech Republic","(studio) (Volkstheater, Hospital Room, Mozart's Apartment and Staircase sets)                        ",,,
147,/title/tt0086879/,Amadeus,"Hradcany Square, Hradcany, Prague, Czech Republic",(The Emperor's Palace)                        ,"Hradčany, 6, Keplerova, Hradčany, Praha, okres Hlavní město Praha, Hlavní město Praha, Praha, 11800, Česká republika",50.0881868,14.3885062
148,/title/tt0086879/,Amadeus,"Tyl Theatre, Plzen, Czech Republic",(concert and opera staged)                        ,,,
149,/title/tt0086879/,Amadeus,"Monte Argentario, Grosseto, Tuscany, Italy",(Salieri's flashback in Italy)                        ,"Monte Argentario, Grosseto, Toscana, Italia",42.407352,11.1503838
150,/title/tt0086879/,Amadeus,"Gryspek Palace, Hradcany Square, Hradcany, Prague, Czech Republic",(The Emperor's Palace)                        ,,,
151,/title/tt0086879/,Amadeus,"Palace of the Grand Prior of the Knights of Malta, Maltese Square, Malá Strana, Prague, Czech Republic",(Scenes with Salieri)                        ,,,
152,/title/tt0086879/,Amadeus,"Archbishop's Palace, Kromeríz, Czech Republic",(Salieri first meeting with Mozart)                        ,,,
153,/title/tt0086879/,Amadeus,"Malá Strana, Prague, Czech Republic",(Period Backdrops)                        ,"Malá Strana, Praha, okres Hlavní město Praha, Hlavní město Praha, Praha, Česká republika",50.0874027,14.4069171
154,/title/tt0086879/,Amadeus,"Prague, Czech Republic",,"Praha, okres Hlavní město Praha, Hlavní město Praha, Praha, Česká republika",50.0874654,14.4212535
155,/title/tt0086879/,Amadeus,"Vienna, Austria",,"Wien, 1010, Österreich",48.2083537,16.3725042
156,/title/tt0086879/,Amadeus,"Kromeríz, Czech Republic",,"Kroměříž, okres Kroměříž, Zlínský kraj, Střední Morava, Česká republika",49.2984191,17.3929804
157,/title/tt8359848/,Climax,France,,France,46.603354,1.8883335
158,/title/tt8058874/,We Summon the Darkness,"Winnipeg, Manitoba, Canada",,"Winnipeg, Winnipeg (city), Manitoba, Canada",49.8955367,-97.1384584
159,/title/tt2281375/,Nashville,"Nashville, Tennessee, USA",,"Nashville-Davidson, Davidson County, Tennessee, United States of America",36.1622296,-86.7743531
160,/title/tt2281375/,Nashville,USA,,United States,39.7837304,-100.4458825
161,/title/tt0092890/,Dirty Dancing,"Mountain Lake Resort - 115 Hotel Circle, Pembroke, Virginia, USA",,,,
162,/title/tt0092890/,Dirty Dancing,"Lake Lure, North Carolina, USA",,"Lake Lure, Rutherford County, North Carolina, United States of America",35.4278969,-82.2048343
163,/title/tt0092890/,Dirty Dancing,"Mountain Lake, Virginia, USA",,"Mountain Lake, Clarke County, Virginia, United States of America",39.061218,-77.9416628
164,/title/tt0092890/,Dirty Dancing,"Lure Woods, Lake Lure, North Carolina, USA",,,,
165,/title/tt0092890/,Dirty Dancing,"Rutherford County, North Carolina, USA",,"Rutherford County, North Carolina, United States of America",35.3994626,-81.9023191
166,/title/tt0092890/,Dirty Dancing,"Virginia, USA",,"Virginia, United States of America",37.1232245,-78.4927721
167,/title/tt1604099/,Victorious,"Nickelodeon on Sunset - 6230 Sunset Blvd., Hollywood, Los Angeles, California, USA",,,,
168,/title/tt9185316/,I Am Woman,"Sydney, New South Wales, Australia",(location)                        ,"Sydney, New South Wales, Australia",-33.8548157,151.2164539
169,/title/tt9185316/,I Am Woman,"Fox Studios, Moore Park, Sydney, New South Wales, Australia",(studio)                        ,"Fox Studios Australia, Moore Park, Sydney, Council of the City of Sydney, New South Wales, 2021, Australia",-33.890960899999996,151.22750517838074
170,/title/tt9185316/,I Am Woman,"Los Angeles, California, USA",(location)                        ,"Los Angeles, Los Angeles County, California, United States of America",34.0536909,-118.2427666
171,/title/tt0080888/,Honeysuckle Rose,"Padre Island National Seashore, Texas, USA",,"Padre Island National Seashore, 20301, Park Road 22, Kleberg County, Texas, 78418, United States of America",27.04553605,-97.39789075348415
172,/title/tt5607096/,"Juliet, Naked","Broadstairs, Kent, England, UK",(on location)                        ,"Broadstairs, Kent, South East, England, CT10 1LP, United Kingdom",51.3586758,1.4407855
173,/title/tt5607096/,"Juliet, Naked","Tate Modern, Bankside, London, England, UK",(failed meeting at restaurant)                        ,"Tate Modern, Bankside, Southwark, London Borough of Southwark, London, Greater London, England, SE1 9TG, United Kingdom",51.507456649999995,-0.09934365815375101
174,/title/tt5607096/,"Juliet, Naked","University College Hospital, London, England, UK",(Tucker hospital stay)                        ,"University College Hospital, 235, Euston Road, Somers Town, London Borough of Camden, London, Greater London, England, NW1 2BU, United Kingdom",51.52484825,-0.1365134426451512
175,/title/tt1126591/,Burlesque,"Sony Pictures Studios - 10202 W. Washington Blvd., Culver City, California, USA",(studio)                        ,,,
176,/title/tt1126591/,Burlesque,"Ricardo Montalbán Theatre - 1615 Vine St, Hollywood, Los Angeles, California, USA",(as Burlesque Lounge)                        ,"Ricardo Montalban Theatre, 1614, Vine Street, Whitley Heights Historic District, Hollywood, Los Angeles, Los Angeles County, California, 90028, United States of America",34.10029285,-118.32707303137695
177,/title/tt0080716/,Fame,"Church of Saint Mary the Virgin 145 West 46th Street, Manhattan, New York City, New York, USA","(School Exterior - Parker was not allowed to shoot the actual school at 120 West 46th, so he opted for a then abandoned Church directly opposite)                        ","Church of Saint Mary the Virgin, 145, West 46th Street, Duffy Square, Manhattan Community Board 5, Times Square, New York County, New York, 10036, United States of America",40.758353299999996,-73.98363279788558
178,/title/tt0080716/,Fame,"P.S 122 at 150 1st Avenue at East 9th Street, East Village Manhattan, New York City, New York, USA","(School Interiors - Three schools were used for interior shots, many were in PS 122)                        ",,,
179,/title/tt0080716/,Fame,"Haaren High School, 10th Avenue 59th Street, Manhattan, New York City, New York, USA",(interiors) (demolished)                        ,,,
180,/title/tt0080716/,Fame,"Times Square, Manhattan, New York City, New York, USA",,"Times Square, West 45th Street, Times Square, Manhattan Community Board 5, Times Square, New York County, New York, 10036, United States of America",40.757280550000004,-73.98585503545917
181,/title/tt0493093/,Hannah Montana,"30760 Broad Beach Road, Malibu, California, USA",(Stewarts' house)                        ,"30760, Broad Beach Road, Trancas, Malibu, Los Angeles County, California, 90265, United States of America",34.03143491678087,-118.84478920142335
182,/title/tt0493093/,Hannah Montana,"Tribune Studios - 5800 Sunset Blvd., Los Angeles, California, USA",,,,
183,/title/tt4062536/,Green Room,"Portland, Oregon, USA",,"Portland, Multnomah County, Oregon, United States of America",45.5202471,-122.6741949
184,/title/tt4062536/,Green Room,"Astoria, Oregon, USA",,"Astoria, Clatsop County, Oregon, 97103, United States of America",46.187885,-123.831256
185,/title/tt4062536/,Green Room,USA,,United States,39.7837304,-100.4458825
186,/title/tt0358273/,Walk the Line,"Tennessee State Penitentiary, Nashville, Tennessee, USA",,,,
187,/title/tt0358273/,Walk the Line,"Memphis, Tennessee, USA",,"Memphis, Shelby County, Tennessee, United States of America",35.1490215,-90.0516285
188,/title/tt0358273/,Walk the Line,"Covington, Tennessee, USA",(exterior scenes)                        ,"Covington, Tipton County, Tennessee, 38019, United States of America",35.5642474,-89.6464672
189,/title/tt0358273/,Walk the Line,"Los Angeles, California, USA",,"Los Angeles, Los Angeles County, California, United States of America",34.0536909,-118.2427666
190,/title/tt0358273/,Walk the Line,"California, USA",,"California, United States of America",36.7014631,-118.7559974
191,/title/tt0040725/,The Red Shoes,"Villa Leopolda, Avenue Leopold II, Villefranche-sur-Mer, Alpes-Maritimes, France",(Lermontov's villa)                        ,"Villa Leopolda, Avenue Léopold II, Col de Caire, Villefranche-sur-Mer, Nice, Alpes-Maritimes, Provence-Alpes-Côte d'Azur, France métropolitaine, 06230, France",43.70937575,7.320882852951
192,/title/tt0040725/,The Red Shoes,"Monte Carlo railway station, Monte Carlo, Monaco",,"Monte Carlo, Boulevard des Moulins, Monte-Carlo, Monaco, 98000, Monaco",43.7411905,7.425986171748546
193,/title/tt0040725/,The Red Shoes,"Opéra National de Paris Palais Garnier, 8 rue Scribe, Paris 9, Paris, France",,,,
194,/title/tt0040725/,The Red Shoes,"Gare de Lyon, Paris 12, Paris, France",,"Gare de Lyon, Boulevard Diderot, Quartier des Quinze-Vingts, Paris, Île-de-France, France métropolitaine, 75012, France",48.8458762,2.3737786
195,/title/tt0040725/,The Red Shoes,"D&P Studios, Denham Studios, Denham, Buckinghamshire, England, UK",(studio) (studio: made at D&P Studios)                        ,,,
196,/title/tt10276470/,Work It,"Toronto, Ontario, Canada",,"Toronto, Peel, Golden Horseshoe, Ontario, Canada",43.6534817,-79.3839347
197,/title/tt0087277/,Footloose,"Provo, Utah, USA",,"Provo, Utah County, Utah, United States of America",40.2338438,-111.6585337
198,/title/tt0087277/,Footloose,"Payson, Utah, USA",(main Bomont locations) (tractors contest alongside Goosenest Dr)                        ,"Payson, Utah County, Utah, 84651, United States of America",40.0443989,-111.7321518
199,/title/tt0087277/,Footloose,"American Fork, Utah, USA",,"American Fork, Utah County, Utah, 84003, United States of America",40.3768954,-111.7957645
200,/title/tt0087277/,Footloose,"135 E Main St, American Fork, Utah, USA",(Approximate location of the Reverend's house - demolished)                        ,"East Main Street, American Fork, Utah County, Utah, 84003, United States of America",40.3767867,-111.7960693
201,/title/tt0087277/,Footloose,"Osmond Studios - 1240 E 800 N, Orem, Utah, USA",(Dance scenes)                        ,,,
202,/title/tt0087277/,Footloose,"12000 S, Payson, Utah, USA",(Car chase)                        ,"12000 South, Payson, Utah County, Utah, 84641, United States of America",40.0119474,-111.7427386
203,/title/tt0087277/,Footloose,"710 S UT-198, Payson, Utah, USA",(Gas station)                        ,"South 100 West, Payson, Utah County, Utah, 84651, United States of America",40.0382786,-111.733848
204,/title/tt0087277/,Footloose,"West Utah Avenue & North 100 West, Payson, Utah, USA",(Sudsie's Car Wash - demolished)                        ,"100, West Utah Avenue, Payson, Utah County, Utah, 84651, United States of America",40.043682,-111.733984
205,/title/tt0087277/,Footloose,"Geneva Steel - Vineyard, Utah, USA",(Ren's dance montage)                        ,,,
206,/title/tt0080455/,The Blues Brothers,"Dixie Square Mall - 151st Street & Dixie Highway, Harvey, Illinois, USA",(Shopping Mall Complex)                        ,,,
207,/title/tt0080455/,The Blues Brothers,"Pilgrim Baptist Church - 9114 S. Burley Avenue, South Chicago, Chicago, Illinois, USA",(Church scene with James Brown)                        ,,,
208,/title/tt0080455/,The Blues Brothers,"22 W. Van Buren Street, The Loop, Downtown, Chicago, Illinois, USA",(Jake and Elwood's apartment)                        ,,,
209,/title/tt0080455/,The Blues Brothers,"West Wind Motel - 28W721 Roosevelt Rd., West Chicago, Illinois, USA",(Motel scene with Twiggy)                        ,,,
210,/title/tt0080455/,The Blues Brothers,"Chez Paul Restaurant - 660 N. Rush Street, Near North Side, Chicago, Illinois, USA",(Restaurant)                        ,,,
211,/title/tt0080455/,The Blues Brothers,"Cooks Picnic Grove, Bangs Lake, Wauconda, Illinois, USA",(beach scene)                        ,,,
212,/title/tt0080455/,The Blues Brothers,"Joliet Prison - Collins Street, Joliet, Illinois, USA",(Prison)                        ,,,
213,/title/tt0080455/,The Blues Brothers,"Daniel Hoan Memorial Bridge, Milwaukee, Wisconsin, USA",(Car chase with Nazis - car hangs off bridge)                        ,,,
214,/title/tt0080455/,The Blues Brothers,"Hollywood Palladium - 6215 Sunset Blvd., Hollywood, Los Angeles, California, USA",(interiors: Palace Hotel Ballroom - First Performance of the Blues Brothers)                        ,,,
215,/title/tt0080455/,The Blues Brothers,"Intersection of W. Talcott & Devon Ave, Park Ridge, Illinois, USA",(Police chase & spin out)                        ,,,
216,/title/tt0080455/,The Blues Brothers,"East 95th Street Bridge, South Deering, Chicago, Illinois, USA",(Bluesmobile car jumps over bridge)                        ,"East 95th Street, South Deering, Chicago, Cook County, Illinois, 60617, United States of America",41.7223644,-87.583645
217,/title/tt0080455/,The Blues Brothers,"1623 S. 51st Court, Cicero, Illinois, USA",(Mrs. Tarantino's House)                        ,,,
218,/title/tt0080455/,The Blues Brothers,"Mannheim Road, Cook County, Illinois, USA",(Holiday Inn - Murph and the Magic Tones)                        ,"Mannheim Road, Franklin Park, Leyden Township, Cook County, Illinois, 60132, United States of America",41.9432782,-87.8856526
219,/title/tt0080455/,The Blues Brothers,"Singapore Lake, Backlot, Universal Studios - 100 Universal City Plaza, Universal City, California, USA",(Good 'Ole Boys motor-home crashes into lake)                        ,,,
220,/title/tt0080455/,The Blues Brothers,"North Lagoon, Jackson Park, Hyde Park, Chicago, Illinois, USA",,,,
221,/title/tt0080455/,The Blues Brothers,"South Side, Chicago, Illinois, USA",,"S, Lakefront Trail, Near South Side, South Loop, Chicago, Cook County, Illinois, 60605, United States of America",41.856439,-87.6110589
222,/title/tt0080455/,The Blues Brothers,"Van Buren & LaSalle Streets, The Loop, Downtown, Chicago, Illinois, USA",,,,
223,/title/tt0080455/,The Blues Brothers,"Hollywood, Los Angeles, California, USA",,"Hollywood, Los Angeles, Los Angeles County, California, 90028-8127, United States of America",34.0980031,-118.329523
224,/title/tt0080455/,The Blues Brothers,"Chicago, Illinois, USA",,"Chicago, Cook County, Illinois, United States of America",41.8755616,-87.6244212
225,/title/tt0080455/,The Blues Brothers,"20 E. Randolph Street, Downtown, Chicago, Illinois, USA",(Bus Station)                        ,,,
226,/title/tt0080455/,The Blues Brothers,"Harvey, Illinois, USA",,"Harvey, Thornton Township, Cook County, Illinois, 60426, United States of America",41.6100344,-87.6467132
227,/title/tt0080455/,The Blues Brothers,"City Hall - 121 N. LaSalle Street, The Loop, Downtown, Chicago, Illinois, USA",(Siege at City Hall-County Building - Steven Spielberg cameo)                        ,,,
228,/title/tt0080455/,The Blues Brothers,"South Lagoon, Jackson Park, Hyde Park, Chicago, Illinois, USA",,,,
229,/title/tt0080455/,The Blues Brothers,"Park Ridge, Illinois, USA",,"Park Ridge, Cook County, Illinois, United States of America",42.0112329,-87.8406031
230,/title/tt0080455/,The Blues Brothers,USA,,United States,39.7837304,-100.4458825
231,/title/tt0118254/,Ally McBeal,"Boston, Massachusetts, USA",,"Boston, Suffolk County, Massachusetts, United States of America",42.3602534,-71.0582912
232,/title/tt0118254/,Ally McBeal,"Hollywood, Los Angeles, California, USA",,"Hollywood, Los Angeles, Los Angeles County, California, 90028-8127, United States of America",34.0980031,-118.329523
233,/title/tt0118254/,Ally McBeal,"Raleigh Manhattan Beach Studios - 1600 Rosecrans Avenue, Manhattan Beach, California, USA",(studio) (studio - seasons 2 to 5)                        ,,,
234,/title/tt9735758/,Boyz in the Wood,"Scotland, UK",,"Scotland, United Kingdom",56.7861112,-4.1140518
235,Code,Show Name,Location,Scene,"Location, Tucker County, West Virginia, United States of America",39.2138905,-79.6371124
236,/title/tt9735758/,Boyz in the Wood,"Scotland, UK",,"Scotland, United Kingdom",56.7861112,-4.1140518
237,/title/tt0076666/,Saturday Night Fever,"86th Street, Brooklyn, New York City, New York, USA",(opening sequence: Tony's Walk)                        ,"86th Street, Gravesend, Brooklyn, Kings County, New York, 11223, United States of America",40.592721,-73.97823
238,/title/tt0076666/,Saturday Night Fever,"Lenny's Pizza - 1969 86th Street, Bensonhurst, Brooklyn, New York City, New York, USA",(opening sequence: Tony's Walk)                        ,,,
239,/title/tt0076666/,Saturday Night Fever,"Verrazano-Narrows Bridge, New York City, New York, USA",,,,
240,/title/tt0076666/,Saturday Night Fever,"94th St. and Fifth Avenue, Bay Ridge, Brooklyn, New York City, New York, USA","(Tony has coffee and Stephanie has tea, closed)                        ",,,
241,/title/tt0076666/,Saturday Night Fever,"John J. Carty Park, Bay Ridge, Brooklyn, New York City, New York, USA",(basketball court)                        ,,,
242,/title/tt0076666/,Saturday Night Fever,"Manhattan, New York City, New York, USA",,"Manhattan, New York County, New York, United States of America",40.7896239,-73.9598939
243,/title/tt0076666/,Saturday Night Fever,"Phillips Dance Studio - 1301 W. Seventh Street, Bensonhurst, Brooklyn, New York City, New York, USA",(studio) (Dance Studio Location is Closed)                        ,,,
244,/title/tt0076666/,Saturday Night Fever,"Brooklyn Bridge, New York City, New York, USA",,"Brooklyn Bridge, Dover Street, Financial District, Manhattan Community Board 1, Manhattan, New York County, New York, 10038, United States of America",40.70569125,-73.9963578678543
245,/title/tt0475293/,High School Musical,"East High School - 840 S 1300 E, Salt Lake City, Utah, USA",,,,
246,/title/tt0475293/,High School Musical,"Murray, Utah, USA",(theater)                        ,"Murray, Utah, United States of America",40.6667841,-111.888417
247,/title/tt1980929/,Begin Again,"Meatpacking District, Manhattan, New York City, New York, USA",,"Meatpacking District, Manhattan Community Board 2, Manhattan, New York County, New York, 100014, United States of America",40.7408029,-74.0080691
248,/title/tt1980929/,Begin Again,"Lower East Side, Manhattan, New York City, New York, USA",,"Lower East Side, Manhattan Community Board 3, Manhattan, New York County, New York, United States of America",40.7159357,-73.9868057
249,/title/tt1980929/,Begin Again,"Gary's Loft - 28 W 36th St, Manhattan, New York, USA",,,,
250,/title/tt1980929/,Begin Again,"Broad Street Subway Station, Financial District, Manhattan, New York, USA",,,,
251,/title/tt1980929/,Begin Again,"14th Street-Union Square Subway Station, East 14th Street, Park Avenue & Broadway, Manhattan, New York, USA",,,,
252,/title/tt1980929/,Begin Again,"Schiller's Liquor Bar, 131 Rivington Street, New York City, New York, USA",,"Schiller's liquor bar, 131, Rivington Street, Lower East Side, Manhattan Community Board 3, Manhattan, New York County, New York, 10002, United States of America",40.7194705,-73.9866762
253,/title/tt0105793/,Wayne's World,"Berwyn, Illinois, USA",,"Berwyn, Cook County, Illinois, 60402, United States of America",41.8505874,-87.7936685
254,/title/tt0105793/,Wayne's World,"Citrus Avenue and College Street, Covina, California, USA",(Where they pull up next to the Rolls Royce and do the Grey Poupon joke)                        ,,,
255,/title/tt0105793/,Wayne's World,"Chicago, Illinois, USA",,"Chicago, Cook County, Illinois, United States of America",41.8755616,-87.6244212
256,/title/tt0105793/,Wayne's World,"Scottsdale, Arizona, USA",,"Scottsdale, Maricopa County, Arizona, United States of America",33.4942189,-111.9260184
257,/title/tt0105793/,Wayne's World,"1220 N La Brea Ave, Inglewood, California, USA",(Stan Mikita's Donuts)                        ,"1220, North La Brea Avenue, Inglewood, Los Angeles County, California, 90302, United States of America",33.97862395673179,-118.35762709740214
258,/title/tt0105793/,Wayne's World,"Liberty Park - Studebaker Road & Bigelow Street, Cerritos, California, USA",(Wayne gets pulled over by the T-1000.)                        ,,,
259,/title/tt0105793/,Wayne's World,"Los Angeles County Arboretum & Botanic Garden - 301 N. Baldwin Avenue, Arcadia, California, USA",(waterfall- during Cassandra's video shoot)                        ,,,
260,/title/tt0105793/,Wayne's World,"Citrus Avenue and College Street, Covina, California, USA","(Store with green neon window outlines, where they pick up friend on bench, who's ready to hurl)                        ",,,
261,/title/tt0105793/,Wayne's World,"901 North Maclay Avenue, San Fernando, California, USA","(Cassell's Music store, with Wayne's dream guitar)                        ",,,
262,/title/tt0105793/,Wayne's World,"2256 West Irving Park Road, Chicago, Illinois, USA","(Chicago Joe's Chicago Joe's Restaurant Bar & Grill, they drive past during head thrashing scene)                        ","2254-2256, West Irving Park Road, North Center, Roscoe Village, Chicago, Cook County, Illinois, 60625, United States of America",41.95435165000001,-87.68584024234791
263,/title/tt0105793/,Wayne's World,"7105 Texhoma Avenue, Van Nuys, Los Angeles, California, USA",(Wayne's house)                        ,,,
264,/title/tt0120888/,The Wedding Singer,"43 Sierra Place, Sierra Madre, California, USA",(Julia's house)                        ,"43, Sierra Place, Sierra Madre, Los Angeles County, California, 91024, United States of America",34.160940625,-118.049835875
265,/title/tt0120888/,The Wedding Singer,"La Canada, California, USA",,"La Canada, Bloomington, San Bernardino County, California, 92316, United States of America",34.06053,-117.401894
266,/title/tt0120888/,The Wedding Singer,"The Huntington Library, Art Collections, and Botanical Gardens - 1151 Oxford Rd, San Marino, California, USA",(Garden where Robbie and Linda are supposed to be married)                        ,,,
267,/title/tt0120888/,The Wedding Singer,"Los Angeles, California, USA",,"Los Angeles, Los Angeles County, California, United States of America",34.0536909,-118.2427666
268,/title/tt0120888/,The Wedding Singer,"Pasadena, California, USA",,"Pasadena, Los Angeles County, California, United States of America",34.1476452,-118.1444779
269,/title/tt0120888/,The Wedding Singer,"West Hollywood, California, USA",,"West Hollywood, Los Angeles County, California, United States of America",34.0923014,-118.3692894
270,/title/tt0298203/,8 Mile,"Detroit, Michigan, USA",,"Detroit, Wayne County, Michigan, United States of America",42.3315509,-83.0466403
271,/title/tt0298203/,8 Mile,"Chin Tiki Club - 2121 Cass Avenue, Detroit, Michigan, USA",,,,
272,/title/tt0298203/,8 Mile,"Michigan Theater - 238 Bagley Street, Detroit, Michigan, USA",,,,
273,/title/tt0298203/,8 Mile,"Clifford & Griswold Streets, Detroit, Michigan, USA","(""The Shelter"" night club set)                        ",,,
274,/title/tt0298203/,8 Mile,"New York City, New York, USA",,"New York, United States of America",40.7127281,-74.0060152
275,/title/tt0298203/,8 Mile,"Queens, New York City, New York, USA",,"Queens, Queens County, New York, United States of America",40.7498243,-73.7976337
276,/title/tt0099422/,Dick Tracy,"Warner Brothers Burbank Studios - 4000 Warner Boulevard, Burbank, California, USA",,,,
277,/title/tt0099422/,Dick Tracy,"Los Angeles, California, USA",,"Los Angeles, Los Angeles County, California, United States of America",34.0536909,-118.2427666
278,/title/tt0099422/,Dick Tracy,USA,,United States,39.7837304,-100.4458825
279,/title/tt2062700/,Song to Song,"Austin, Texas, USA",,"Austin, Travis County, Texas, United States of America",30.2711286,-97.7436995
280,/title/tt2062700/,Song to Song,"Mérida, Yucatán, Mexico",,"Mérida, Yucatán, México",20.9670759,-89.6237402
281,/title/tt2062700/,Song to Song,Mexico,,"Ciudad de México, 06060, México",19.4326296,-99.1331785
282,/title/tt2062700/,Song to Song,"Texas, USA",,"Texas, United States of America",31.8160381,-99.5120986
283,/title/tt2543796/,Girl Meets World,"Los Angeles Center Studios - 450 S. Bixel Street, Downtown, Los Angeles, California, USA",(studio)                        ,,,
284,/title/tt0443489/,Dreamgirls,"Los Angeles Center Studios - 450 S. Bixel Street, Downtown, Los Angeles, California, USA",(studio)                        ,,,
285,/title/tt0443489/,Dreamgirls,"Orpheum Theater - 842 South Broadway, Downtown, Los Angeles, California, USA",,,,
286,/title/tt0443489/,Dreamgirls,"Hollywood Palace Theater - 1735 N. Vine Street, Hollywood, Los Angeles, California, USA",,,,
287,/title/tt9779516/,I Still Believe,"Mobile, Alabama, USA",,"Mobile, Mobile County, Alabama, United States of America",30.6943566,-88.0430541
288,/title/tt9779516/,I Still Believe,"California, USA",,"California, United States of America",36.7014631,-118.7559974
289,/title/tt3228904/,Empire,"Chicago, Illinois, USA",,"Chicago, Cook County, Illinois, United States of America",41.8755616,-87.6244212
290,/title/tt3228904/,Empire,"353 North Clark Street, Chicago, Illinois, USA",(Empire HQ - 3353 Madison Avenue)                        ,"353 North Clark, 353, North Clark Street, Near North Side, Chicago, Cook County, Illinois, 60654, United States of America",41.8889806,-87.63015659327661
291,/title/tt0053291/,Some Like It Hot,"Hotel del Coronado - 1500 Orange Avenue, Coronado, California, USA",(Seminole Ritz Hotel)                        ,"Hotel Del Coronado, 1500, Orange Avenue, Coronado, San Diego County, California, 92118, United States of America",32.68089575,-117.17779096849321
292,/title/tt0053291/,Some Like It Hot,"The Lot - 1041 N. Formosa Avenue, West Hollywood, California, USA",(studio)                        ,,,
293,/title/tt0463398/,Dancing with the Stars,"Studio 46, CBS Television City - 7800 Beverly Boulevard, Fairfax, Los Angeles, California, USA",(studio)                        ,,,
294,/title/tt0088258/,This Is Spinal Tap,"Six Flags Magic Mountain - 26101 Magic Mountain Parkway, Valencia, California, USA",,,,
295,/title/tt0088258/,This Is Spinal Tap,"Sherman Oaks, Los Angeles, California, USA",,"Sherman Oaks, Los Angeles, Los Angeles County, California, 91403, United States of America",34.1508718,-118.4489865
296,/title/tt0088258/,This Is Spinal Tap,USA,,United States,39.7837304,-100.4458825
297,/title/tt0200550/,Coyote Ugly,"South Amboy, New Jersey, USA",,"South Amboy, Middlesex County, New Jersey, United States of America",40.4917725,-74.2832017
298,/title/tt0200550/,Coyote Ugly,"Tower Theatre - 802 S. Broadway, Downtown, Los Angeles, California, USA",,"Tower Theatre, 802, South Broadway, Historic Core District, Downtown, Los Angeles, Los Angeles County, California, 90013, United States of America",34.043458799999996,-118.25452018117771
299,/title/tt0200550/,Coyote Ugly,"Ambassador Hotel - 3400 Wilshire Boulevard, Los Angeles, California, USA",,,,
300,/title/tt0200550/,Coyote Ugly,"South Amboy Knights of Columbus, 308 Fourth Street, South Amboy, New Jersey, USA",(Establishing shot for Gloria's wedding reception)                        ,,,
301,/title/tt0200550/,Coyote Ugly,"The Cheesequake Creek Morgan Drawbridge, South Amboy & Old Bridge, New Jersey, USA",(Deleted scene)                        ,,,
302,/title/tt0200550/,Coyote Ugly,"Downtown, Los Angeles, California, USA",,"Downtown, Los Angeles, Los Angeles County, California, United States of America",34.0428494,-118.2476732
303,/title/tt0200550/,Coyote Ugly,"California, USA",,"California, United States of America",36.7014631,-118.7559974
304,/title/tt0200550/,Coyote Ugly,"New York, USA",,"New York, United States of America",40.7127281,-74.0060152
305,/title/tt4765284/,Pitch Perfect 3,"Atlanta, Georgia, USA",,"Atlanta, Georgia, United States of America",33.7490987,-84.3901849
306,/title/tt4765284/,Pitch Perfect 3,"Promenade des Anglais, Nice, Alpes-Maritimes, France",(Scene)                        ,"Promenade des Anglais, Vieux Nice, Nice, Alpes-Maritimes, Provence-Alpes-Côte d'Azur, France métropolitaine, France",43.686018,7.23752931889528
307,/title/tt4765284/,Pitch Perfect 3,"Cadiz, Spain",,"Cádiz, Bahía de Cádiz, Andalucía, España",36.5297438,-6.2928976
308,/title/tt0051139/,Untamed Youth,"Bakersfield, California, USA",,"Bakersfield, Kern County, California, United States of America",35.3738712,-119.0194639
309,/title/tt0107822/,The Piano,"Auckland, New Zealand",,"Auckland, 1010, New Zealand",-36.852095,174.7631803
310,/title/tt0107822/,The Piano,"Piha, Waitakere, Auckland Region, New Zealand",,,,
311,/title/tt0065333/,The Partridge Family,"Blondie Street, Columbia/Warner Bros. Ranch - 411 North Hollywood Way, Burbank, California, USA",,,,
312,/title/tt0065333/,The Partridge Family,"Columbia/Warner Bros. Ranch - 411 North Hollywood Way, Burbank, California, USA",(stage 29 and most exteriors)                        ,,,
313,/title/tt1068242/,Footloose,"Kennesaw, Georgia, USA",,"Kennesaw, Cobb, Georgia, United States of America",34.0234337,-84.6154897
314,/title/tt1068242/,Footloose,"Dallas, Georgia, USA",,"Dallas, Paulding County, Georgia, United States of America",33.9237141,-84.8407732
315,/title/tt1068242/,Footloose,"Senoia, Georgia, USA",,"Senoia Tree farm, Redbone, Lamar County, Georgia, United States of America",33.004109549999995,-84.12504155771607
316,/title/tt1068242/,Footloose,"Acworth, Georgia, USA",,"Acworth, Cobb, Georgia, United States of America",34.0659329,-84.6768796
317,/title/tt1398426/,Straight Outta Compton,"Los Angeles, California, USA",,"Los Angeles, Los Angeles County, California, United States of America",34.0536909,-118.2427666
318,/title/tt1398426/,Straight Outta Compton,"Los Angeles Memorial Sports Arena - 3939 S. Figueroa Street, Los Angeles, California, USA",(Arena Scenes)                        ,,,
319,/title/tt1398426/,Straight Outta Compton,"Hollywood Forever Cemetery - 6000 Santa Monica Blvd., Hollywood, Los Angeles, California, USA",(Funeral Scene)                        ,,,
320,/title/tt1398426/,Straight Outta Compton,"The Bridge Recording, 736 Salem Street, Glendale, California, USA","(Police Harassment Scene, exterior)                        ",,,
321,/title/tt1321510/,In the Heights,"Washington Heights, New York City, New York, USA",(In Washington Heights)                        ,"Washington Heights, Manhattan Community Board 12, Manhattan, New York County, New York, United States of America",40.8401984,-73.9402214
322,/title/tt2473602/,Get on Up,"Natchez, Mississippi, USA",,"Natchez, Adams County, Mississippi, United States of America",31.5604442,-91.403171
323,/title/tt0108147/,Sister Act 2: Back in the Habit,"Bank of America Building - 555 California Street, San Francisco, California, USA",,"Bank of America Building, 555, California Street, Chinatown, San Francisco, San Francisco City and County, California, 90104, United States of America",37.792103299999994,-122.40374513697353
324,/title/tt0108147/,Sister Act 2: Back in the Habit,"San Francisco, California, USA",,"San Francisco, San Francisco City and County, California, United States of America",37.7790262,-122.4199061
325,/title/tt0108147/,Sister Act 2: Back in the Habit,"City College of San Francisco, Alemany Campus - 750 Eddy Street, San Francisco, California, USA",,,,
326,/title/tt0108147/,Sister Act 2: Back in the Habit,"Las Vegas, Nevada, USA",,"Las Vegas, Clark County, Nevada, United States of America",36.1672559,-115.1485163
327,/title/tt0108147/,Sister Act 2: Back in the Habit,"Ramsay-Durfee Estate - 2425 S Western Ave, Los Angeles, California, USA",,,,
328,/title/tt2042568/,Inside Llewyn Davis,"Medford, Minnesota, USA",(road scenes)                        ,"Medford, Steele County, Minnesota, United States of America",44.1741299,-93.2463242
329,/title/tt2042568/,Inside Llewyn Davis,"422 East 9th Street, Manhattan, New York City, New York, USA",(Gaslight cafe exteriors)                        ,"Good Beer, 422, East 9th Street, East Village, Manhattan Community Board 3, Manhattan, New York County, New York, 10009, United States of America",40.7276003,-73.9838498
330,/title/tt2042568/,Inside Llewyn Davis,"Christopher Street, Greenwich Village, Manhattan, New York City, New York, USA",(Llewyn exits subway with the cat)                        ,"Christopher Street, Greenwich Village, Manhattan Community Board 2, Manhattan, New York County, New York, 10011-6832, United States of America",40.7341288,-73.9993539
331,/title/tt2042568/,Inside Llewyn Davis,"South Holland, Illinois, USA",(Abraham Lincoln Oasis)                        ,"South Holland, Thornton Township, Cook County, Illinois, 60473, United States of America",41.6008681,-87.6069894
332,/title/tt2042568/,Inside Llewyn Davis,"Greenwich Village, Manhattan, New York City, New York, USA",,"Greenwich Village, 7th Avenue South, West Village, Manhattan Community Board 2, Manhattan, New York County, New York, 10014, United States of America",40.7335844,-74.0028172
333,/title/tt2042568/,Inside Llewyn Davis,"New Rochelle, New York, USA",(As per credits)                        ,"New Rochelle, Westchester County, New York, United States of America",40.9115386,-73.7826363
334,/title/tt2042568/,Inside Llewyn Davis,"Pace University - 235 Elm Road, Briarcliff Manor, New York, USA",(Fred Harvey Oasis Dining Room)                        ,,,
335,/title/tt0103855/,The Bodyguard,"Beverly House - 1011 N. Beverly Drive, Beverly Hills, California, USA",(Rachel's estate - exteriors)                        ,,,
336,/title/tt0103855/,The Bodyguard,"Newark, New Jersey, USA",,"Newark, Essex County, New Jersey, United States of America",40.735657,-74.1723667
337,/title/tt0103855/,The Bodyguard,"Little Tokyo, Los Angeles, California, USA",,"Little Tokyo, Los Angeles, Los Angeles County, California, United States of America",34.0510343,-118.2386102
338,/title/tt0103855/,The Bodyguard,"Los Angeles City Hall - 200 North Spring Street, Downtown, Los Angeles, California, USA",,"Los Angeles City Hall, 200, North Spring Street, Civic Center, Downtown, Los Angeles, Los Angeles County, California, 90012, United States of America",34.0537767,-118.2428987
339,/title/tt0103855/,The Bodyguard,"Downtown, Los Angeles, California, USA",,"Downtown, Los Angeles, Los Angeles County, California, United States of America",34.0428494,-118.2476732
340,/title/tt0103855/,The Bodyguard,"Hollywood Palladium - 6215 Sunset Blvd., Hollywood, Los Angeles, California, USA",(backdrop)                        ,,,
341,/title/tt0103855/,The Bodyguard,"Lake Tahoe, California, USA",(Retreat)                        ,"Lake Tahoe, California, 96140, United States of America",39.08854049999999,-120.05035277301698
342,/title/tt0103855/,The Bodyguard,"Los Angeles, California, USA",,"Los Angeles, Los Angeles County, California, United States of America",34.0536909,-118.2427666
343,/title/tt0103855/,The Bodyguard,"Park Plaza Hotel - 607 S. Park View Street, Los Angeles, California, USA",(Oscars Academy Awards Ceremony - arrivals and exteriors)                        ,,,
344,/title/tt0103855/,The Bodyguard,"Sunset Blvd., Hollywood, Los Angeles, California, USA",,"Sunset Boulevard, East Hollywood, Los Angeles, Los Angeles County, California, 90027-5517, United States of America",34.0981514,-118.2912164
345,/title/tt0103855/,The Bodyguard,"Captiva Island, Florida, USA",,"Captiva Island, Lee County, Florida, 33924, United States of America",26.5275781,-82.1948171
346,/title/tt0103855/,The Bodyguard,"Fallen Leaf Road, Lake Tahoe, California, USA",(Retreat)                        ,,,
347,/title/tt0103855/,The Bodyguard,"Fontainebleau Hilton Resort - 4441 Collins Avenue, Miami Beach, Florida, USA",(AIDS Charity Benefit Concert)                        ,,,
348,/title/tt0103855/,The Bodyguard,"Miami Beach, Florida, USA",,"Miami Beach, Miami-Dade County, Florida, United States of America",25.7929198,-80.1353006
349,/title/tt0103855/,The Bodyguard,"Pantages Theater - 6233 Hollywood Blvd., Hollywood, Los Angeles, California, USA",(Oscars Academy Awards Ceremony - interiors)                        ,"Pantages Theater, Walk of Fame, Whitley Heights Historic District, Hollywood, Los Angeles, Los Angeles County, California, 90028-5420, United States of America",34.1022047,-118.32576733237735
350,/title/tt0146882/,High Fidelity,"Double Door - 1572 N. Milwaukee Avenue, West Town, Chicago, Illinois, USA",,,,
351,/title/tt0146882/,High Fidelity,USA,,United States,39.7837304,-100.4458825
352,/title/tt0146882/,High Fidelity,"Lane Technical High School - 2501 W. Addison Street, North Center, Chicago, Illinois, USA",,,,
353,/title/tt0146882/,High Fidelity,"Rogers Park, Chicago, Illinois, USA",,"Rogers Park, Chicago, Cook County, Illinois, 60626, United States of America",42.01053135,-87.67074819664808
354,/title/tt0146882/,High Fidelity,"Illinois, USA",,"Illinois, United States of America",40.0796606,-89.4337288
355,/title/tt0146882/,High Fidelity,"North Center, Chicago, Illinois, USA",,"North Center, Roscoe Village, Chicago, Cook County, Illinois, 60618-9997, United States of America",41.9561073,-87.6791596
356,/title/tt0146882/,High Fidelity,"West Town, Chicago, Illinois, USA",,"West Town, Chicago, Cook County, Illinois, United States of America",41.9014213,-87.6861661
357,/title/tt0146882/,High Fidelity,"Cesar E. Chavez Park - 11 Spinnaker Way, Berkeley, California, USA",,,,
358,/title/tt0146882/,High Fidelity,"Sauganash, Forest Glen, Chicago, Illinois, USA",,"Sauganash Park, Forest Glen, Chicago, Jefferson Township, Cook County, Illinois, United States of America",41.98816135,-87.73725549059438
359,/title/tt0146882/,High Fidelity,"Manhattan, New York City, New York, USA",(Dream Sequence)                        ,"Manhattan, New York County, New York, United States of America",40.7896239,-73.9598939
360,/title/tt6473066/,Clouds,"Montreal, Canada",,"Montréal, Agglomération de Montréal, Montréal (06), Québec, Canada",45.4972159,-73.6103642
361,/title/tt2077886/,The Phantom of the Opera at the Royal Albert Hall,"Royal Albert Hall, South Kensington, London, England, UK",(performance venue)                        ,"Royal Albert Hall, 4, Kensington Gore, Knightsbridge, City of Westminster, London, Greater London, England, SW7 2AP, United Kingdom",51.501004449999996,-0.17739457896545874
362,/title/tt3502172/,Mozart in the Jungle,"Purchase, New York, USA",(interior concert scenes)                        ,"Purchase, Harrison, Westchester County, New York, 10577, United States of America",41.0409305,-73.7145746
363,/title/tt0105417/,Sister Act,"St. Paul's Church, Church Street, Noe Valley, San Francisco, California, USA",,,,
364,/title/tt0105417/,Sister Act,"Reno Main Post Office, 50 S. Virginia Street, Reno, Nevada, USA",(Police Station Exteriors)                        ,,,
365,/title/tt0105417/,Sister Act,"Hollywood United Methodist Church - 6817 Franklin Avenue, Hollywood, Los Angeles, California, USA",,,,
366,/title/tt0105417/,Sister Act,"Virginia Street, Reno, Nevada, USA",,,,
367,/title/tt0105417/,Sister Act,"Santa Monica Airport - 3223 Donald Douglas Loop S., Santa Monica, California, USA",,"Santa Monica Airport, Donald Douglas Loop South, Santa Monica, Los Angeles County, California, 90405, United States of America",34.0174769,-118.44755251631068
368,/title/tt0105417/,Sister Act,"195 N. Virginia Street, Reno, Nevada, USA",(Whoopi Goldberg's Apartment)                        ,"195, North Virginia Street, Reno, Washoe County, Nevada, 89501, United States of America",39.526692499999996,-119.8136225024713
369,/title/tt0105417/,Sister Act,"Hall Realty, Church Street, San Francisco, California, USA",,"Hall Realty, 1651, Church Street, Noe Valley, San Francisco, San Francisco City and County, California, 94110, United States of America",37.7444047,-122.4266021
370,/title/tt0105417/,Sister Act,"Los Angeles, California, USA",,"Los Angeles, Los Angeles County, California, United States of America",34.0536909,-118.2427666
371,/title/tt0105417/,Sister Act,USA,,United States,39.7837304,-100.4458825
372,/title/tt0322330/,Freaky Friday,"Dorris Place Elementary School - 2225 Dorris Place, Los Angeles, California, USA",,,,
373,/title/tt0322330/,Freaky Friday,"Argyle Hotel - 8358 Sunset Blvd., West Hollywood, California, USA",,,,
374,/title/tt0322330/,Freaky Friday,"Palisades High School - 15777 Bowdoin Street, Pacific Palisades, Los Angeles, California, USA",,,,
375,/title/tt0322330/,Freaky Friday,"Pacific Palisades, Los Angeles, California, USA",,"Pacific Palisades, Los Angeles, Los Angeles County, California, United States of America",34.0480643,-118.5264706
376,/title/tt2268016/,Magic Mike XXL,"Tybee Island, Georgia, USA",(Mike's beach rental house at the corner of Solomon and 2nd Avenue)                        ,"Tybee Island, Chatham County, Georgia, 31328, United States of America",31.9987321,-80.8469427
377,/title/tt2268016/,Magic Mike XXL,"Myrtle Beach, South Carolina, USA",,"Myrtle Beach, Horry County, South Carolina, United States of America",33.6956461,-78.8900409
378,/title/tt2268016/,Magic Mike XXL,"Jekyll Island, Georgia, USA",(Jekyll Island Convention Center - Stripper Convention Exterior)                        ,"Jekyll Island, Glynn County, Georgia, 31527, United States of America",31.0655982,-81.41431464659931
379,/title/tt2268016/,Magic Mike XXL,"Tybee Island, Georgia, USA",(Dunes Inn & Suites located at 1409 Butler Avenue) (pool party & hotel room scenes)                        ,"Tybee Island, Chatham County, Georgia, 31328, United States of America",31.9987321,-80.8469427
380,/title/tt2268016/,Magic Mike XXL,"Savannah, Georgia, USA",(Gentlemen's Club located on Montgomery Cross Road) (Mad Mary's Drag Club scene)                        ,"Savannah, Chatham County, Georgia, United States of America",32.0809263,-81.0911768
381,/title/tt0249462/,Billy Elliot,"Easington, Peterlee, County Durham, England, UK",(Rialto Cinema)                        ,"Easington, County Durham, North East England, England, SR8 3FE, United Kingdom",54.7850506,-1.3530807
382,/title/tt0249462/,Billy Elliot,"Tees Transporter Bridge, Middlesbrough, North Yorkshire, England, UK",(Mrs Wilkinson is seen on it)                        ,,,
383,/title/tt0249462/,Billy Elliot,"Canary Wharf Underground Station, Canary Wharf, Isle of Dogs, London, England, UK",,"Adam, Reuters Plaza, Canary Wharf, Isle of Dogs, London Borough of Tower Hamlets, London, Greater London, England, E14 5AJ, United Kingdom",51.5037578,-0.0192977
384,/title/tt0249462/,Billy Elliot,"Dawdon, Seaham, County Durham, England, UK",(Bus station where Billy leaves for London)                        ,"Dawdon Crescent, Seaham, County Durham, North East England, England, SR7 7RH, United Kingdom",54.8305684,-1.3340567
385,/title/tt0249462/,Billy Elliot,"Newbiggin-by-the-Sea, Northumberland, England, UK",,"Newbiggin by the Sea, Northumberland, North East England, England, United Kingdom",55.1853665,-1.5109345
386,/title/tt0249462/,Billy Elliot,"Royal Ballet School, White Lodge, Richmond Park, Richmond, Surrey, England, UK",(Billy studies and trains for ballet)                        ,,,
387,/title/tt0249462/,Billy Elliot,"Pink Lane, Newcastle-Upon-Tyne, Tyne & Wear, England, UK",,"Pink Lane, Grainger Town, Newcastle upon Tyne, Tyne and Wear, North East England, England, NE1 5DW, United Kingdom",54.96967,-1.6189428
388,/title/tt0249462/,Billy Elliot,"Northfield School, Billingham, Middlesbrough, North Yorkshire, England, UK",(The school Billy attends)                        ,,,
389,/title/tt2848292/,Pitch Perfect 2,"Baton Rouge, Louisiana, USA",,"Baton Rouge, East Baton Rouge Parish, Louisiana, United States of America",30.4459596,-91.18738
390,/title/tt0462200/,Black Snake Moan,"Memphis, Tennessee, USA",,"Memphis, Shelby County, Tennessee, United States of America",35.1490215,-90.0516285
391,/title/tt0462200/,Black Snake Moan,"Tennessee, USA",,"Tennessee, United States of America",35.7730076,-86.2820081
392,/title/tt5117428/,Wild Rose,"Glasgow, Scotland, UK",,"Glasgow, Glasgow City, Scotland, G2 9SA, United Kingdom",55.8609825,-4.2488787
393,/title/tt5117428/,Wild Rose,"London, England, UK",,"London, Greater London, England, United Kingdom",51.5073219,-0.1276474
394,/title/tt0411705/,9 Songs,"Brixton Academy - 211 Stockwell Road, Brixton, London, England, UK","(""mosh pit"" concert scenes)                        ","O2 Academy Brixton, 211, Stockwell Road, Stockwell, London Borough of Lambeth, London, Greater London, England, SW9 9SL, United Kingdom",51.4656899,-0.11486140772733028
395,/title/tt0411705/,9 Songs,"Islington, London, England, UK",,"Islington, Greater London, England, N1, United Kingdom",51.5384287,-0.0999051
396,/title/tt0411705/,9 Songs,Norway,,"Norge, Namsos, Trøndelag, Norge",64.5731537,11.52803643954819
397,/title/tt0475290/,"Hail, Caesar!","Warner Brothers Burbank Studios - 4000 Warner Boulevard, Burbank, California, USA",(studio) (Capitol Studios exteriors)                        ,,,
398,/title/tt0475290/,"Hail, Caesar!","Los Angeles, California, USA",,"Los Angeles, Los Angeles County, California, United States of America",34.0536909,-118.2427666
399,/title/tt0475290/,"Hail, Caesar!","Walker Residence - 26336 Scenic Road, Carmel-by-the-Sea, California, USA",(Malibu home where Whitlock is held for ransom.)                        ,,,
400,/title/tt0475290/,"Hail, Caesar!","Good Luck Bar - 1514 Hillhurst Ave, Los Angeles, California, USA",(Chinese restaurant)                        ,"Good Luck Bar, 1514, Hillhurst Avenue, Los Feliz, Los Angeles, Los Angeles County, California, 90027, United States of America",34.0986066,-118.2872764
401,/title/tt0475290/,"Hail, Caesar!","Pelican Cove Park, 31300 Palos Verdes Dr. S., Rancho Palos Verdes, California, USA",(as Malibu)                        ,,,
402,/title/tt0475290/,"Hail, Caesar!","First Congregational Church - 540 S. Commonwealth Avenue, Los Angeles, California, USA",(church interiors)                        ,,,
403,/title/tt0475290/,"Hail, Caesar!","Sony Pictures Studios - 10202 W. Washington Blvd., Culver City, California, USA",(water ballet and other sound stages)                        ,,,
404,/title/tt0475290/,"Hail, Caesar!","Vasquez Rocks Natural Area Park - 10700 W. Escondido Canyon Rd., Agua Dulce, California, USA",(shooting of the western)                        ,,,
405,/title/tt0475290/,"Hail, Caesar!","Harvey Apartments - 5640 Santa Monica Boulevard, Los Angeles, California, USA",(Hotel & Barber Shop across the street from Joseph Silverman's office.)                        ,,,
406,/title/tt0475290/,"Hail, Caesar!","Downtown, Los Angeles, California, USA",,"Downtown, Los Angeles, Los Angeles County, California, United States of America",34.0428494,-118.2476732
407,/title/tt0475290/,"Hail, Caesar!",USA,,United States,39.7837304,-100.4458825
408,/title/tt3544112/,Sing Street,"St. Catherine's Park, Hanbury Lane, Dublin, Ireland",(park exteriors)                        ,,,
409,/title/tt3544112/,Sing Street,"Dún Laoghaire Harbour East, Dún Laoghaire-Rathdown, County Dublin, Ireland","(Site of ""A Beautiful Sea"" video and where Conor returns to look across the sea to Britain after Raphina has left.)                        ",,,
410,/title/tt3544112/,Sing Street,"Dalkey Island, Dublin, County Dublin, Ireland",(Location)                        ,"Dalkey Island, Shankill-Rathsallagh ED, Dalkey, Dún Laoghaire-Rathdown, County Dublin, Leinster, Ireland",53.27186485,-6.084156234497692
411,/title/tt3544112/,Sing Street,"Sancta Maria Primary School, Synge Street, Dublin, Ireland",(First sight of Raphina from the entrance here)                        ,"Sancta Maria Primary School, Synge Street, Portobello, Saint Kevin's, Dublin, County Dublin, Leinster, D08 W8HD, Ireland",53.3335713,-6.267206257780269
412,/title/tt3544112/,Sing Street,"Frederick Street North, Rotunda, Dublin, Ireland","(site of Conor and Raphina's coversation as he ""spins"" her home - site of DeafHear.ie anachronism)                        ",,,
413,/title/tt3544112/,Sing Street,"143 Greenlea Road, Dublin, Ireland","(Eamon's house, where the band practice)                        ","Greenlea Road, Kimmage (pt. Rathfarnham C.P.), Terenure C ED, Dublin, County Dublin, Leinster, DUBLIN 6W, Ireland",53.3082517,-6.2958105
414,/title/tt0445922/,Across the Universe,"Winnipeg, Manitoba, Canada",(location)                        ,"Winnipeg, Winnipeg (city), Manitoba, Canada",49.8955367,-97.1384584
415,/title/tt0445922/,Across the Universe,"Fort Perch Rock, Wirral, Merseyside, England, UK",(the lighthouse)                        ,,,
416,/title/tt0445922/,Across the Universe,"ABC No Rio, 156 Rivington Street, New York City, New York, USA",(Cafe Huh? Exterior)                        ,"ABC No RIo, 156, Rivington Street, Lower East Side, Manhattan Community Board 3, Manhattan, New York County, New York, 10002, United States of America",40.7192813,-73.9853944
417,/title/tt0445922/,Across the Universe,"Katz's Delicatessen - 205 East Houston Street, East Village, Manhattan, New York City, New York, USA",(location)                        ,,,
418,/title/tt0445922/,Across the Universe,"Princeton University, Princeton, New Jersey, USA",(location)                        ,"Art Museum, Elm Drive, Princeton, Mercer County, New Jersey, 08544, United States of America",40.346995,-74.65763484228626
419,/title/tt0445922/,Across the Universe,"New York City, New York, USA",(location)                        ,"New York, United States of America",40.7127281,-74.0060152
420,/title/tt0445922/,Across the Universe,"Yonkers, New York, USA",(location)                        ,"Yonkers, Westchester County, New York, United States of America",40.9312099,-73.8987469
421,/title/tt0445922/,Across the Universe,"Steiner Studios - 15 Washington Avenue, Brooklyn Navy Yard, Brooklyn, New York City, New York, USA",(studio)                        ,,,
422,/title/tt0117887/,That Thing You Do!,"Dresden Room Restaurant - 1760 N. Vermont Avenue, Los Feliz, Los Angeles, California, USA",(Guy meets Del Paxton.)                        ,,,
423,/title/tt0117887/,That Thing You Do!,"Orpheum Theater - 842 South Broadway, Downtown, Los Angeles, California, USA",(Recongnizable Location)                        ,,,
424,/title/tt0117887/,That Thing You Do!,"Leo Carrillo State Beach - 35000 W. Pacific Coast Highway, Malibu, California, USA",,,,
425,/title/tt0117887/,That Thing You Do!,"Erie, Pennsylvania, USA",,"Erie, Erie County, Pennsylvania, United States of America",42.1294712,-80.0852695
426,/title/tt0117887/,That Thing You Do!,"Hollywood United Methodist Church - 6817 Franklin Avenue, Hollywood, Los Angeles, California, USA",,,,
427,/title/tt0117887/,That Thing You Do!,"Umami Burger - 852 S. Broadway, Los Angeles, California, USA",(Take-out restaurant where Guy is introduced to Mr. White.)                        ,"Umami Burger, 852, South Broadway, Historic Core District, Downtown, Los Angeles, Los Angeles County, California, 90015, United States of America",34.0424851,-118.2556527
428,/title/tt0117887/,That Thing You Do!,"Orange, California, USA",,"Orange County, California, United States of America",33.7500378,-117.8704931
429,/title/tt0117887/,That Thing You Do!,"Henderson, Nevada, USA",,"Henderson, Clark County, Nevada, United States of America",36.0301134,-114.9826194
430,/title/tt0117887/,That Thing You Do!,"Oil field, north of, Brea, California, USA",,,,
431,/title/tt0117887/,That Thing You Do!,"Pasadena, California, USA",,"Pasadena, Los Angeles County, California, United States of America",34.1476452,-118.1444779
432,/title/tt0117887/,That Thing You Do!,"CBS Television City - 7800 Beverly Boulevard, Fairfax, Los Angeles, California, USA",(studio) (studio 33) (Hollywood Showcase scenes)                        ,"CBS Television City, Beverly Boulevard, Fairfax, Los Angeles, Los Angeles County, California, 90036, United States of America",34.0746936,-118.35963130080704
433,/title/tt0117887/,That Thing You Do!,"Los Angeles, California, USA",,"Los Angeles, Los Angeles County, California, United States of America",34.0536909,-118.2427666
434,/title/tt0841046/,Walk Hard: The Dewey Cox Story,"Sony Pictures Studios - 10202 W. Washington Blvd., Culver City, California, USA",,,,
435,/title/tt0206275/,Save the Last Dance,"Lemont High School - 800 Porter Street, Lemont, Illinois, USA",,,,
436,/title/tt0206275/,Save the Last Dance,"Chicago River, Chicago, Illinois, USA",,"Chicago River, Chicago, Cook County, Illinois, 60601, United States of America",41.8888702,-87.6246786
437,/title/tt0206275/,Save the Last Dance,"Downtown, Chicago, Illinois, USA",,"Residence Inn Chicago Downtown/Loop, 11, West Madison Street, Loop, Chicago, Cook County, Illinois, 60603, United States of America",41.881644,-87.63209480891294
438,/title/tt8746478/,Fosse/Verdon,"Silvercup Studios - 4222 22nd Street, Long Island City, Queens, New York City, New York, USA",(studio)                        ,"Silvercup Studios Main Lot, 42-22, 22nd Street, Queens, Queens County, New York, 11101, United States of America",40.7513513,-73.94424267969767
439,Code,Show Name,Location,Scene,"Location, Tucker County, West Virginia, United States of America",39.2138905,-79.6371124
440,/title/tt0460637/,Everybody Hates Chris,"Paramount Studios - 5555 Melrose Avenue, Hollywood, Los Angeles, California, USA",,,,
441,/title/tt0450188/,La Vie En Rose,"Prague, Czech Republic",,"Praha, okres Hlavní město Praha, Hlavní město Praha, Praha, Česká republika",50.0874654,14.4212535
442,/title/tt0450188/,La Vie En Rose,"Brasserie Julien, 16 rue du Faubourg Saint-Denis, Paris 10, Paris, France","(interview) (interiors - Mentioned in an interview with Marion Cotillard by Emanuel Levy, this Belle Epoque eatery was frequented by Piaf and remains popular today)                        ","Brasserie Julien, 16, Rue du Faubourg Saint-Denis, Quartier de la Porte-Saint-Denis, Paris, Île-de-France, France métropolitaine, 75010, France",48.8697116,2.3562447
443,/title/tt0450188/,La Vie En Rose,"Paris, France",,"Paris, Île-de-France, France métropolitaine, 75004, France",48.8566969,2.3514616
444,/title/tt0109045/,"The Adventures of Priscilla, Queen of the Desert","Alice Springs, Northern Territory, Australia",,"Alice Springs, Town of Alice Springs, Northern Territory, 0870, Australia",-23.6983884,133.8812885
445,/title/tt0109045/,"The Adventures of Priscilla, Queen of the Desert","The Breakaways, Coober Pedy, South Australia, Australia",,"Breakaways Lookout, Coober Pedy, Pastoral Unincorporated Area, South Australia, 5723, Australia",-28.8459656,134.7075485
446,/title/tt0109045/,"The Adventures of Priscilla, Queen of the Desert","All Nations Hotel, Broken Hill, New South Wales, Australia",,,,
447,/title/tt0109045/,"The Adventures of Priscilla, Queen of the Desert",Australia,,Australia,-24.7761086,134.755
448,/title/tt0109045/,"The Adventures of Priscilla, Queen of the Desert","Broken Hill, New South Wales, Australia",,"Broken Hill, Broken Hill City Council, New South Wales, 2880, Australia",-31.965,141.4511111
449,/title/tt0109045/,"The Adventures of Priscilla, Queen of the Desert","Chinese Garden of Friendship, Darling Harbour, Sydney, New South Wales, Australia",(the end)                        ,"Chinese Garden of Friendship, Harbour Street, Darling Quarter, Sydney, Council of the City of Sydney, New South Wales, 2000, Australia",-33.87652575,151.20262082572708
450,/title/tt0109045/,"The Adventures of Priscilla, Queen of the Desert","Ernest Giles Road, Watarrka National Park, Northern Territory, Australia",,,,
451,/title/tt0109045/,"The Adventures of Priscilla, Queen of the Desert","King's Canyon, Watarrka National Park, Northern Territory, Australia",,,,
452,/title/tt0109045/,"The Adventures of Priscilla, Queen of the Desert","Mario's Palace - 227 Argent Street, Broken Hill, New South Wales, Australia",,,,
453,/title/tt0109045/,"The Adventures of Priscilla, Queen of the Desert","Mundi Mundi Plains, Broken Hill, New South Wales, Australia",,,,
454,/title/tt0109045/,"The Adventures of Priscilla, Queen of the Desert","Newtown, Sydney, New South Wales, Australia",,"Newtown, Sydney, Inner West Council, New South Wales, 2042, Australia",-33.8961132,151.1801893
455,/title/tt0109045/,"The Adventures of Priscilla, Queen of the Desert","Pinnacles Road, New South Wales, Australia",,"Pinnacles Road, Broken Hill, Unincorporated Area, New South Wales, 2880, Australia",-32.0364137,141.358851
456,/title/tt0109045/,"The Adventures of Priscilla, Queen of the Desert","South Australia, Australia",,"South Australia, Australia",-30.5343665,135.6301212
457,/title/tt0109045/,"The Adventures of Priscilla, Queen of the Desert","Sydney Harbour Bridge, Sydney, New South Wales, Australia",,"Sydney Harbour Bridge, Olympic Drive, Kirribilli, Lower North Shore, North Sydney Council, New South Wales, 2061, Australia",-33.85225755,151.21069310558983
458,/title/tt0109045/,"The Adventures of Priscilla, Queen of the Desert","Sydney, New South Wales, Australia",,"Sydney, New South Wales, Australia",-33.8548157,151.2164539
459,/title/tt0109045/,"The Adventures of Priscilla, Queen of the Desert","Umoona Road, Coober Pedy, South Australia, Australia",,"Umoona Road, Coober Pedy, The District Council of Coober Pedy, South Australia, 5723, Australia",-29.0071884,134.7615219
460,/title/tt0109045/,"The Adventures of Priscilla, Queen of the Desert","Watarrka National Park, Northern Territory, Australia",,"Watarrka National Park, Petermann, Macdonnell Region, Northern Territory, Australia",-24.2671463,131.66230419322335
461,/title/tt0088194/,Streets of Fire,"Chicago, Illinois, USA",,"Chicago, Cook County, Illinois, United States of America",41.8755616,-87.6244212
462,/title/tt0088194/,Streets of Fire,"New York Street, Backlot, Universal Studios - 100 Universal City Plaza, Universal City, California, USA",,,,
463,/title/tt0088194/,Streets of Fire,"Los Angeles, California, USA",,"Los Angeles, Los Angeles County, California, United States of America",34.0536909,-118.2427666
464,/title/tt0063951/,Sesame Street,"Kaufman Astoria Studios - 3412 36th Street, Astoria, Queens, New York City, New York, USA",(1993-present)                        ,,,
465,/title/tt0063951/,Sesame Street,"New York City, New York, USA",,"New York, United States of America",40.7127281,-74.0060152
466,/title/tt0063951/,Sesame Street,"Colossal Cave Mountain Park, Vail, Arizona, USA",(Sesame Street Goes Western)                        ,,,
467,/title/tt0063951/,Sesame Street,"Sonoran Desert, Arizona, USA",(Sesame Street Goes Western)                        ,"Sonoran Desert, Bates Well Road, Pima County, Arizona, United States of America",32.2598642,-112.9262583
468,/title/tt0063951/,Sesame Street,"Town Theater - 55TH St and 9th Av, New York City, New York, USA",,,,
469,/title/tt0120094/,Selena,"San Antonio, Texas, USA",,"San Antonio, Bexar County, Texas, United States of America",29.4246002,-98.4951405
470,/title/tt0120094/,Selena,"Strawberry Fairgrounds - 9199 N. State Highway 16, Poteet, Texas, USA",,,,
471,/title/tt0120094/,Selena,"Monterrey, Nuevo León, Mexico",,"Monterrey, Nuevo León, México",25.6802019,-100.3152586
472,/title/tt0120094/,Selena,"Lake Jackson, Texas, USA",,"Lake Jackson, Brazoria County, Texas, 77566, United States of America",29.0338575,-95.4343859
473,/title/tt0085549/,Flashdance,"Bob Hope Patriotic Hall - 1816 S. Figueroa Street, Downtown, Los Angeles, California, USA",,,,
474,/title/tt0085549/,Flashdance,"Los Angeles, California, USA","(Exterior of ""Mawby's"" Bar; nighttime bike-ride sequence)                        ","Los Angeles, Los Angeles County, California, United States of America",34.0536909,-118.2427666
475,/title/tt0085549/,Flashdance,"Keystone Commons former Westinghouse Turbine Factory, East Pittsburgh, Pennsylvania, USA",(interiors: factory)                        ,,,
476,/title/tt0085549/,Flashdance,"Duquesne Incline - 1220 Grandview Avenue, Pittsburgh, Pennsylvania, USA",,"Duquesne Incline, Grandview Avenue, Duquesne Heights, Pittsburgh, Allegheny County, Pennsylvania, 15211, United States of America",40.4383474,-80.0187256
477,/title/tt0085549/,Flashdance,"Palos Verdes Peninsula, California, USA",,"Palos Verdes Peninsula High School, Silver Spur Road, Rancho Palos Verdes, Los Angeles County, California, 90274, United States of America",33.77984925,-118.37219683021539
478,/title/tt0085549/,Flashdance,"Pasadena, California, USA",,"Pasadena, Los Angeles County, California, United States of America",34.1476452,-118.1444779
479,/title/tt0085549/,Flashdance,"Downtown, Los Angeles, California, USA",,"Downtown, Los Angeles, Los Angeles County, California, United States of America",34.0428494,-118.2476732
480,/title/tt0085549/,Flashdance,USA,,United States,39.7837304,-100.4458825
481,/title/tt0085549/,Flashdance,"California, USA",,"California, United States of America",36.7014631,-118.7559974
482,/title/tt1131729/,The Boat That Rocked,"Gambardella's Cafe, Blackheath Standard, London, England, UK",,,,
483,/title/tt1131729/,The Boat That Rocked,"National Gallery, Trafalgar Square, St James's, London, England, UK",,,,
484,/title/tt1131729/,The Boat That Rocked,"Pinewood Studios, Iver Heath, Buckinghamshire, England, UK",(studio)                        ,"Pinewood Studios, Pinewood Green, Iver, Iver Heath, Buckinghamshire, South East, England, SL0 0QJ, United Kingdom",51.54831515,-0.5346765566753087
485,/title/tt1131729/,The Boat That Rocked,"Portland, Dorset, England, UK",,"Portland, Castletown, Dorset, South West England, England, United Kingdom",50.5672516,-2.4472529
486,/title/tt1131729/,The Boat That Rocked,"Shepperton Studios, Shepperton, Surrey, England, UK",(studio)                        ,,,
487,/title/tt1131729/,The Boat That Rocked,"The Beach, Brighton, East Sussex, England, UK",(Seafront)                        ,,,
488,/title/tt6543652/,Zimna wojna,Croatia,,Hrvatska,45.5643442,17.0118954
489,/title/tt6543652/,Zimna wojna,"Bialaczów, Lódzkie, Poland",(performing arts school)                        ,"Białaczów, gmina Białaczów, powiat opoczyński, województwo łódzkie, 26-307, Polska",51.2995642,20.2974562
490,/title/tt6543652/,Zimna wojna,"Wroclaw, Dolnoslaskie, Poland",(Berlin street scenes on Miernicza street)                        ,"Wrocław, województwo dolnośląskie, Polska",51.1089776,17.0326689
491,/title/tt6543652/,Zimna wojna,"Kniazie, Lubelskie, Poland",(ruined church)                        ,"Kniazie, gmina Lubycza Królewska, powiat tomaszowski, województwo lubelskie, Polska",50.3386394,23.5003405
492,/title/tt6543652/,Zimna wojna,Poland,,Polska,52.215933,19.134422
493,/title/tt6543652/,Zimna wojna,"Rue Malebranche, Paris 5, Paris, France",(L'Eclipse jazz club exteriors)                        ,"Rue Malebranche, Quartier de la Sorbonne, Quartier du Val-de-Grâce, Paris, Île-de-France, France métropolitaine, 75005, France",48.8464195,2.3425541
494,/title/tt6543652/,Zimna wojna,"Srocza, Wroclaw, Dolnoslaskie, Poland",(Wiktor walking toward West Berlin)                        ,"Srocza, Wrocław, Osiedle Nadodrze, Wrocław, województwo dolnośląskie, 50-214, Polska",51.1207692,17.0291979
495,/title/tt0101761/,The Doors,"Pulgas Water Temple - Canada Road, Redwood City, California, USA",,,,
496,/title/tt0101761/,The Doors,"Death Valley National Park, California, USA",(desert)                        ,"Death Valley National Park, Inyo County, California, 92328, United States of America",36.4914385,-117.10229360771876
497,/title/tt0101761/,The Doors,"Ambassador Hotel - 3400 Wilshire Boulevard, Los Angeles, California, USA",,,,
498,/title/tt0101761/,The Doors,"Chateau Marmont - 8221 Sunset Blvd., Hollywood, Los Angeles, California, USA",(Jim Morrison has drink by the window ledge of hotel)                        ,"Chateau Marmont, 8221, West Sunset Boulevard, Sunset Strip, Hollywood Hills West, West Hollywood, Los Angeles County, California, 90046, United States of America",34.098249749999994,-118.36840487975618
499,/title/tt0101761/,The Doors,"Orpheum Theater - 842 South Broadway, Downtown, Los Angeles, California, USA",(New Haven rock concert)                        ,,,
500,/title/tt0101761/,The Doors,"Ed Sullivan Theater - 1697 Broadway, Manhattan, New York City, New York, USA",,"Ed Sullivan Theater, Broadway, Midtown, Manhattan Community Board 5, Manhattan, New York County, New York, 10019, United States of America",40.7637743,-73.9828196
501,/title/tt0101761/,The Doors,"Hollywood Boulevard, Hollywood, Los Angeles, California, USA",,"Hollywood Boulevard, Whitley Heights Historic District, Hollywood, Los Angeles, Los Angeles County, California, 90028, United States of America",34.1015833,-118.3324947
502,/title/tt0101761/,The Doors,"Venice Beach, Venice, Los Angeles, California, USA",(formation of the band)                        ,"Venice Beach, Crestmoore Place, Venice, Los Angeles, Los Angeles County, California, 90291-3879, United States of America",33.97996005,-118.46877706707772
503,/title/tt0101761/,The Doors,"Hollywood, Los Angeles, California, USA",,"Hollywood, Los Angeles, Los Angeles County, California, 90028-8127, United States of America",34.0980031,-118.329523
504,/title/tt0101761/,The Doors,"Midtown, Los Angeles, California, USA",,"Midtown Crossing, Mid-City, Los Angeles, Los Angeles County, California, 90019, United States of America",34.0477563,-118.33598170489093
505,/title/tt0101761/,The Doors,"New Mexico, USA",,"New Mexico, United States of America",34.5708167,-105.993007
506,/title/tt0101761/,The Doors,"Palos Verdes Peninsula, California, USA",,"Palos Verdes Peninsula High School, Silver Spur Road, Rancho Palos Verdes, Los Angeles County, California, 90274, United States of America",33.77984925,-118.37219683021539
507,/title/tt0101761/,The Doors,"Redwood City, California, USA",,"Redwood City, San Mateo County, California, United States of America",37.4863239,-122.2325233
508,/title/tt0101761/,The Doors,"Santa Monica Blvd., West Hollywood, California, USA",,"Santa Monica Boulevard, West Hollywood, Los Angeles County, California, 90046, United States of America",34.0907917,-118.3644419
509,/title/tt0101761/,The Doors,"Sunset Blvd., Hollywood, Los Angeles, California, USA",,"Sunset Boulevard, East Hollywood, Los Angeles, Los Angeles County, California, 90027-5517, United States of America",34.0981514,-118.2912164
510,/title/tt0101761/,The Doors,"West Hollywood, California, USA",,"West Hollywood, Los Angeles County, California, United States of America",34.0923014,-118.3692894
511,/title/tt0101761/,The Doors,"Downtown, Los Angeles, California, USA",,"Downtown, Los Angeles, Los Angeles County, California, United States of America",34.0428494,-118.2476732
512,/title/tt0101761/,The Doors,"Broadway, Manhattan, New York City, New York, USA",,"Broadway, Inwood, Manhattan Community Board 12, Manhattan, New York County, New York, 10463, United States of America",40.8732847,-73.911655
513,/title/tt8266310/,Blinded by the Light,"The Mall Luton, Mall Management, 37 The Mall, Bedfordshire, Luton LU1 2LJ, United Kingdom",(Used as the Arndale centre)                        ,,,
514,/title/tt0350258/,Ray,"Baton Rouge, Louisiana, USA",,"Baton Rouge, East Baton Rouge Parish, Louisiana, United States of America",30.4459596,-91.18738
515,/title/tt0350258/,Ray,"Laurel Valley, Thibodaux, Louisiana, USA",,,,
516,/title/tt0350258/,Ray,"City Airport, New Orleans, Louisiana, USA",,,,
517,/title/tt0350258/,Ray,"F & M Patio Bar - 4841 Tchoupitoulas Street, New Orleans, Louisiana, USA",,"F&M Patio Bar, 4841, Tchoupitoulas Street, Greenville, New Orleans, Orleans Parish, Louisiana, 70115, United States of America",29.9168445,-90.1069893
518,/title/tt0350258/,Ray,"Hammond, Louisiana, USA",,"Hammond, Tangipahoa Parish, Louisiana, United States of America",30.5043583,-90.4611995
519,/title/tt0350258/,Ray,"Jefferson Parish, Louisiana, USA",,"Jefferson Parish, Louisiana, United States of America",29.8502657,-90.1293894
520,/title/tt0350258/,Ray,"Los Angeles, California, USA",,"Los Angeles, Los Angeles County, California, United States of America",34.0536909,-118.2427666
521,/title/tt0350258/,Ray,"Orpheum Theater - 129 Roosevelt Way, New Orleans, Louisiana, USA",,"Orpheum Theater, 129, Roosevelt Way, Vieux Carre Historic District, Storyville, New Orleans, Orleans Parish, Louisiana, 70112, United States of America",29.95454275,-90.07282732986516
522,/title/tt0350258/,Ray,"Santa Monica Beach, Santa Monica, California, USA",(beach scenes)                        ,"Hotel Carmel, 201, Broadway, Santa Monica, Los Angeles County, California, 90401, United States of America",34.0137654,-118.4954584
523,/title/tt0310281/,A Mighty Wind,"Natural History Museum of Los Angeles County - 900 Exposition Boulevard, Exposition Park, Los Angeles, California, USA",(interior)                        ,"Natural History Museum of Los Angeles County, State Drive, Exposition Park, Los Angeles, Los Angeles County, California, 90037, United States of America",34.01707945,-118.28869058422643
524,/title/tt0310281/,A Mighty Wind,"Los Angeles, California, USA",,"Los Angeles, Los Angeles County, California, United States of America",34.0536909,-118.2427666
525,/title/tt0310281/,A Mighty Wind,"New York City, New York, USA",,"New York, United States of America",40.7127281,-74.0060152
526,/title/tt0310281/,A Mighty Wind,"Santa Clarita, California, USA",,"Santa Clarita, Los Angeles County, California, United States of America",34.3916641,-118.542586
527,/title/tt3312830/,Youth,"Flims, Kanton Graubünden, Switzerland",(Spa at Park Hotel Waldhaus)                        ,"Flims, Imboden, Graubünden/Grigioni/Grischun, Switzerland",46.8332439,9.2834557
528,/title/tt3312830/,Youth,"Kandersteg, Kanton Bern, Switzerland",,"Kandersteg, Verwaltungskreis Frutigen-Niedersimmental, Verwaltungsregion Oberland, Bern/Berne, 3718, Switzerland",46.4975866,7.6756638
529,/title/tt3312830/,Youth,"Rome, Lazio, Italy",,"Roma Capitale, Lazio, Italia",41.85223935,12.631036615953583
530,/title/tt3312830/,Youth,"Piazza San Marco, Venice, Veneto, Italy",(dream sequence)                        ,"Piazza San Marco, San Marco, Venezia-Murano-Burano, Venezia, Veneto, Italia",45.43427335,12.338531461710627
531,/title/tt3312830/,Youth,"London, England, UK",,"London, Greater London, England, United Kingdom",51.5073219,-0.1276474
532,/title/tt8521376/,Little Voice,"New York City, New York, USA",,"New York, United States of America",40.7127281,-74.0060152
533,/title/tt0078754/,All That Jazz,"Kaufman Astoria Studios - 3412 36th Street, Astoria, Queens, New York City, New York, USA",(studio)                        ,,,
534,/title/tt0078754/,All That Jazz,"Manhattan, New York City, New York, USA",,"Manhattan, New York County, New York, United States of America",40.7896239,-73.9598939
535,/title/tt0078754/,All That Jazz,"150 55th Street, Brooklyn, New York City, New York, USA",(Lutheran Medical Center - hospital scenes - since renamed NYU Langone Hospital - Brooklyn)                        ,"NYU Langone Hospital-Brooklyn, 150, 55th Street, Sunset Park, Brooklyn, Kings County, New York, 11220, United States of America",40.64676075,-74.02097374251767
536,/title/tt0078754/,All That Jazz,"The Concert Hall, Performing Arts Center, Purchase College, State University Of New York at Purchase, Purchase, New York, USA",(finale sequence)                        ,,,
537,/title/tt0078754/,All That Jazz,"61 Fifth Avenue, Manhattan, New York City, New York, USA","(Lone Star Cafe - setting for ""The Stand Up"" - closed 1989)                        ",,,
538,/title/tt0078754/,All That Jazz,"John Jay College of Criminal Justice - 899 Tenth Avenue, New York City, New York, USA",,,,
539,/title/tt0078754/,All That Jazz,"1607 Broadway, Manhattan, New York City, New York, USA",(Grand Pussycat Cinema - Joe looks down upon this theater through a window)                        ,"1607, Broadway, Theater District, Manhattan Community Board 5, Times Square, New York County, New York, 10019, United States of America",40.7606239,-73.9847742
540,/title/tt0396991/,LazyTown,"380° Studios - Miðhraun 4, Garðabær, Iceland",(studio)                        ,,,
