,Code,Show Name,Location,Scene,geocodedLocation,latitude,longitude
0,/title/tt1815852/,,"Las Vegas, Nevada, USA",,"Las Vegas, Clark County, Nevada, United States of America",36.1672559,-115.1485163
1,/title/tt1815852/,,Panama,,Panamá,8.559559,-81.1308434
2,/title/tt0026867/,,"Iverson Ranch - 1 Iverson Lane, Chatsworth, Los Angeles, California, USA",,,,
3,/title/tt0026867/,,"Agoura Ranch, Agoura, California, USA",,,,
4,/title/tt0026867/,,"Mack Sennett Studios - 1712 Glendale Blvd., Silver Lake, Los Angeles, California, USA",,,,
5,/title/tt0110875/,,"Chinatown, Los Angeles, California, USA",,"Chinatown, Los Angeles, Los Angeles County, California, 90012, United States of America",34.0638402,-118.2358676
6,/title/tt0046054/,,"Watergate Bay, Newquay, Cornwall, England, UK",,"Watergate Bay, Tregurrian Hill, Newquay, Tregurrian, Cornwall, South West England, England, TR8 4AB, United Kingdom",50.4438479,-5.036366453248136
7,/title/tt0046054/,,"Palermo, Sicily, Italy",(location),"Palermo, Sicilia, Italia",38.1112268,13.3524434
8,/title/tt0088934/,,"Studios de Boulogne-Billancourt/SFP - 2 Rue de Silly, Boulogne-Billancourt, Hauts-de-Seine, France",(studio),,,
9,/title/tt0218080/,,"Department Of Water And Power - 111 N Hope Street, Los Angeles, California, USA",,,,
10,/title/tt0218080/,,"Los Angeles, California, USA",,"Los Angeles, Los Angeles County, California, United States of America",34.0536909,-118.2427666
11,/title/tt0116393/,,"Toronto, Ontario, Canada",,"Toronto, Golden Horseshoe, Ontario, Canada",43.6534817,-79.3839347
12,/title/tt0064688/,,"Dino De Laurentiis Cinematografica Studios, Rome, Lazio, Italy",(studio),,,
13,/title/tt0064688/,,"Monte Carlo, Monaco",,"Monte-Carlo, Monaco",43.7402961,7.426559
14,/title/tt0064688/,,"Paris, France",,"Paris, Île-de-France, France métropolitaine, 75004, France",48.8566969,2.3514616
15,/title/tt3469244/,,"Kashmir, India",,"Kashmir, Sheo Tehsil, Barmer, Rajasthan, India",26.2644203,71.6027498
16,/title/tt3469244/,,India,,India,22.3511148,78.6677428
17,/title/tt3469244/,,"Beirut, Lebanon",,"بيروت, رأس بيروت, محافظة بيروت, لبنان  Lebanon",33.8959203,35.47843
18,/title/tt3469244/,,"The Oval, Kennington, London, England, UK",(location),"Kia Oval, Kennington Oval, Kennington, London Borough of Lambeth, London, Greater London, England, SE11 5SS, United Kingdom",51.48375215,-0.11496182711601476
19,/title/tt0065303/,,"Paramount Studios - 5555 Melrose Avenue, Hollywood, Los Angeles, California, USA",,,,
20,/title/tt2292182/,,"Malibu, California, USA",,"Malibu, Los Angeles County, California, 90265-4797, United States of America",34.035591,-118.689423
21,/title/tt0076028/,,"City of Jackson, Tennessee, USA",,"Murphy USA, Andrew Jackson Parkway, Sherwood Forest, Nashville-Davidson, Davidson County, Tennessee, 37138, United States of America",36.2168137,-86.59819385
22,/title/tt0076028/,,"City of Henderson, Tennessee, USA",,,,
23,/title/tt0075375/,,"Rome, Lazio, Italy",,"Roma Capitale, Lazio, Italia",41.85223935,12.631036615953583
24,/title/tt0486099/,,"Squamish, British Columbia, Canada",,"Squamish, Squamish-Lillooet Regional District, British Columbia, Canada",49.6980743,-123.1558612
25,/title/tt0119872/,,"Washington, District of Columbia, USA",(pick-ups),"Washington, District of Columbia, 20230, United States of America",38.8949924,-77.0365581
26,/title/tt0104267/,,"Las Vegas, Nevada, USA",,"Las Vegas, Clark County, Nevada, United States of America",36.1672559,-115.1485163
27,/title/tt0454941/,,"Denver, Colorado, USA",,"Denver, Denver County, Colorado, United States of America",39.7392364,-104.9848623
28,/title/tt0454941/,,"Thousand Oaks, California, USA",,"Thousand Oaks, Ventura County, California, United States of America",34.17142715,-118.91058772974445
29,/title/tt0212864/,,"Macau, China",,"澳門 Macau, China 中国",22.1757605,113.5514142
30,/title/tt0290937/,,"Palakkad, Kerala, India",,"Palakkad, Palghat, Kerala, 678001, India",10.7691989,76.6512469
31,/title/tt9859616/,,"Kyiv, Ukraine",,"Київ, Україна",50.4500336,30.5241361
32,/title/tt9859616/,,"Tengchong, Yunnan, China",,"腾冲市, 保山市 (Baoshan), 云南省, 679100, China 中国",25.1725265,98.5168272
33,/title/tt0758743/,,"Tokyo, Japan",,"東京都, 日本 (Japan)",35.6828387,139.7594549
34,/title/tt0758743/,,"Bangkok, Thailand",,"กรุงเทพมหานคร, เขตพระนคร, กรุงเทพมหานคร, 10200, ประเทศไทย",13.7542529,100.493087
35,/title/tt0347330/,,"Rue des Trois Pavillons, Clichy, Hauts-de-Seine, France",(Alexandre arrives at the cash transportation center ; Alexandre leaves the center to look for a hotel),"Rue des Trois Pavillons, Clichy, Saint-Denis, Hauts-de-Seine, Île-de-France, France métropolitaine, 92110, France",48.9108079,2.3131659
36,/title/tt0347330/,,"Dans un bâtiment de bureaux, rue Pierre, Clichy, Hauts-de-Seine, France",(Alexandre looks at the depot from his room window),,,
37,/title/tt0347330/,,"Quai Aulagnier, Asnières-sur-Seine, Hauts-de-Seine, France",,"Quai Aulagnier, Grésillons, Asnières-sur-Seine, Arrondissement de Nanterre, Hauts-de-Seine, Île-de-France, France métropolitaine, 92600, France",48.9153517,2.3148986
38,/title/tt0347330/,,"Centre Commercial Leclerc Les Flanades, Place Navarre, Sarcelles, Val-d'Oise, France",(The transporters collect cash),,,
39,/title/tt0347330/,,"Chemin du Pavillon, Seine Saint-Denis, France","(Bernard drives his armored car like crazy, toppling garbage cans ; the armored car is attacked by young thugs)","Chemin du Pavillon, Ferme de Volstin, Varennes-sur-Seine, Provins, Seine-et-Marne, Île-de-France, France métropolitaine, 77130, France",48.3638915,2.9121427
40,/title/tt1261862/,,"Sydney, New South Wales, Australia",(pick-ups),"Sydney, New South Wales, Australia",-33.8548157,151.2164539
41,/title/tt1261862/,,"Los Angeles, California, USA",(additional pick ups),"Los Angeles, Los Angeles County, California, United States of America",34.0536909,-118.2427666
42,/title/tt0233856/,,Mauritius,,Mauritius,-20.2759451,57.5703566
43,/title/tt0062859/,,"Cafe Royal, 68 Regent Street, Westminster, London, England, UK",(Eberlin meets Caroline),,,
44,/title/tt0062859/,,"Chelsea Bridge, Battersea, London, England, UK",(they drive across),"Chelsea Crescent, The Towpath, Chelsea Harbour, Sands End, London Borough of Hammersmith and Fulham, London, Greater London, England, SW10 0XA, United Kingdom",51.47434005,-0.18100695033844777
45,/title/tt0062859/,,"Avus race track, Berlin, Germany",,,,
46,/title/tt0062859/,,"Berlin, Germany",,"Berlin, 10117, Deutschland",52.5170365,13.3888599
47,/title/tt0062859/,,"Europa-Center, Charlottenburg, Berlin, Germany",,"Europa-Center, Tauentzienstraße, Charlottenburg, Berlin, 10789, Deutschland",52.5044001,13.338054528096272
48,/title/tt0062859/,,"Straße des 17. Juni, Tiergarten, Berlin, Germany",,"Straße des 17. Juni, Botschaftsviertel, Tiergarten, Mitte, Berlin, 10557, Deutschland",52.5157426,13.3685317
49,/title/tt0062859/,,"Tiergarten, Berlin, Germany",,"Tiergarten, Mitte, Berlin, Deutschland",52.5097776,13.3572597
50,/title/tt5354588/,,"St. Paul, Minnesota, USA",,"St. Paul, Ramsey County, Minnesota, United States of America",44.9504037,-93.1015026
51,/title/tt5642720/,,"Kozhikode, Kerala, India",,"Kozhikode, Kozhikode district, Kerala, 673032, India",11.2586082,75.7788735
52,/title/tt2250690/,,"Macon, Georgia, USA",,"Macon, Bibb County, Georgia, United States of America",32.8406946,-83.6324022
53,/title/tt3027716/,,"Tijuana, Baja California Norte, Mexico",,"Tijuana, Municipio de Tijuana, Baja California, 22105, México",32.5010188,-116.9646629
54,/title/tt0758762/,,"Ojai, California, USA",,"Ojai, Ventura County, California, 93023, United States of America",34.4480495,-119.242889
55,/title/tt2048865/,,Maldives,,ދިވެހިރާއްޖެ,4.7064352,73.3287853
56,/title/tt2048865/,,"Santa Clarita, California, USA",,"Santa Clarita, Los Angeles County, California, United States of America",34.3916641,-118.542586
57,/title/tt2048865/,,"Marina del Rey, California, USA",,"Marina del Rey, Los Angeles County, California, 90292, United States of America",33.9776848,-118.4486479
58,/title/tt0091442/,,"Locke, California, USA",(Ending scene),"Locke, Walnut Grove, Sacramento County, California, 95680, United States of America",38.250465,-121.5094371
59,/title/tt1753597/,,"Michigan, USA",,"Michigan, United States of America",43.6211955,-84.6824346
60,/title/tt0087556/,,"Riverside, California, USA",,"Riverside, Riverside County, California, United States of America",33.9533546,-117.3961623
61,/title/tt8406934/,,"Jyväskylä, Finland",,"Jyväskylä, Jyväskylän seutukunta, Keski-Suomi, Länsi- ja Sisä-Suomen aluehallintovirasto, Manner-Suomi, Suomi",62.2393002,25.745951
62,/title/tt8406934/,,"Sotkamo, Finland",,"Sotkamo, Kajaanin seutukunta, Kainuu, Pohjois-Suomen aluehallintovirasto, Manner-Suomi, Suomi",64.1318262,28.3878316
63,/title/tt0109840/,,"London, England, UK",,"London, Greater London, England, United Kingdom",51.5073219,-0.1276474
64,/title/tt0109840/,,Venezuela,,Venezuela,8.0018709,-66.1109318
65,/title/tt0423515/,,"Los Angeles, California, USA",,"Los Angeles, Los Angeles County, California, United States of America",34.0536909,-118.2427666
66,/title/tt0101763/,,Taiwan,,"臺灣, 信義鄉, 南投縣, 臺灣省, Taiwan",23.59829785,120.83536313817521
67,/title/tt0104607/,,"Filmistan Studios, Mumbai, Maharashtra, India",(studio),"Filmistan Studio, P/S Ward, Zone 4, Mumbai, Mumbai Suburban, Maharashtra, 400062, India",19.1653211,72.84477306829942
68,/title/tt0104607/,,"Jomosom, Kathmandu, Nepal",,"Jomsom, Gharapjhong, मुस्ताङ, गण्डकी प्रदेश, Nepal",28.7838097,83.7304953
69,/title/tt0104607/,,"Mazari Sharif, Afghanistan",,"ولسوالی مزار شريف, ولایت بلخ, 1701, Afghanistan",36.7113366,67.1087511
70,/title/tt0104607/,,"Udaipur, Rajasthan, India",,"Udaipur, Rajasthan, 313001, India",24.578721,73.6862571
71,/title/tt0091713/,,Philippines,,Philippines,12.7503486,122.7312101
72,/title/tt0284303/,,"Farmingdale, New Jersey, USA",,"Farmingdale, New Jersey, United States of America",40.1965018,-74.1684757
73,/title/tt0284303/,,"Riverside Township, New Jersey, USA",,"Riverside Township, Burlington County, New Jersey, United States of America",40.03427155,-74.9534218235226
74,/title/tt2178508/,,"Patiala, Punjab, India",,"Patiala, Punjab, India",30.2090874,76.3398720856221
75,/title/tt0109773/,,"Downtown, Tucson, Arizona, USA",,"East Downtown Street, Armory Park, Tucson, Pima County, Arizona, 85701, United States of America",32.215691,-110.9623123
76,/title/tt0109773/,,"Sentinel Peak, Tucson, Arizona, USA",,"Sentinel Peak, West Anklam Road, Silvercroft, Pascua Yaqui Indian Village, Tucson, Pima County, Arizona, 85745, United States of America",32.228207850000004,-111.01584120000001
77,/title/tt0034889/,,"Republic Studios, Hollywood, Los Angeles, California, USA",(studio),,,
78,/title/tt0028345/,,"Los Angeles County Arboretum & Botanic Garden - 301 N. Baldwin Avenue, Arcadia, California, USA",,,,
79,/title/tt1188982/,,"Sighisoara, Mures, Romania",(Tere Naina Maar Hi Daalenge),"Sighișoara, Mureș, 545400, România",46.2201975,24.7934573
80,/title/tt1188982/,,India,,India,22.3511148,78.6677428
81,/title/tt0175877/,,"Spanish Fork, Utah, USA",,"Spanish Fork, Utah County, Utah, United States of America",40.114955,-111.654923
82,/title/tt0094768/,,"Tlacotalpan, Veracruz, Mexico",,"Tlacotalpan, Veracruz de Ignacio de la Llave, México",18.52076065,-95.6230404402794
83,/title/tt0103840/,,"Los Angeles, California, USA",,"Los Angeles, Los Angeles County, California, United States of America",34.0536909,-118.2427666
84,/title/tt0196635/,,"Film City, Goregaon, Mumbai, Maharashtra, India",(studio),"Dadasaheb Phalke Chitranagari, Goregaon Mulund Link Road, T Ward, Zone 6, Mumbai, Mumbai Suburban, Maharashtra, 400082, India",19.1587785,72.89173887052404
85,/title/tt0196635/,,"Filmistan Studios, Mumbai, Maharashtra, India",(studio),"Filmistan Studio, P/S Ward, Zone 4, Mumbai, Mumbai Suburban, Maharashtra, 400062, India",19.1653211,72.84477306829942
86,/title/tt0196635/,,"Mumbai, Maharashtra, India",,"Mumbai, Mumbai City, Maharashtra, India",18.9387711,72.8353355
87,/title/tt0196635/,,"S.N.D.T. College, Mumbai, Maharashtra, India",,,,
88,/title/tt2239096/,,"Kiel, Schleswig-Holstein, Germany",,"Kiel, Blücherplatz, Schleswig-Holstein, 24103, Deutschland",54.3227085,10.135555
89,/title/tt3878638/,,USA,,United States,39.7837304,-100.4458825
90,/title/tt0954914/,,"Hyderabad, Telangana, India",,"Hyderabad, Telangana, India",17.38878595,78.46106473453146
91,/title/tt1753786/,,"El Paso, Texas, USA",,"El Paso, El Paso County, Texas, United States of America",31.7754152,-106.4646348
92,/title/tt1753786/,,"Ojinaga, Chihuahua, Mexico",,"Ojinaga, Chihuahua, 32880, México",29.5498622,-104.4139362
93,/title/tt1753786/,,"Juarez, Mexico",,"Juárez, Michoacán de Ocampo, México",19.29348285,-100.46459243844754
94,/title/tt0452668/,,"Agri, Turkey",(location),"Ağrı, Doğu Anadolu Bölgesi, Türkiye",39.52916,43.3835645
95,/title/tt4943934/,,"Burbank, California, USA",,"Burbank, Los Angeles County, California, United States of America",34.1816482,-118.3258554
96,/title/tt4943934/,,"Lucerne Valley, California, USA",(Mars desert scenes),"Lucerne Valley, San Bernardino County, California, 92356, United States of America",34.4436167,-116.9455239
97,/title/tt4943934/,,USA,,United States,39.7837304,-100.4458825
98,/title/tt0109494/,,Czech Republic,,Česko,49.8167003,15.4749544
99,/title/tt8081654/,,"Mountain Tianzhu, Changtai, Fujian, China",,,,
100,/title/tt0031747/,,"Warner Ranch, Calabasas, California, USA",,,,
101,/title/tt0289725/,,"Mumbai, Maharashtra, India",,"Mumbai, Mumbai City, Maharashtra, India",18.9387711,72.8353355
102,/title/tt5231916/,,"Sint-Jans-Molenbeek, Brussels, Brussels-Capital, Belgium",,"Molenbeek-Saint-Jean - Sint-Jans-Molenbeek, Région de Bruxelles-Capitale - Brussels Hoofdstedelijk Gewest, 1080, België - Belgique - Belgien",50.8545959,4.338636
103,/title/tt4806012/,,"Comunidad de Madrid, Spain",,"Comunidad de Madrid, España",40.5248319,-3.771562775451811
104,/title/tt4806012/,,"Guijo de Granadilla, Cáceres, Extremadura, Spain",,"Guijo de Granadilla, Trasierra-Tierras de Granadilla, Cáceres, Extremadura, España",40.1937514,-6.163317
105,/title/tt0066064/,,"Ardmore Studios, Herbert Road, Bray, County Wicklow, Ireland",,,,
106,/title/tt0066064/,,"Santa Monica, California, USA",,"Santa Monica, Los Angeles County, California, United States of America",34.0250724,-118.4965129
107,/title/tt3085500/,,"Singing Springs, Angeles National Forest, California, USA",(outdoor scenes),"Singing Springs, Los Angeles County, California, United States of America",34.3211111,-118.1286827
108,/title/tt0091963/,,"Marston Montaine, Bedfordshire, England, UK",,,,
109,/title/tt0091963/,,"Wisley, Surrey, England, UK",(some airfield shots),"Wisley, Surrey, South East, England, GU23 6QG, United Kingdom",51.32338,-0.4774993
110,/title/tt0271451/,,"Sofia, Bulgaria",,"София, Оборище, Столична, София-град, 1000, България",42.6978634,23.3221789
111,/title/tt4006284/,,"Oslo, Norway",(Omars hometown),"Oslo, 0026, Norge",59.9133301,10.7389701
112,/title/tt7345930/,,"Kakkanad, Kerala, India",(Car chase and gun shot),"Kakkanad, Ernakulam, Kanayannur, Ernakulam district, Kerala, 680037, India",10.01657,76.34275
113,/title/tt0051636/,,"Bishop, California, USA",,"Bishop, Inyo County, California, United States of America",37.363679,-118.3952405
114,/title/tt0051636/,,"Owens River, California, USA",,"Owens River, Inyo County, California, United States of America",37.1522255,-118.2553737
115,/title/tt0051636/,,"Olancha Dunes, Olancha, California, USA",(sand dune. desert sequences),,,
116,/title/tt0051636/,,"Dolomite, Inyo County, California, USA",(location used for Socorro),"Dolomite, Inyo County, California, United States of America",36.5529898,-117.9453614
117,/title/tt0051636/,,"Sherwin Summit, Inyo National Forest, California, USA",(Tod Lohman/Tom Boyd shootout),,,
118,/title/tt0112210/,,"California, USA",,"California, United States of America",36.7014631,-118.7559974
119,/title/tt0120383/,,"Heber City, Utah, USA",,"Heber City, Heber, Wasatch County, Utah, 84032, United States of America",40.5065256,-111.4133091
120,/title/tt0120383/,,"Park City, Utah, USA",,"Park City, Utah, United States of America",40.6460635,-111.4979741
121,/title/tt0120383/,,"Rockville, Utah, USA",,"Rockville, Washington County, Utah, 84763, United States of America",37.1438219,-113.04761039512621
122,/title/tt0120383/,,"Mesquite, Nevada, USA",,"Mesquite, Clark County, Nevada, United States of America",36.803387,-114.0671888
123,/title/tt0027200/,,"Owens Valley, California, USA",,"Owens Valley, Inyo County, California, 93513-0968, United States of America",37.167977,-118.2091163
124,/title/tt0086434/,,"Glen Canyon Trading Post - 12 N Lake Powell Blvd, Page, Arizona, USA",(Thunder's bow and arrow),,,
125,/title/tt0086434/,,"107 S Lake Powell Blvd, Page, Arizona, USA",(police car loses roof),"107, Lake Powell Boulevard, Page, Coconino County, Arizona, 86040, United States of America",36.917123,-111.457692
126,/title/tt0086434/,,"6th Avenue, Page, Arizona, USA",(bulldozer crashes into police cars),"6th Avenue, Page, Coconino County, Arizona, 86040-0418, United States of America",36.9153464,-111.4600096
127,/title/tt0086434/,,"Marble Canyon, Arizona, USA",(Navajo Bridge),"Marble Canyon, Coconino County, Arizona, 86036, United States of America",36.8155432,-111.6376612
128,/title/tt0086434/,,"Red Rock Crossing, Sedona, Arizona, USA",,,,
129,/title/tt9204012/,,Thailand,(Royal Palace),ประเทศไทย,14.8971921,100.83273
130,/title/tt2328418/,,"Goa, India",,"Goa, India",15.3004543,74.0855134
131,/title/tt2328418/,,"Jaipur, Rajasthan, India",,"Jaipur, Jaipur Tehsil, Jaipur, Rajasthan, 302001, India",26.916194,75.820349
132,/title/tt0139470/,,"Salt Lake City, Utah, USA",,"Salt Lake City, Salt Lake County, Utah, United States of America",40.7596198,-111.8867975
133,/title/tt1986769/,,"Transylvania County, North Carolina, USA",(Final Fight Sequence),"Transylvania County, North Carolina, United States of America",35.1982216,-82.7724889
134,/title/tt1986769/,,"Williamsburg, Virginia, USA",,"Williamsburg, Williamsburg (city), Virginia, United States of America",37.27892105,-76.69448606443117
135,/title/tt2781254/,,"Lytle, Texas, USA",,"Lytle, Atascosa County, Texas, 78052, United States of America",29.2330215,-98.797873
136,/title/tt0068742/,,"Buckingham Palace, Westminster, London, England, UK",(Loomis and Blake cross the road),"Buckingham Palace, Buckingham Gate, Victoria, City of Westminster, London, Greater London, England, SW1E 6JP, United Kingdom",51.500841300000005,-0.14298782562962786
137,/title/tt0068742/,,"Constitution Hill, Westminster, London, England, UK",(Loomis and Blake walk through the arch),"Constitution Hill, Belgravia, City of Westminster, London, Greater London, England, W1J 7NS, United Kingdom",51.5025316,-0.1494073
138,/title/tt0068742/,,"Costa del Sol, Málaga, Andalucía, Spain",,"Costa del Sol, Calle Pb. El Hornillo, Cortijo Del Penon, Cortijo Los Corrigidores, Vélez-Málaga, La Axarquía, Málaga, Andalucía, 29740, España",36.7236437,-4.129693567086779
139,/title/tt0068742/,,"Pinewood Studios, Iver Heath, Buckinghamshire, England, UK",(studio),"Pinewood Studios, Pinewood Green, Iver, Iver Heath, Buckinghamshire, South East, England, SL0 0QJ, United Kingdom",51.54831515,-0.5346765566753087
140,/title/tt0070438/,,"Freeport, Grand Bahama Island, Bahamas",,"Freeport, Queen's Highway, City of Freeport, Bahamas",26.5209334,-78.7663825
141,/title/tt0070438/,,Cayman Islands,,Cayman Islands,19.5417212,-80.5667132
142,/title/tt1379228/,,"Tamil Nadu, India",,"Tamil Nadu, India",10.9094334,78.3665347
143,/title/tt0077679/,,"Toronto, Ontario, Canada",,"Toronto, Golden Horseshoe, Ontario, Canada",43.6534817,-79.3839347
144,/title/tt0077679/,,"Elder Mills, Vaughan, Ontario, Canada",(The bridge scene),"Elder Mills, Vaughan, York Region, Golden Horseshoe, Ontario, L4H 1L1, Canada",43.8110961,-79.6289925
145,/title/tt1745863/,,"Palakkad, Kerala, India",,"Palakkad, Palghat, Kerala, 678001, India",10.7691989,76.6512469
146,/title/tt0091110/,,"635 South Mateo Street, Los Angeles, California, USA","(police station, interior and exterior shots)","635, Mateo Street, Arts District, Downtown, Los Angeles, Los Angeles County, California, 90021, United States of America",34.03686510526316,-118.23264815789474
147,/title/tt0091110/,,"Pan-Pacific Auditorium - 7600 W. Beverly Boulevard, Fairfax, Los Angeles, California, USA","(Gang toss rocks out front, then enter abandoned auditorium for fight scene. Building destroyed by fire in 1989)",,,
148,/title/tt0191899/,,"Rusty Spur Saloon - 7245 E Main St, Scottsdale, Arizona, USA",(bar fight),"Rusty Spur Saloon, East Main Street, Main Street Arts District, Scottsdale, Maricopa County, Arizona, 85251, United States of America",33.492974,-111.9249184
149,/title/tt0191899/,,Philippines,(Vietnam),Philippines,12.7503486,122.7312101
150,/title/tt0272836/,,"Berlin, Germany",,"Berlin, 10117, Deutschland",52.5170365,13.3888599
151,/title/tt0272836/,,"Florence, Tuscany, Italy",,"Firenze, Toscana, Italia",43.7698712,11.2555757
152,/title/tt0272836/,,"Ouarzazate, Morocco",,"Ouarzazate ⵡⴰⵔⵣⴰⵣⴰⵜ ورزازات, Pachalik d'Ouarzazate, Province de Ouarzazate ⵍⵉⵇⵍⵉⵎ ⵏ ⵡⴰⵔⵣⴰⵣⴰⵜ إقليم ورززات, Drâa-Tafilalet ⴷⴰⵔⵄⴰ-ⵜⴰⴼⵉⵍⴰⵍⵜ درعة تافيلالت, 45005, Maroc",30.920193,-6.910923
153,/title/tt1772989/,,"Hyderabad, Telangana, India",,"Hyderabad, Telangana, India",17.38878595,78.46106473453146
154,/title/tt3816614/,,"Melbourne CBD, Melbourne, Victoria, Australia",,"MBE Melbourne CBD, 439, Little Bourke Street, Melbourne, City of Melbourne, Victoria, 3000, Australia",-37.8141823,144.9598007
155,/title/tt3816614/,,"Sydney, New South Wales, Australia",,"Sydney, New South Wales, Australia",-33.8548157,151.2164539
156,/title/tt5653294/,,"Moscow region, Russia",,"Москва, 60, Красная улица, Центральный округ, Краснодар, городской округ Краснодар, Краснодарский край, Южный федеральный округ, 350000, Россия",45.0260549,38.9713034
157,/title/tt3381610/,,"Essex, England, UK",,"Essex, Broomfield, Chelmsford, Essex, East of England, England, United Kingdom",51.77046785,0.46466977412300386
158,/title/tt0256155/,,"Scotland, UK",,"Scotland, United Kingdom",56.7861112,-4.1140518
159,/title/tt0256155/,,USA,,United States,39.7837304,-100.4458825
160,/title/tt0095977/,,"Rome, Lazio, Italy",,"Roma Capitale, Lazio, Italia",41.85223935,12.631036615953583
161,/title/tt0099312/,,"Jerusalem, Israel",,"ירושלים, מחוז ירושלים, no, ישראל",31.778345,35.2250786
162,/title/tt0099312/,,"Ben-Gurion International Airport, Israel",,"נמל התעופה הבינלאומי בן-גוריון, השלושה, זיתן, נפת רמלה, מחוז המרכז, no, ישראל",32.0027142,34.88091934223253
163,/title/tt0099312/,,Israel,,ישראל,31.5313113,34.8667654
164,/title/tt7036540/,,"New York, USA",,"New York, United States of America",40.7127281,-74.0060152
165,/title/tt0086625/,,"British Columbia, Canada",(location),"British Columbia, Canada",55.001251,-125.002441
166,/title/tt3306776/,,"Chicago Illinois, USA",,"Chicago, Cook County, Illinois, United States of America",41.8755616,-87.6244212
167,/title/tt0062860/,,"Old Harbour, St. Helier, Jersey",(Jonas rows out to the yacht),"Old Harbour, Le Quai aux Marchands, St Helier, JE2, Jersey",49.17992135,-2.11002265937117
168,/title/tt0062860/,,"Grosvenor Gardens, Belgravia, London, England, UK",(Jonas makes a deposit at a Lloyd's Bank),"Grosvenor Gardens, Belgravia, City of Westminster, London, Greater London, England, SW1W 0HH, United Kingdom",51.4979292,-0.1479834
169,/title/tt0062860/,,"22 Victoria Street, Westminster, London, England, UK",(Jonas makes a deposit at Midland Bank),"Victoria Street, Westminster, Victoria, City of Westminster, London, Greater London, England, SW1, United Kingdom",51.4983885,-0.132445
170,/title/tt0076398/,,"Jerusalem, Israel",,"ירושלים, מחוז ירושלים, no, ישראל",31.778345,35.2250786
171,/title/tt0051750/,,"Luke Air Force Base, Glendale, Arizona, USA",(Flight Line and runway scenes),"Luke Air Force Base, West Glendale Avenue, Webb, Maricopa County, Arizona, 85307, United States of America",33.5354345,-112.37352271720567
172,/title/tt0051750/,,"Gila Bend Air Force Auxiliary Field, Arizona, USA",(Flight Line and runway scenes),,,
173,/title/tt0049593/,,"Iverson Ranch - 1 Iverson Lane, Chatsworth, Los Angeles, California, USA",,,,
174,/title/tt0049593/,,"Paramount Studios - 5555 Melrose Avenue, Hollywood, Los Angeles, California, USA",,,,
175,/title/tt0353357/,,"Fót Studios, Budapest, Hungary",(studio),,,
176,/title/tt1223922/,,"Bangkok, Thailand",,"กรุงเทพมหานคร, เขตพระนคร, กรุงเทพมหานคร, 10200, ประเทศไทย",13.7542529,100.493087
177,/title/tt1223922/,,"Saraburi, Thailand",,"สระบุรี, จังหวัดสระบุรี, 18000, ประเทศไทย",14.5249471,100.9160757
178,/title/tt1198396/,,"Seoul, South Korea",,"서울, 대한민국",37.5666791,126.9782914
179,/title/tt1198396/,,"Petaluma, California, USA",,"Petaluma, Sonoma County, California, United States of America",38.270022,-122.60612241304348
180,/title/tt1198396/,,"San Geronimo, California, USA",,"San Geronimo, Hunt Camp Trail, San Geronimo, Marin County, California, 94963, United States of America",38.006614,-122.66124494462719
181,/title/tt1189006/,,"Phang Nga Bay, Thailand",,"Phang Nga Bay, จังหวัดพังงา, ประเทศไทย",8.2916672,98.5527728
182,/title/tt0038279/,,"Québec, Québec, Canada",(rue Donnacona),"Québec, Québec (Agglomération), Capitale-Nationale, Québec, Canada",46.8259601,-71.2352226
183,/title/tt0038279/,,"Boston, Massachusetts, USA",(English training base),"Boston, Suffolk County, Massachusetts, United States of America",42.3602534,-71.0582912
184,/title/tt11364772/,,"Mysore, Karnataka, India",,"Mysuru, Mysuru taluk, Mysuru district, Karnataka, 570001, India",12.3051828,76.6553609
185,/title/tt11364772/,,"Pondicherry, India",,"Puducherry, Puducherry Taluk, Puducherry district, Puducherry, 605001, India",11.9340568,79.8306447
186,/title/tt11364772/,,"Hyderabad, Telangana, India",,"Hyderabad, Telangana, India",17.38878595,78.46106473453146
187,/title/tt11364772/,,"Mumbai, Maharashtra, India",(Maharashtra),"Mumbai, Mumbai City, Maharashtra, India",18.9387711,72.8353355
188,/title/tt11364772/,,"Chennai, Tamil Nadu, India",,"சென்னை - Chennai, சென்னை மாவட்டம், Tamil Nadu, India",13.0801721,80.2838331
189,/title/tt0039829/,,"Universal Studios - 100 Universal City Plaza, Universal City, California, USA",(studio),,,
190,/title/tt6286666/,,"Chennai, Tamil Nadu, India",,"சென்னை - Chennai, சென்னை மாவட்டம், Tamil Nadu, India",13.0801721,80.2838331
191,/title/tt0267246/,,"Filmistan Studios, Mumbai, Maharashtra, India",(studio),"Filmistan Studio, P/S Ward, Zone 4, Mumbai, Mumbai Suburban, Maharashtra, 400062, India",19.1653211,72.84477306829942
192,/title/tt0267246/,,Mauritius,,Mauritius,-20.2759451,57.5703566
193,/title/tt0085418/,,"University Park, Texas, USA",,"University Park, Dallas County, Texas, United States of America",32.851034,-96.79257966216875
194,/title/tt3652964/,,"Trinity Square, Kingston upon Hull, East Riding of Yorkshire, England, UK",(Amsterdam),"Trinity Sands, East Riding of Yorkshire, Yorkshire and the Humber, England, HU12 0UG, United Kingdom",53.6052825,0.088138
195,/title/tt3652964/,,"Spring Bank, Kingston upon Hull, East Riding of Yorkshire, England, UK",(Mo is stopped by the Police),,,
196,/title/tt3652964/,,"Cranehill Wharf, Beverley, East Riding of Yorkshire, England, UK",(Mo's barge/home),,,
197,/title/tt0043540/,,"Griffith Park - 4730 Crystal Springs Drive, Los Angeles, California, USA",,,,
198,/title/tt1610528/,,"North Hollywood, Los Angeles, California, USA",,"North Hollywood, Los Angeles, Los Angeles County, California, 91601-3121, United States of America",34.1729044,-118.3740371
199,/title/tt0060117/,,"Yuma, Arizona, USA",,"Yuma, Yuma County, Arizona, 85364, United States of America",32.6926588,-114.6276157
200,/title/tt0060117/,,"Somerton, Arizona, USA",,"Somerton, Yuma County, Arizona, 85350, United States of America",32.5964404,-114.709677
201,/title/tt0060117/,,"Sonoran Desert, Arizona, USA",(stock footage) (Stock footage of backscreen in stage scenes),"Sonoran Desert, Bates Well Road, Pima County, Arizona, United States of America",32.2598642,-112.9262583
202,/title/tt0060117/,,"Santa Clarita, California, USA",,"Santa Clarita, Los Angeles County, California, United States of America",34.3916641,-118.542586
203,/title/tt0347332/,,"Ballard Pier, Mumbai, Maharashtra, India",,,,
204,/title/tt0347332/,,"Film City, Goregaon, Mumbai, Maharashtra, India",(studio),"Dadasaheb Phalke Chitranagari, Goregaon Mulund Link Road, T Ward, Zone 6, Mumbai, Mumbai Suburban, Maharashtra, 400082, India",19.1587785,72.89173887052404
205,/title/tt0347332/,,"Khandala, Maharashtra, India",,"Khandala, Satara, Maharashtra, India",18.06547435,74.04109989149464
206,/title/tt0347332/,,"Nasik, Maharashtra, India",,"Nashik Thermal Power Station, Shilapur, Nashik, Maharashtra, India",19.9834939,73.8926930853926
207,/title/tt0347332/,,"School For the Blind, Jogeshwari, Mumbai, Maharashtra, India",,,,
208,/title/tt0347332/,,"Versova, Mumbai, Maharashtra, India",,"Versova, Jai Prakash Road (Versova Road), Seven Bungalows, K/W Ward, Zone 3, Mumbai, Mumbai Suburban, Maharashtra, 400061, India",19.13025205,72.8213774957082
209,/title/tt7204400/,,"Los Angeles, California, USA",,"Los Angeles, Los Angeles County, California, United States of America",34.0536909,-118.2427666
210,/title/tt11581264/,,"Ariyalur District, Tamilnadu, India",,"அரியலூர் மாவட்டம், Tamil Nadu, India",11.1530559,79.25857973608959
211,/title/tt0469287/,,France,,France,46.603354,1.8883335
212,/title/tt0103825/,,Philippines,,Philippines,12.7503486,122.7312101
213,/title/tt0067069/,,"Butte, Montana, USA",,"Butte, Silver Bow County, Montana, United States of America",46.0131505,-112.5365089
214,/title/tt0067069/,,"Astrodome - 8400 Kirby Drive, Houston, Texas, USA",(stock footage),,,
215,/title/tt0067069/,,"Grand Canyon National Park, Arizona, USA",,"Grand Canyon National Park, Coconino County, Arizona, United States of America",36.307854750000004,-112.29289603702432
216,/title/tt1716753/,,"Collingwood, Ontario, Canada",,"Collingwood, Simcoe County, Central Ontario, Ontario, Canada",44.5027226,-80.2172379
217,/title/tt5078812/,,"Ljubljana, Slovenia",(location),"Ljubljana, Upravna Enota Ljubljana, Slovenija",46.0499803,14.5068602
218,/title/tt0856778/,,"London, England, UK",,"London, Greater London, England, United Kingdom",51.5073219,-0.1276474
219,/title/tt2649128/,,"Samara, Russia",,"Самара, городской округ Самара, Самарская область, Приволжский федеральный округ, 443028, Россия",53.198627,50.113987
220,/title/tt0067943/,,"Dole, Jura, France",(city's church),"Dole, Jura, Bourgogne-Franche-Comté, France métropolitaine, 39100, France",47.0921047,5.4925463
221,/title/tt0067943/,,"Oisilly, Côte-d'Or, France",(railway bridge),"Oisilly, Dijon, Côte-d'Or, Bourgogne-Franche-Comté, France métropolitaine, 21310, France",47.4211515,5.365532
222,/title/tt6437888/,,Denmark,,Danmark,55.670249,10.3333283
223,/title/tt0444913/,,"Ooty, Tamil Nadu, India",,"உதகமண்டலம், Udhagamandalam, நீலகிரி மாவட்டம், Tamil Nadu, 643001, India",11.4126769,76.7030504
224,/title/tt0117061/,,"Toronto, Ontario, Canada",,"Toronto, Golden Horseshoe, Ontario, Canada",43.6534817,-79.3839347
225,/title/tt6735678/,,"Goa, India",,"Goa, India",15.3004543,74.0855134
226,/title/tt6735678/,,"Chennai, Tamil Nadu, India",,"சென்னை - Chennai, சென்னை மாவட்டம், Tamil Nadu, India",13.0801721,80.2838331
227,/title/tt0121989/,,"Mahabaleshwar, Maharashtra, India",,"Mahabaleshwar, Satara, Maharashtra, India",17.893641000000002,73.61316885788803
228,/title/tt0034266/,,"Wakulla Springs, Florida, USA",,"Wakulla Springs, Wakulla County, Florida, United States of America",30.2335355,-84.3051759
229,/title/tt0034266/,,"Metro-Goldwyn-Mayer Studios - 10202 W. Washington Blvd., Culver City, California, USA",(studio),,,
230,/title/tt1727535/,,"Mumbai, Maharashtra, India",,"Mumbai, Mumbai City, Maharashtra, India",18.9387711,72.8353355
231,/title/tt0089436/,,"Pagsanjan, Laguna, Philippines",,"Pagsanjan, Laguna, Calabarzon, 4008, Philippines",14.242049999999999,121.44378578464523
232,/title/tt0022792/,,"Indianapolis Motor Speedway - 4790 W. 16th Street, Speedway, Indiana, USA",(archive racing footage),,,
233,/title/tt0217654/,,"Acton, California, USA",,"Acton, Crown Valley Road, Los Angeles County, California, 93510, United States of America",34.48074149999999,-118.1868378638664
234,/title/tt0217654/,,"Los Angeles, California, USA",,"Los Angeles, Los Angeles County, California, United States of America",34.0536909,-118.2427666
235,/title/tt3036654/,,"Hancock St, Los Angeles, California, USA",(street scenes),"Hancock Street, Lincoln Heights, Los Angeles, Los Angeles County, California, 90031, United States of America",34.0676102,-118.20894
236,/title/tt3036654/,,"Eastlake Ave, Los Angeles, California, USA",(street scenes),"Eastlake Avenue, Lincoln Heights, Los Angeles, Los Angeles County, California, 90031, United States of America",34.0755396,-118.2078319
237,/title/tt3036654/,,"Morningside Ct, Los Angeles, California, USA",(street scenes),"Morningside Court, Azusa, Los Angeles County, California, 91702, United States of America",34.1570729,-117.9112305
238,/title/tt3036654/,,"Wilshire Boulevard, Los Angeles, California, USA",(street scenes),"Wilshire Boulevard, Beverly Hills, Los Angeles County, California, 90211, United States of America",34.0670538,-118.3934982
239,/title/tt3036654/,,"2nd Ave, Los Angeles, California, USA",(street scenes),"2nd Avenue, Lynwood Gardens, Lynwood, Los Angeles County, California, 90262, United States of America",33.9149622,-118.1922365
240,/title/tt3036654/,,"Hooper Ave, Los Angeles, California, USA",(Police cars chasing Danny Gates's car),"Hooper Avenue, Florence-Firestone, Los Angeles County, California, 90002, United States of America",33.9583422,-118.2539928
241,/title/tt3036654/,,"Long Beach Ave, Los Angeles, California, USA",(Police cars chasing Danny Gates's car),"Long Beach Avenue, Downtown, Los Angeles, Los Angeles County, California, 90021, United States of America",34.0207451,-118.2428149
242,/title/tt3036654/,,"E 41st St, Los Angeles, California, USA",(Police cars chasing Danny Gates's car),"East 41st Street, Nevin, Central-Alameda, Los Angeles, Los Angeles County, California, 90058, United States of America",34.0090647,-118.2506935
243,/title/tt0099624/,,"Los Angeles, California, USA",,"Los Angeles, Los Angeles County, California, United States of America",34.0536909,-118.2427666
244,/title/tt1034431/,,"Madurai, Tamil Nadu, India",,"Madurai, மதுரை மாவட்டம், Tamil Nadu, India",9.833333,77.833333
245,/title/tt0925306/,,"Turtle Bay, O'ahu, Hawaii, USA",,,,
246,/title/tt0308905/,,"Los Angeles, California, USA",,"Los Angeles, Los Angeles County, California, United States of America",34.0536909,-118.2427666
247,/title/tt0114224/,,"Agua Dulce Movie Ranch - 34855 Petersen Road, Agua Dulce, California, USA",,,,
248,/title/tt0114224/,,"Los Angeles, California, USA",,"Los Angeles, Los Angeles County, California, United States of America",34.0536909,-118.2427666
249,/title/tt0114224/,,"Warner Center, Los Angeles, California, USA",,"Warner Center, Los Angeles, Los Angeles County, California, 91367, United States of America",34.179213,-118.601522
250,/title/tt0074123/,,"Centre ville, Beaumont-sur-Oise, Val d'Oise, France",(Gilberts attempts to rob the Dorsell bank),"Avenue Anatole France, Beaumont-sur-Oise, Pontoise, Val-d'Oise, Île-de-France, France métropolitaine, 95260, France",49.1406536,2.2810367
251,/title/tt0074123/,,"Bijouterie, 49 boulevard Jean Jaurès, Paris 19, Paris, France",(scene in a jewelry store),"Rue de Paris, Résidence Jallancloud, Les Lilas, Bobigny, Seine-Saint-Denis, Île-de-France, France métropolitaine, 93260, France",48.8800554,2.4174494
252,/title/tt0074123/,,"Usine de peinture Villemer, Le Thillay, Val d'Oise, France",,,,
253,/title/tt0074123/,,"380 Route de Saint-Germain, Carrières-sur-Seine, Yvelines, France",(Gilbert's house),"380, Route de Saint-Germain, Carrières-sur-Seine, Saint-Germain-en-Laye, Yvelines, Île-de-France, France métropolitaine, 78420, France",48.910329,2.1629562
254,/title/tt0090169/,,"Arizona, USA",,"Arizona, United States of America",34.395342,-111.7632755
255,/title/tt0090169/,,"Oatman, Arizona, USA",,"Oatman, Mohave County, Arizona, 86433-9997, United States of America",35.0263915,-114.3835698
256,/title/tt0112366/,,"Sur le bateau The Starr Ferry, Hong Kong, China",(opening sequence),,,
257,/title/tt0112366/,,"Macao, China",,"澳門 Macau, China 中国",22.1757605,113.5514142
258,/title/tt0112366/,,"Paris Charles de Gaulle Airport, Roissy-en-France, Val-d'Oise, France",,,,
259,/title/tt0112366/,,"Ecouen, Val-d'Oise, France",,"Écouen, Sarcelles, Val-d'Oise, Île-de-France, France métropolitaine, 95440, France",49.0196554,2.3799378
260,/title/tt0112366/,,"Brussels, Belgium",,"Bruxelles / Brussel, Ville de Bruxelles - Stad Brussel, Région de Bruxelles-Capitale - Brussels Hoofdstedelijk Gewest, België - Belgique - Belgien",50.8465573,4.351697
261,/title/tt0112366/,,"Hôtel Métropole, place de Brouckère, Brussels, Belgium",(Carco and Tarain spend a night at a hotel before going to Jemmapes),"Hôtel Metropole, 31, Place De Brouckère - De Brouckèreplein, Quartier du Centre - Centrumwijk, Bruxelles / Brussel, Ville de Bruxelles - Stad Brussel, Région de Bruxelles-Capitale - Brussels Hoofdstedelijk Gewest, 1000, België - Belgique - Belgien",50.8515387,4.35367230602158
262,/title/tt0112366/,,"Impasse de la Poissonnerie, Paris 4, Paris, France",(preparations of the attck of the Mandarin qui Fume restaurant),"Impasse de la Poissonnerie, Quartier Saint-Gervais, Paris, Île-de-France, France métropolitaine, 75004, France",48.8555834,2.3633485
263,/title/tt0112366/,,"Rue Caron, Paris 4, Paris, France",,"Rue Caron, Quartier Saint-Gervais, Paris, Île-de-France, France métropolitaine, 75004, France",48.8548599,2.3624725
264,/title/tt0112366/,,"Restaurant Le Président-Royal Belleville, '120-124 rue du Faubourg du Temple, Paris 11, Paris, France",(Carco and his Chinese friends do research on the Mafia) (interior scenes of Le Mandarin qui Fume),,,
265,/title/tt0112366/,,"Dalle des Olympiades, avenue d'Ivry, Paris 13, Paris, France",,,,
266,/title/tt0112366/,,"Avenue de Choisy, Paris 13, Paris, France",,"13, Avenue de Choisy, Cité Florale, Paris 13e Arrondissement, Paris, Île-de-France, France métropolitaine, 75013, France",48.8207871,2.3638832
267,/title/tt0112366/,,"Studios Eclair - 10 Rue du Mont, Epinay-sur-Seine, Seine-Saint-Denis, France",(studio),"Studios Éclair, Rue du Mont, Centre-Ville, Épinay-sur-Seine, Saint-Denis, Seine-Saint-Denis, Île-de-France, France métropolitaine, 93800, France",48.9526269,2.3091826
268,/title/tt0112366/,,"Paris, France",,"Paris, Île-de-France, France métropolitaine, 75004, France",48.8566969,2.3514616
269,/title/tt1355546/,,"Kuala Lumpur, Malaysia",,"Kuala Lumpur, Malaysia",3.1516964,101.6942371
270,/title/tt1355546/,,Tanzania,,Tanzania,-6.5247123,35.7878438
271,/title/tt1653649/,,"Crimea, Ukraine",,"Кримській півострів, Амурское сельское поселение, Красногвардейский район, Автономна Республіка Крим, Україна",45.28350435,34.20081877526554
272,/title/tt0317680/,,"Film City, Goregaon, Mumbai, Maharashtra, India",(studio),"Dadasaheb Phalke Chitranagari, Goregaon Mulund Link Road, T Ward, Zone 6, Mumbai, Mumbai Suburban, Maharashtra, 400082, India",19.1587785,72.89173887052404
273,/title/tt0317680/,,"Filmistan Studios, Mumbai, Maharashtra, India",(studio),"Filmistan Studio, P/S Ward, Zone 4, Mumbai, Mumbai Suburban, Maharashtra, 400062, India",19.1653211,72.84477306829942
274,/title/tt4278346/,,"Bridgend, Wales, UK",(studio) (Animortal Studios),"Bridgend, Swansea, Mid Glamorgan, Cymru / Wales, CF31 1BZ, United Kingdom",51.5049843,-3.5756674
275,/title/tt0088392/,,"Cathedral Caverns, Woodville, Alabama, USA","(""Lemurian"" Caves)",,,
276,/title/tt0423474/,,"Los Angeles, California, USA",,"Los Angeles, Los Angeles County, California, United States of America",34.0536909,-118.2427666
277,/title/tt0415768/,,"Mumbai, Maharashtra, India",,"Mumbai, Mumbai City, Maharashtra, India",18.9387711,72.8353355
278,/title/tt0047562/,,"Courthouse Wash, Arches National Park, Utah, USA",,,,
279,/title/tt0047562/,,"Ida Gulch, Moab, Utah, USA",,,,
280,/title/tt0047562/,,"Professor Valley, Moab, Utah, USA",,,,
281,/title/tt0047562/,,"White's Ranch - Milepost 14 Utah Hwy 128, Moab, Utah, USA",,,,
282,/title/tt0047562/,,"Castle Valley, Moab, Utah, USA",,"Castle Creek Winery, UT 128, Moab, Grand County, Utah, 84532-2155, United States of America",38.6792807,-109.4455
283,/title/tt0486569/,,"Coconino National Forest, Arizona, USA",,"Coconino National Forest, Tempe Camp, Coconino County, Arizona, United States of America",34.9455958,-111.4330018089496
284,/title/tt5056352/,,"Hong Kong, China",,"香港島 Hong Kong Island, 香港 Hong Kong, China 中国",22.2793278,114.1628131
285,/title/tt5056352/,,"Jean, Nevada, USA",,"Jean, Clark County, Nevada, 89026, United States of America",35.7790078,-115.324314
286,/title/tt0450326/,,South Africa,,South Africa,-28.8166236,24.991639
287,/title/tt0085289/,,"Orléans, Loiret, France",(street scenes),"Orléans, Loiret, Centre-Val de Loire, France métropolitaine, France",47.9027336,1.9086066
288,/title/tt0286635/,,"Busan, South Korea",,"부산, 대한민국",35.1799528,129.0752365
289,/title/tt0286635/,,"Kuala Lumpur, Malaysia",,"Kuala Lumpur, Malaysia",3.1516964,101.6942371
290,/title/tt0286635/,,"Singapore City, Singapore",,"Singapore, Central, Singapore",1.3408630000000001,103.83039182212079
291,/title/tt2552498/,,"Wales, UK",,"Cymru / Wales, United Kingdom",52.2928116,-3.73893
292,/title/tt0493417/,,"Dubai, United Arab Emirates",,"دبي, تلال الإمارات, دبي, United Arab Emirates",25.0750095,55.18876088183319
293,/title/tt0116950/,,"Alfanagar, Bundi, Rajasthan, India",,,,
294,/title/tt0116950/,,"Film City, Goregaon, Mumbai, Maharashtra, India",(studio),"Dadasaheb Phalke Chitranagari, Goregaon Mulund Link Road, T Ward, Zone 6, Mumbai, Mumbai Suburban, Maharashtra, 400082, India",19.1587785,72.89173887052404
