,Code,Show Name,Location,Scene,geocodedLocation,latitude,longitude
0,/title/tt0435625/,,"Scotland, UK",,"Scotland, United Kingdom",56.7861112,-4.1140518
1,/title/tt0435625/,,"Pinewood Studios, Iver Heath, Buckinghamshire, England, UK",,"Pinewood Studios, Pinewood Green, Iver, Iver Heath, Buckinghamshire, South East, England, SL0 0QJ, United Kingdom",51.54831515,-0.5346765566753087
2,/title/tt0435625/,,UK,,United Kingdom,54.7023545,-3.2765753
3,/title/tt0816462/,,"Pernik, Bulgaria",,"Перник, България",42.62802685,22.88250453463423
4,/title/tt0816462/,,"Bolata, Dobrich, Bulgaria",,"Болата, 901, Свети Никола, Каварна, Добрич, България",43.382321149999996,28.469991806587736
5,/title/tt0816462/,,"Zlatnite Mostove, Vitosha, Bulgaria",,"Златните мостове, Княжево - Златни мостове, в.з. Килиите, Витоша, Столична, София-град, 1641, България",42.6097285,23.2391737
6,/title/tt0816462/,,"Bistriza, Bulgaria",,"Мусаленска Бистрица, Самоков, Софийска, 2010, България",42.2885158,23.5785067
7,/title/tt0316654/,,"First Congregational Church - 540 S. Commonwealth Avenue, Los Angeles, California, USA",,,,
8,/title/tt0316654/,,"28 Old Fulton Street, Brooklyn, New York City, New York, USA",(warehouse),"28, Old Fulton Street, DUMBO, Brooklyn, Kings County, New York, 11201, United States of America",40.7023042,-73.9933362
9,/title/tt0316654/,,"Madison Square Park, Manhattan, New York City, New York, USA",,"Madison Square Park, Manhattan, New York County, New York, United States of America",40.74220365,-73.9880191041057
10,/title/tt0316654/,,"Columbia University - Broadway & 116th Street, Manhattan, New York City, New York, USA",,,,
11,/title/tt0316654/,,"New York Street, Backlot, Universal Studios - 100 Universal City Plaza, Universal City, California, USA",,,,
12,/title/tt0316654/,,"Los Angeles, California, USA",,"Los Angeles, Los Angeles County, California, United States of America",34.0536909,-118.2427666
13,/title/tt0316654/,,"City Hall Park, Manhattan, New York City, New York, USA",,"City Hall Park, Manhattan, New York County, New York, 10000, United States of America",40.712857549999995,-74.00587000024501
14,/title/tt1320253/,,"Guanabara Bay, Rio de Janeiro, Rio de Janeiro, Brazil",,"Baía de Guanabara, Região Geográfica Intermediária do Rio de Janeiro, Rio de Janeiro, Região Sudeste, Brasil",-22.8168746,-43.12721260229635
15,/title/tt1320253/,,"New Orleans, Louisiana, USA",,"New Orleans, Orleans Parish, Louisiana, United States of America",29.9499323,-90.0701156
16,/title/tt1320253/,,"Mangaratiba, Rio de Janeiro, Brazil",,"Mangaratiba, Região Geográfica Imediata do Rio de Janeiro, Região Geográfica Intermediária do Rio de Janeiro, Rio de Janeiro, Região Sudeste, Brasil",-22.9600193,-44.04111
17,/title/tt1320253/,,"First Presbyterian Church of Hollywood - 1760 N. Gower Street, Hollywood, Los Angeles, California, USA",,,,
18,/title/tt1320253/,,"Elmwood, Louisiana, USA",,"Elmwood, Jefferson Parish, Louisiana, United States of America",29.9565932,-90.1897975
19,/title/tt1320253/,,"Niterói, Rio de Janeiro, Brazil",,"Niterói, Região Geográfica Imediata do Rio de Janeiro, Região Metropolitana do Rio de Janeiro, Região Geográfica Intermediária do Rio de Janeiro, Rio de Janeiro, Região Sudeste, Brasil",-22.8832371,-43.1154552
20,/title/tt3475734/,,"Walt Disney Studios, 500 South Buena Vista Street, Burbank, California, USA",(studio),,,
21,/title/tt3475734/,,"New York City, New York, USA",,"New York, United States of America",40.7127281,-74.0060152
22,/title/tt0120783/,,"Camp Seeley - 250 N. Hwy 138, Crestline, California, USA",,,,
23,/title/tt0120783/,,"Keene, New Hampshire, USA",,"Keene, Cheshire County, New Hampshire, United States of America",42.933597,-72.2784264
24,/title/tt0120783/,,"London, England, UK",,"London, Greater London, England, United Kingdom",51.5073219,-0.1276474
25,/title/tt0120783/,,"San Francisco, California, USA",,"San Francisco, San Francisco City and County, California, United States of America",37.7790262,-122.4199061
26,/title/tt0120783/,,"Administration Building, Treasure Island, San Francisco Bay, California, USA",(Stafford Hotel Exterior),,,
27,/title/tt0120783/,,"New Hampshire, USA",,"New Hampshire, United States of America",43.4849133,-71.6553992
28,/title/tt0120783/,,"Vancouver, British Columbia, Canada",,"Vancouver, Metro Vancouver Regional District, British Columbia, Canada",49.2608724,-123.1139529
29,/title/tt0120783/,,"27 Berkeley Square, London, England, UK",(studio) (Elizabeth James' Studio),"27, Berkeley Square, St. James's, Mayfair, City of Westminster, London, Greater London, England, W1J 6EN, United Kingdom",51.51056895,-0.14660146365436882
30,/title/tt0120783/,,"San Bernardino National Forest, California, USA",,"San Bernardino National Forest, Pinezanita, San Bernardino County, California, United States of America",34.18055525,-116.96850289553923
31,/title/tt1133985/,,"New Orleans, Louisiana, USA",,"New Orleans, Orleans Parish, Louisiana, United States of America",29.9499323,-90.0701156
32,/title/tt1133985/,,"Madisonville, Louisiana, USA",,"Madisonville, St. Tammany Parish, Louisiana, 90447, United States of America",30.4043607,-90.1570232
33,/title/tt1133985/,,"California, USA",,"California, United States of America",36.7014631,-118.7559974
34,/title/tt1133985/,,"Cougar Buttes, Lucerne Valley, California, USA",,,,
35,/title/tt1133985/,,"Second Line Stages, New Orleans, Louisiana, USA",(studio),,,
36,/title/tt1133985/,,"Lucerne Valley, California, USA",,"Lucerne Valley, San Bernardino County, California, 92356, United States of America",34.4436167,-116.9455239
37,/title/tt1133985/,,"Louisiana, USA",,"Louisiana, United States of America",30.8703881,-92.007126
38,/title/tt0480249/,,"Grand Central Station, Manhattan, New York City, New York, USA",(Neville caught in trap),"Grand Central Terminal, 89, East 42nd Street, Midtown East, Manhattan Community Board 5, Manhattan, New York County, New York, 10017, United States of America",40.752701200000004,-73.97724987363358
39,/title/tt0480249/,,"Brooklyn Bridge, New York City, New York, USA",(evacuation scene),"Brooklyn Bridge, Dover Street, Financial District, Manhattan Community Board 1, Manhattan, New York County, New York, 10038, United States of America",40.70569125,-73.9963578678543
40,/title/tt0480249/,,"Kingsbridge Armory - 29 West Kingsbridge Road, Bronx, New York City, New York, USA",(Times Square set: lions attack),"Kingsbridge Armory, West Kingsbridge Road, The Bronx, Bronx County, New York, 10468, United States of America",40.86839345,-73.89816823358376
41,/title/tt0480249/,,"Washington Square Park, Greenwich Village, Manhattan, New York City, New York, USA",,,,
42,/title/tt0480249/,,"Central Park, Manhattan, New York City, New York, USA",,"Central Park, Manhattan, New York County, New York, United States of America",40.7827725,-73.9653627406542
43,/title/tt0480249/,,"Metropolitan Museum of Art, Manhattan, New York City, New York, USA",,"The Metropolitan Museum of Art, 1000, 5th Avenue, Manhattan Community Board 8, Manhattan, New York County, New York, 10035, United States of America",40.779443650000005,-73.96336411385192
44,/title/tt0480249/,,"Park Avenue, Manhattan, New York City, New York, USA",(chasing deer herd),"Park Avenue, Murray Hill, Manhattan Community Board 5, Manhattan, New York County, New York, 10037, United States of America",40.7509833,-73.9786564
45,/title/tt0480249/,,"Williamsburg Armory - 355 Marcy Avenue, Brooklyn, New York, USA",(interiors: Neville's house),,,
46,/title/tt0480249/,,"East River, New York City, New York, USA",,"East River, New York, 10044, United States of America",40.7792911,-73.92771
47,/title/tt0480249/,,"Beach Street, Tribeca, Manhattan, New York City, New York, USA",(Neville visiting appartments),"Beach Street, Tribeca, Manhattan Community Board 1, Manhattan, New York County, New York, 10005, United States of America",40.7203782,-74.0059661
48,/title/tt0480249/,,"West 14th Street, Manhattan, New York City, New York, USA",(Neville runs into darkseekers hive),"West 14th Street, Chelsea, Manhattan Community Board 2, Manhattan, New York County, New York, 10014, United States of America",40.7409462,-74.0053437
49,/title/tt0480249/,,"South Street Seaport - 19 Fulton Street, Manhattan, New York City, New York, USA",(meeting point on the East River),,,
50,/title/tt0080455/,,"Lyon's Delicatessen - 807 W. Maxwell Street, Near West Side, Chicago, Illinois, USA","(Soul Food Restaurant - Aretha Franklin ""Think"" scene)",,,
51,/title/tt0080455/,,"Gary's Mill - Illinois Route 59 & Gary's Mill Rd., West Chicago, Illinois, USA",(Gas Station),,,
52,/title/tt0080455/,,"Calumet River, South Deering, Chicago, Illinois, USA",(Bluesmobile car jumps over bridge),,,
53,/title/tt0080455/,,"South Shore Country Club - 7059 South Shore Drive, South Shore, Chicago, Illinois, USA",(Palace Hotel Ballroom - First Performance of the Blues Brothers),,,
54,/title/tt0080455/,,"Chicago Picasso Sculpture, Richard J. Daley Memorial Plaza, The Loop, Downtown, Chicago, Illinois, USA",(Jake and Elwood's Landmark),,,
55,/title/tt0080455/,,"Intersection of Illinois Routes 12 & 176, Wauconda, Illinois, USA",(police car pile-up),,,
56,/title/tt0080455/,,"Richard J. Daley Center - 55 W. Randolph Street, The Loop, Downtown, Chicago, Illinois, USA",(End of finale car chase - car crashes through ground floor building),,,
57,/title/tt0080455/,,"Wrigley Field - 1060 W. Addison St., Lake View, Chicago, Illinois, USA",(The Blues Brothers' Official Address - Visit by Nazis),"Wrigley Field, 1060, West Addison Street, Lake View, Lakeview, Chicago, Cook County, Illinois, 60613, United States of America",41.9481225,-87.6563513145702
58,/title/tt0080455/,,"Lower Wacker Drive, Downtown, Chicago, Illinois, USA",(other car chase),,,
59,/title/tt0080455/,,"CCL Custom Manufacturing - 1 Hegeler Lane, Danville, Illinois, USA",(Factory Scenes),,,
60,/title/tt0080455/,,"300 E. 47th Street, Grand Boulevard, Chicago, Illinois, USA",(Ray's Music Exchange),"300-312, East 47th Street, Grand Boulevard, Chicago, Cook County, Illinois, 60653, United States of America",41.80953745,-87.61917339051561
61,/title/tt0080455/,,"Waukegan, Illinois, USA",,"Waukegan, Illinois, United States of America",42.3636331,-87.8447938
62,/title/tt0080455/,,"Richard J. Daley Memorial Plaza, The Loop, Downtown, Chicago, Illinois, USA",(End of finale chase),,,
63,/title/tt0080455/,,"Marquette Park, Chicago Lawn, Chicago, Illinois, USA",(Nazis are run-out),"Marquette Park, 6743, Chicago Lawn, Chicago, Cook County, Illinois, 60629, United States of America",41.7685506,-87.70288261909127
64,/title/tt0080455/,,"Park Lake, Backlot, Universal Studios - 100 Universal City Plaza, Universal City, California, USA",,,,
65,/title/tt0080455/,,"Corner of W. Talcott & Greenwood Streets, Park Ridge, Illinois, USA",(Blues Brothers get pulled-over by cops),,,
66,/title/tt0080455/,,"Universal Studios - 100 Universal City Plaza, Universal City, California, USA",(studio) (Country Bobs Bunker),,,
67,/title/tt0080455/,,"Corner of W. Talcott Road and Cumberland Avenue, Park Ridge, Illinois, USA",(Blues Brothers run red light),,,
68,/title/tt0080455/,,"Illinois, USA",,"Illinois, United States of America",40.0796606,-89.4337288
69,/title/tt0080455/,,"Joliet, Illinois, USA",,"Joliet, Will County, Illinois, United States of America",41.5263603,-88.0840212
70,/title/tt0080455/,,"Calumet Harbor, South Deering, Chicago, Illinois, USA",,,,
71,/title/tt0080455/,,"Griffith Park - 4730 Crystal Springs Drive, Los Angeles, California, USA",(Police car crashes through billboard),,,
72,/title/tt0080455/,,"Los Angeles, California, USA",,"Los Angeles, Los Angeles County, California, United States of America",34.0536909,-118.2427666
73,/title/tt0080455/,,"New York Street, Backlot, Universal Studios - 100 Universal City Plaza, Universal City, California, USA",,,,
74,/title/tt3040964/,,"Los Angeles Center Studios - 450 S. Bixel Street, Downtown, Los Angeles, California, USA",,,,
75,/title/tt1365519/,,"Cape Town Film Studios, Cape Town, Western Cape, South Africa",(studio),"Cape Town Film Studios, Film City Boulevard, Houghton, Cape Town Ward 16, Eersterivier, City of Cape Town, Western Cape, 7784, South Africa",-34.0315617,18.719156772105897
76,/title/tt1365519/,,"Table Mountain, Cape Town, Western Cape, South Africa",,"Table Mountain, Yellowstone Gully, Cape Town Ward 77, Cape Town, City of Cape Town, Western Cape, 8001, South Africa",-33.9593679,18.4042289
77,/title/tt1365519/,,"Forest Hall Estate, Plettenberg Bay, Western Cape, South Africa",,,,
78,/title/tt1365519/,,"Paarl, Western Cape, South Africa",,"Paarl, Cape Winelands District Municipality, Western Cape, 7646, South Africa",-33.741667,18.975
79,/title/tt1365519/,,"Plettenberg Bay, Western Cape, South Africa",,"Plettenberg Bay, Garden Route District Municipality, Western Cape, 6600, South Africa",-34.052778,23.369444
80,/title/tt1365519/,,"Cape Town, South Africa",,"Cape Town, City of Cape Town, Western Cape, 8001, South Africa",-33.928992,18.417396
81,/title/tt0114148/,,"Disney Animation Studios - 2100 W Riverside Drive, Burbank, California, USA",,,,
82,/title/tt6475714/,,South Africa,,South Africa,-28.8166236,24.991639
83,/title/tt5807780/,,China,(Mentioned),中国,35.000074,104.999927
84,/title/tt5807780/,,"Shanghai, China",(Chinese Stores),"上海市, 黄浦区, China 中国",31.2322758,121.4692071
85,/title/tt1905041/,,"Glasgow, Strathclyde, Scotland, UK",,"DoubleTree by Hilton Glasgow Strathclyde, Phoenix Crescent, Strathclyde Business Park, Shawhead (farm), Bellshill, North Lanarkshire, Scotland, ML4 3JQ, United Kingdom",55.8317061,-4.0333295
86,/title/tt1905041/,,"Bovingdon Airfield, Bovingdon, Hertfordshire, UK",(exterior runway shots for the finale),"Bovingdon Airfield (disused), Lysander Close, Bovingdon, Hertfordshire, East of England, England, HP3 0RY, United Kingdom",51.7285504,-0.5420498
87,/title/tt1905041/,,"Mersey Tunnel, Liverpool, Merseyside, England, UK",,,,
88,/title/tt1905041/,,"Lambeth Bridge, River Thames, London, England, UK",(exterior scenes),,,
89,/title/tt1905041/,,"London, England, UK",,"London, Greater London, England, United Kingdom",51.5073219,-0.1276474
90,/title/tt1905041/,,"Shepperton Studios, Shepperton, Surrey, England, UK",,,,
91,/title/tt1905041/,,"Piccadilly Circus, Piccadilly, London, England, UK",,"Piccadilly Circus, St. James's, Fitzrovia, City of Westminster, London, Greater London, England, SW1Y 4QE, United Kingdom",51.5098192,-0.1345484
92,/title/tt1905041/,,"Hong Kong, China",,"香港島 Hong Kong Island, 香港 Hong Kong, China 中国",22.2793278,114.1628131
93,/title/tt1905041/,,"Queensway Tunnel, Liverpool, Merseyside, England, UK",(First London Chase),,,
94,/title/tt1905041/,,"B Stage, Shepperton Studios, Shepperton, Surrey, England, UK",,,,
95,/title/tt0078935/,,"Leticia, Amazonas, Colombia",,"Leticia, Amazonas, Colombia",-3.58082345,-70.08851628711486
96,/title/tt0078935/,,Venezuela,,Venezuela,8.0018709,-66.1109318
97,/title/tt0078935/,,Italy,,Italia,42.6384261,12.674297
98,/title/tt0078935/,,"Incir De Paolis Studios, Rome, Lazio, Italy",(interiors),,,
99,/title/tt0078935/,,USA,,United States,39.7837304,-100.4458825
100,/title/tt0163025/,,"Jurassic Kahili Ranch, Kilauea, Kauai, Hawaii, USA",(outdoor filming),,,
101,/title/tt0163025/,,"Hawaii, USA",,"Hawaii, United States of America",19.58726775,-155.42688965312746
102,/title/tt0163025/,,"Universal Orlando Resort - 1000 Universal Studios Plaza, Orlando, Florida, USA",,,,
103,/title/tt0163025/,,"Wendover, Utah, USA",(airfield),"Wendover, Tooele County, Utah, 84083, United States of America",40.7374014,-114.0304541
104,/title/tt0163025/,,"Stage 28, Universal Studios - 100 Universal City Plaza, Universal City, California, USA",,,,
105,/title/tt0163025/,,"Stage 1, Universal Studios - 100 Universal City Plaza, Universal City, California, USA",,,,
106,/title/tt0163025/,,"Stage 18, Universal Studios - 100 Universal City Plaza, Universal City, California, USA",,,,
107,/title/tt0163025/,,"Stage 29, Universal Studios - 100 Universal City Plaza, Universal City, California, USA",,,,
108,/title/tt0102798/,,"Carcassonne, Aude, France",,"Carcassonne, Aude, Occitanie, France métropolitaine, 11000, France",43.2130358,2.3491069
109,/title/tt0102798/,,"Aysgarth Falls, Aysgarth, Leyburn, North Yorkshire, England, UK",(Where Robin fights Little John),,,
110,/title/tt0102798/,,"Old Wardour Castle, Salisbury, Wiltshire, England, UK",,,,
111,/title/tt0102798/,,"Highclere Castle, Highclere, Hampshire, England, UK",,"Highclere Castle, Limetree Avenue, Highclere, Basingstoke and Deane, Hampshire, South East, England, RG20 9LR, United Kingdom",51.32660235,-1.3605163180511601
112,/title/tt0102798/,,"New Forest, Hampshire, England, UK",,"New Forest National Park, Lyndhurst, New Forest, Hampshire, South East, England, United Kingdom",50.8556349,-1.596159553277456
113,/title/tt0102798/,,"Hulne Park, Northumberland, England, UK",,"Hulne Park, Denwick, Alnwick, Northumberland, North East England, England, United Kingdom",55.432218000000006,-1.7493925484752704
114,/title/tt0102798/,,"Malham, North Yorkshire, England, UK",,"Malham, North Yorkshire, Yorkshire and the Humber, England, BD23, United Kingdom",54.0612719,-2.1529001
115,/title/tt0102798/,,"Shepperton Studios, Shepperton, Surrey, England, UK",(studio),,,
116,/title/tt0058150/,,"Andermatt, Uri, Switzerland",(James Bond meets Tilly Masterson),"Andermatt, Korporation Ursern, Uri, 6490, Switzerland",46.6340499,8.5948148
117,/title/tt0058150/,,"Rhone Glacier, Swiss Alps, Switzerland",(James Bond driving Aston Martin in Switzerland),,,
118,/title/tt0058150/,,"Fort Knox, Kentucky, USA",(Fort Knox exteriors),"Fort Knox, Hardin County, Kentucky, 40121, United States of America",37.897655150000006,-85.90385212370151
119,/title/tt0058150/,,"RAF Northolt, Ruislip, London, England, UK","(as Blue Grass Airfield, Kentucky/Pussy Galore's flying circus)","RAF Northolt, Portal Close, London Borough of Hillingdon, London, Greater London, England, HA4 6NN, United Kingdom",51.55435185,-0.41810549581838996
120,/title/tt0058150/,,"Poultry St, City of London, England, UK",(Ex-Midland Bank HQ bank vault as Fort Knox interior),"Poultry, Barbican, City of London, Greater London, England, EC2R 8AJ, United Kingdom",51.5134469,-0.0899834
121,/title/tt0058150/,,"Lepontine Alps, Switzerland",(James Bond drives Aston Martin along alpine roads in Switzerland),,,
122,/title/tt0058150/,,"Southend Airport, Rochford, Essex, England, UK",(Goldfinger's Rolls Royce is transported),"Southend Airport, Southend Road, Rochford, Southend-on-Sea, East of England, England, SS4, United Kingdom",51.569686,0.7052992
123,/title/tt0058150/,,"Stoke Park House, Park Road, Stoke Poges, Buckinghamshire, England, UK","(Exterior - Oddjob decapitates statue with hat outside Royal St George's, Sandwich, Kent)","Stoke Park, Park Road, Stoke Poges, Farnham Royal, Buckinghamshire, South East, England, SL2 3BB, United Kingdom",51.5352209,-0.6045578
124,/title/tt0058150/,,"D Stage, Pinewood Studios, Iver Heath, Buckinghamshire, England, UK",(studio) (UK set of the Fontainebleu Hotel pool scene),,,
125,/title/tt0058150/,,"Louisville, Kentucky, USA",(Fort Knox exteriors/Bowman Field),"Louisville, Jefferson County, Kentucky, United States of America",38.2542376,-85.759407
126,/title/tt0058150/,,"Black Park Country Park, Iver Heath, Wexham, Buckinghamshire, England, UK",(studio) (Fort Knox recreation near Pinewood Studios),,,
127,/title/tt0058150/,,"Southend-on-Sea, Essex, England, UK",,"Southend, Rochford, Essex, East of England, England, SS4, United Kingdom",51.57036905,0.708620337888284
128,/title/tt0058150/,,"Miami Beach, Florida, USA",,"Miami Beach, Miami-Dade County, Florida, United States of America",25.7929198,-80.1353006
129,/title/tt0058150/,,"Washington, District of Columbia, USA",,"Washington, District of Columbia, 20230, United States of America",38.8949924,-77.0365581
130,/title/tt0058150/,,"Houses of Parliament, Westminster, London, England, UK",,"Palace of Westminster, The Terrace, Westminster, Millbank, City of Westminster, London, Greater London, England, SW1A 0AA, United Kingdom",51.499425200000005,-0.12444777279476393
131,/title/tt0102803/,,"Hollywood Sign, Hollywood Hills, Los Angeles, California, USA",,"Hollywood Sign, Mount Lee Drive, Hollywood Hills, Los Angeles, Los Angeles County, California, 90068, United States of America",34.1340991,-118.3216523
132,/title/tt0102803/,,"Santa Maria Airport, Santa Maria, California, USA",,,,
133,/title/tt0102803/,,"Harbor Star Stage, San Pedro, Los Angeles, California, USA",(studio),,,
134,/title/tt2403021/,,"Santiago, Chile",,"Santiago, Provincia de Santiago, Región Metropolitana de Santiago, Chile",-33.4377968,-70.6504451
135,/title/tt2403021/,,Chile,,Chile,-31.7613365,-71.3187697
136,/title/tt2403021/,,USA,,United States,39.7837304,-100.4458825
137,/title/tt0059800/,,"Château d'Anet, Anet, Eure-et-Loir, France","(Funeral and fight scenes in opening sequence, Anet is 100 km due west of Paris)","Château d'Anet, Place du Château, Le Potager de Diane, Anet, Dreux, Eure-et-Loir, Centre-Val de Loire, France métropolitaine, 28260, France",48.858700999999996,1.4382396696168303
138,/title/tt0059800/,,"Silver Springs - 5656 E. Silver Springs Boulevard, Ocala, Florida, USA",(underwater close-up shots),,,
139,/title/tt0059800/,,"Paradise Beach, Paradise Island, Bahamas",(Bond and Domino arrive ashore),,,
140,/title/tt0059800/,,"Clifton Wall, Nassau Harbour, Nassau, New Providence Island, Bahamas",(underwater battle scenes - hiding place of stolen Vulcan bomber),,,
141,/title/tt0059800/,,"Paradise Island, Bahamas",,"Paradise Island, New Providence, Bahamas",25.08335515,-77.3063341678734
142,/title/tt0059800/,,"Breakwater, North Shore, Paradise Island, Bahamas",(Largo's henchmen and James Bond diving scene),,,
143,/title/tt0059800/,,"Coral Harbour, New Providence Island, Bahamas",,"Coral Harbour, New Providence, Bahamas",24.984151500000003,-77.46313591410845
144,/title/tt0059800/,,"Gambier Village, North Shore, New Providence Island, Bahamas",,,,
145,/title/tt0059800/,,"Silverstone Racetrack, Northamptonshire, England, UK","(chase with Bond, Lippe & Volpe)",,,
146,/title/tt0059800/,,"Off West Bay Street, North Shore, West Providence Island, Bahamas",,,,
147,/title/tt0059800/,,"Rock Point House, Rock Point, Off West Bay Street, North Shore, West Providence Island, Bahamas",(Largo's Lair - Palmyra Estate),,,
148,/title/tt0059800/,,"Da Vinho Estate, Portugal",(Draco's birthday Party),,,
149,/title/tt0059800/,,"RAF Northolt, A4180 W End Rd, Ruislip, United Kingdom",(RAF airfield entrance),,,
150,/title/tt0059800/,,"Cafe Martinique, Paradise Lagoon, Paradise Island, Bahamas",(Bond has dinner and dances with Domino - Bond gambles with Largo playing Chemin de Fer),,,
151,/title/tt0059800/,,"Clifton Pier, Nassau Harbour, Nassau, New Providence Island, Bahamas",(James Bond and Domino underwater love scenes - underwater battle),,,
152,/title/tt0059800/,,"Downtown, Nassau, New Providence Island, Bahamas",(Junkanoo Mardi-Gras),,,
153,/title/tt0059800/,,"Kiss Kiss Club, Nassau, New Providence Island, Bahamas",(Kiss Kiss Club sequence),,,
154,/title/tt0059800/,,"Miami, Florida, USA",(off the coast - US Navy parachuting Scene),"Miami, Miami-Dade County, Florida, United States of America",25.7742658,-80.1936589
155,/title/tt0059800/,,"Nassau International Airport, Nassau, New Providence Island, Bahamas",,,,
156,/title/tt0059800/,,"Paradise Lagoon, Paradise Island, Bahamas",,"Paradise Lagoon, Paradise Beach Drive, New Providence, 242, Bahamas",25.0857629,-77.32157023666753
157,/title/tt0059800/,,"Pont d'Arcole, Seine River, Paris, France",(opening sequence),,,
158,/title/tt0059800/,,"Rock Point, Off West Bay Street, North Shore, West Providence Island, Bahamas",(Largo's Lair - Palmyra Estate),,,
159,/title/tt0059800/,,"Royal Saracen's Head, London End, Beaconsfield, Buckinghamshire, England, UK",(car arriving at pilot's hotel),"Royal Saracens Head, London End, Beaconsfield, Buckinghamshire, South East, England, HP9 2JH, United Kingdom",51.6015841,-0.6363037
160,/title/tt0059800/,,"Staniel Cay, The Exumas, Bahamas",,,,
161,/title/tt0059800/,,"Thunderball Reef, Off Staniel Cay, The Exumas, Bahamas",(spear-gun battle),,,
162,/title/tt0055374/,,"Vernonia, Oregon, USA",,"Vernonia, Columbia County, Oregon, United States of America",45.8587229,-123.1928926
163,/title/tt4209256/,,"Los Angeles, California, USA",(Season 1 and 2),"Los Angeles, Los Angeles County, California, United States of America",34.0536909,-118.2427666
164,/title/tt0090728/,,"Fire Station 23 - 225 E. 5th Street, Los Angeles, California, USA",('Egg' Shen's office/home - interiors),"Fire Station 23, 225, East 5th Street, Skid Row, Downtown, Los Angeles, Los Angeles County, California, 90013, United States of America",34.0458225,-118.24658608422999
165,/title/tt0090728/,,"Stage 17, 20th Century Fox Studios - 10201 Pico Blvd., Century City, Los Angeles, California, USA",,,,
166,/title/tt0090728/,,"Stage 6, 20th Century Fox Studios - 10201 Pico Blvd., Century City, Los Angeles, California, USA",,,,
167,/title/tt0090728/,,USA,,United States,39.7837304,-100.4458825
168,/title/tt0090728/,,"Grant Avenue, Chinatown, San Francisco, California, USA",(bus scene),"Grant Avenue, Chinatown, San Francisco, San Francisco City and County, California, 94108, United States of America",37.7904849,-122.4056056
169,/title/tt3967856/,,"Vancouver, British Columbia, Canada",,"Vancouver, Metro Vancouver Regional District, British Columbia, Canada",49.2608724,-123.1139529
170,/title/tt3967856/,,Canada,,Canada,61.0666922,-107.9917071
171,/title/tt3967856/,,"Britannia Beach, British Columbia, Canada",(opening inauguration),"Britannia Beach, Area D (Elaho/Garibaldi), Squamish-Lillooet Regional District, British Columbia, V0N 1J0, Canada",49.626392,-123.206005
172,/title/tt3967856/,,"Britannia Mine Museum, 1 Forbes Way, Britannia Beach, BC V0N 1J0, Canada",(Location),,,
173,/title/tt0088559/,,"317 Ocean Front Walk, Venice, California, USA",(MacGyver's house in season 1),"317, Ocean Front Walk, Venice, Los Angeles, Los Angeles County, California, 90291, United States of America",33.99447685714286,-118.48022251020409
174,/title/tt0088559/,,"The Houseboat, Bute Marina, Coal Harbour, Vancouver, British Columbia, Canada",(MacGyver's house in seasons 3-6),,,
175,/title/tt0088559/,,"Arco Center Towers - 200 & 300 Oceangate, Long Beach, California, USA",(Pheonix Foundation),,,
176,/title/tt0088559/,,"Mexican Street, Backlot, Universal Studios - 100 Universal City Plaza, Universal City, California, USA",,,,
177,/title/tt0088559/,,"RMS Queen Mary - 1126 Queens Highway, Long Beach, California, USA",,,,
178,/title/tt0088559/,,"Train Station, Backlot, Universal Studios - 100 Universal City Plaza, Universal City, California, USA",,,,
179,/title/tt2647544/,,"Wilmington, North Carolina, USA",(Location),"Wilmington, New Hanover County, North Carolina, United States of America",34.2257282,-77.9447107
180,/title/tt2647544/,,"North Carolina, USA",,"North Carolina, United States of America",35.6729639,-79.0392919
181,/title/tt2647544/,,"Stone Mountain Park, Georgia, USA",(Indian Island),"Stone Mountain Park, DeKalb County, Georgia, 30087, United States of America",33.80696945,-84.14231933134678
182,/title/tt0120669/,,"Bahooka Family Restaurant, Rosemead, California, USA",,,,
183,/title/tt0120669/,,"Le Bistro Lounge, Riviera Hotel & Casino - 2901 Las Vegas Boulevard South, Las Vegas, Nevada, USA",,,,
184,/title/tt0120669/,,"Jean Dry Lake, Nevada, USA",,"Dry Lake, Clark County, Nevada, United States of America",36.4554249,-114.8477622
185,/title/tt0120669/,,"Ambassador Hotel - 3400 Wilshire Boulevard, Los Angeles, California, USA",,,,
186,/title/tt2567026/,,"Shepperton Studios, Shepperton, Surrey, England, UK",,,,
187,/title/tt2567026/,,UK,,United Kingdom,54.7023545,-3.2765753
188,/title/tt1051220/,,"Auckland Film Studios, New Zealand",,,,
189,/title/tt0918940/,,"Kedleston Hall, Kedleston, Derbyshire, England, UK","(Greystoke, Tarzan's ancestral country home)","Kedleston Hall, Kedleston Road, Kedleston, Amber Valley, Derbyshire, East Midlands, England, DE22 5JH, United Kingdom",52.95914075,-1.5359169984214387
190,/title/tt0918940/,,"Ashridge Estate, Hertfordshire","(""The village"" of grass huts)","Ashridge Drive, St Stephen, St Albans, Hertfordshire, East of England, England, AL2 3SZ, United Kingdom",51.7081013,-0.3711653
191,/title/tt0918940/,,"The Dolomites, Italy",,"Dolomiti, Agordo, Belluno, Veneto, Italia",46.29459455,12.051191718698618
192,/title/tt0918940/,,"Gaddesden Place, Hemel Hempstead, Hertfordshire, England, UK",(location),,,
193,/title/tt3717252/,,Czech Republic,,Česko,49.8167003,15.4749544
194,/title/tt3717252/,,"Hluboká nad Vltavou, Czech Republic",(castle of vampires),"Hluboká nad Vltavou, okres České Budějovice, Jihočeský kraj, Jihozápad, Česká republika",49.0522493,14.4342702
195,/title/tt0955308/,,"Dovedale, Derbyshire, England, UK",,"Dovedale, Ilam Rock Bridge, Ilam, Derbyshire Dales, Derbyshire, East Midlands, England, DE6 2GB, United Kingdom",53.0723315,-1.7887601
196,/title/tt0955308/,,"Ashridge Park, Little Gaddesden, Hertfordshire, England, UK",,"Ashridge, Dacorum, Hertfordshire, East of England, England, HP4 1LU, United Kingdom",51.8062413,-0.5806941
197,/title/tt0955308/,,"Virginia Water, Surrey, England, UK",(Boat Scenes),"Virginia Water, Surrey, South East, England, GU25 4DL, United Kingdom",51.4033624,-0.5661711
198,/title/tt0955308/,,"Pembroke Dock, Pembrokeshire, Wales, UK",,"Pembroke Dock, Pennar, Pembrokeshire, Cymru / Wales, United Kingdom",51.693539,-4.9392016
199,/title/tt0955308/,,"A Stage, Shepperton Studios, Shepperton, Surrey, England, UK",,,,
200,/title/tt0955308/,,"F Stage, Shepperton Studios, Shepperton, Surrey, England, UK",,,,
201,/title/tt0955308/,,"W Stage, Shepperton Studios, Shepperton, Surrey, England, UK",,,,
202,/title/tt2345759/,,"Namib Desert, Namibia",(Namib Desert),"Namib Desert Lodge, Hardap Region, Namibia",-24.1165286,15.9045939
203,/title/tt2345759/,,"Natural History Museum, South Kensington, London, England, UK",,"Natural History Museum, Queen's Gate, Brompton, Royal Borough of Kensington and Chelsea, London, Greater London, England, SW7 5QL, United Kingdom",51.4955742,-0.1790756
204,/title/tt2345759/,,"Waverley Abbey, Surrey, England, UK",,"Waverley Abbey, Waverley Lane, Compton, Farnham, Waverley, Surrey, South East, England, GU9 8EP, United Kingdom",51.2000094,-0.7592816186816365
205,/title/tt2345759/,,"LA Castle Studios, Burbank, California, USA",(154 S. Victory Blvd. Burbank CA USA),,,
206,/title/tt2345759/,,"Pinewood Studios, Iver Heath, Buckinghamshire, England, UK",(filmed at),"Pinewood Studios, Pinewood Green, Iver, Iver Heath, Buckinghamshire, South East, England, SL0 0QJ, United Kingdom",51.54831515,-0.5346765566753087
207,/title/tt2345759/,,"Warner Bros. Studios, Leavesden, Hertfordshire, England, UK",(filmed at),"Warner Bros Studios Leavesden, Essex Lane, Warner Bros. Studios Leavesden, Abbots Langley, Three Rivers, Hertfordshire, East of England, England, WD25 7LP, United Kingdom",51.6934642,-0.4205376395864987
208,/title/tt2345759/,,UK,,United Kingdom,54.7023545,-3.2765753
209,/title/tt6921996/,,"Pinewood Studios, Iver Heath, Buckinghamshire, England, UK",(studio),"Pinewood Studios, Pinewood Green, Iver, Iver Heath, Buckinghamshire, South East, England, SL0 0QJ, United Kingdom",51.54831515,-0.5346765566753087
210,/title/tt6921996/,,"London Marriott Hotel County Hall, Westminster Bridge Rd, London, England, UK",(Pegasus' MI7 Office),"London Marriott Hotel County Hall, Westminster Bridge Road, Lambeth, London Borough of Lambeth, London, Greater London, England, SE1 7PB, United Kingdom",51.501709,-0.1188586
211,/title/tt6921996/,,"Addington Palace, Croydon, Surrey, England, UK",(Downing Street interiors),,,
212,/title/tt6921996/,,"Berkeley Castle, Berkeley, Gloucestershire, England, UK",(G12 summit castle),"Berkeley Castle, Church Lane, Berkeley, Stroud, Gloucestershire, South West England, England, GL13 9BQ, United Kingdom",51.688859550000004,-2.456937044412867
213,/title/tt0059968/,,"Bronson Caves, Bronson Canyon, Griffith Park - 4730 Crystal Springs Drive, Los Angeles, California, USA",(Batcave entrance),,,
214,/title/tt0059968/,,"Backlot, Desilu Studios - 9336 W. Washington Blvd., Culver City, California, USA",,,,
215,/title/tt0432283/,,"England, UK",,"England, United Kingdom",52.7954791,-0.5402402866174321
216,/title/tt1536537/,,"Bucharest, Romania",,"Municipiul București, România",44.4361414,26.1027202
217,/title/tt1536537/,,"Castel Film Studios, Bucharest, Romania",(studio),,,
218,/title/tt1536537/,,"Constanta shipyard, Constanta, Romania",,,,
219,/title/tt1536537/,,"Lipscani, Bucharest, Romania",(aka Old Town),"Strada Lipscani, București, Municipiul București, 050041, România",44.4330042,26.0960096
220,/title/tt1536537/,,"National Theatre Bucharest, Bucharest, Romania",(interior),"Teatrul Național București, 2, Bulevardul Nicolae Bălcescu, București, Sector 3, Municipiul București, 010051, România",44.4365277,26.1032455
221,/title/tt0120623/,,"Walt Disney Feature Animation - 500 S. Buena Vista Street, Burbank, California, USA",,,,
222,/title/tt4555364/,,"Barrandov Studios, Prague, Czech Republic","(backlot, soundstage)",,,
223,/title/tt0062803/,,"Cobstone Windmill, Turville, Buckinghamshire, England, UK",(Potts' family house),"Cobstone Mill, Oxford Road, Ibstone, Turville, Buckinghamshire, South East, England, HP14 3YA, United Kingdom",51.6170325,-0.8895758
224,/title/tt0062803/,,"Rothenburg ob der Tauber, Bavaria, Germany",(Vulgaria town square),"Rothenburg ob der Tauber, Landkreis Ansbach, Bayern, 91541, Deutschland",49.3771899,10.1788809
225,/title/tt0062803/,,"Rohrbach, Rhineland-Palatinate, Germany",,"Rohrbach, Kirchberg (Hunsrück), Rhein-Hunsrück-Kreis, Rheinland-Pfalz, Deutschland",49.8875014,7.4209048
226,/title/tt0062803/,,"Duck Pond, Russell's Water, Buckinghamshire, England, UK","(Truly Scrumptious drives into the duck pond) (coordinates: 51°36'08.1""N, 0°58'42.7""W)",,,
227,/title/tt0062803/,,"Oxfordshire, England, UK",,"Oxfordshire, South East, England, United Kingdom",51.833333,-1.25
228,/title/tt0062803/,,"Pinewood Studios, Iver Heath, Buckinghamshire, England, UK",(studio),"Pinewood Studios, Pinewood Green, Iver, Iver Heath, Buckinghamshire, South East, England, SL0 0QJ, United Kingdom",51.54831515,-0.5346765566753087
229,/title/tt0062803/,,"Old Iver Lane Bridge, Iver, Buckinghamshire, England, UK","(dynamite bridge scene) (coordinates: 51°31'17.3""N, 0°30'02.5""W)","Iver Lane, Iver, Buckinghamshire, South East, England, SL0 9LH, United Kingdom",51.5290699,-0.4891714
230,/title/tt0062803/,,"Zig Zag Road, Boxhill, Surrey, England, UK","(British Grand Prix 1909) (coordinates: 51°15'14.7""N, 0°18'53.4""W)",,,
231,/title/tt0062803/,,"Backlot, Pinewood Studios, Iver Heath, Buckinghamshire, England, UK",(opening race montage; castle courtyard),,,
232,/title/tt0062803/,,"Tauberbrücke, Rothenburg ob der Tauber, Bavaria, Germany",(Chitty lands in Vulgaria),"Die Tauber, Riviera, Schlößlein, Rothenburg ob der Tauber, Landkreis Ansbach, Bayern, 91541, Deutschland",49.3756071,10.17639
233,/title/tt0062803/,,"Kiln Barn, Russell's Water, Watlington, Oxfordshire, England, UK",(Coggins Garage),,,
234,/title/tt0062803/,,"Shottesbrooke Park, Maidenhead, Berkshire, England, UK",(Chitty drives by a mansion),,,
235,/title/tt1821694/,,"Dunsfold Aerodrome - Surrey, England, UK",(Airport scenes),"Dunsfold Aerodrome, Bacharach, Alfold, Waverley, Surrey, South East, England, GU6 8GA, United Kingdom",51.1153355,-0.5309766
236,/title/tt1821694/,,"Hedsor House & Park, Taplow, Buckinghamshire, England, UK",,,,
237,/title/tt1821694/,,"Hôtel de Crillon, 10 Place de la Concorde, Paris 8, Paris France",(Where the hotel stat in Paris was shot),"Hôtel de Crillon, 10, Place de la Concorde, Quartier de la Madeleine, Paris, Île-de-France, France métropolitaine, 75008, France",48.86762185,2.3213665307395894
238,/title/tt1821694/,,"Paris, France",,"Paris, Île-de-France, France métropolitaine, 75004, France",48.8566969,2.3514616
239,/title/tt1821694/,,"Costco Wholesale - 60 Rue de Strasbourg, Candiac, Quebec, Canada",(opening),,,
240,/title/tt1821694/,,"The Langham Hotel, Regent Street, Marylebone London, England, UK",(Paris Restaurant),,,
241,/title/tt1821694/,,"St Andrew's United Church - 46 Rue Dupont O, Châteauguay, Quebec, Canada",(funeral),,,
242,/title/tt1821694/,,France,,France,46.603354,1.8883335
243,/title/tt1821694/,,"RAF Upper Heyford, Upper Heyford, Oxfordshire, UK",(Fight in Hangar between Bruce Willis & Byung-Hun Lee),"Heyford Park, Cherwell, Oxfordshire, South East, England, United Kingdom",51.9374789,-1.2493404984995435
244,/title/tt1821694/,,"Aero Mock-Ups - 13126 Saticoy St, North Hollywood, California, USA",(Cockpit),,,
245,/title/tt2017020/,,"Paris, France",,"Paris, Île-de-France, France métropolitaine, 75004, France",48.8566969,2.3514616
246,/title/tt2017020/,,"New York City, New York, USA",,"New York, United States of America",40.7127281,-74.0060152
247,/title/tt2017020/,,USA,,United States,39.7837304,-100.4458825
248,/title/tt0401729/,,"Shiprock, New Mexico, USA",,"Shiprock, San Juan County, New Mexico, 87420, United States of America",36.786424,-108.6847042
249,/title/tt0401729/,,"Utah, USA",,"Utah, United States of America",39.4225192,-111.7143584
250,/title/tt0401729/,,"Castle Butte, Arizona, USA",,"Castle Butte, Navajo County, Arizona, United States of America",35.3269577,-110.4037413
251,/title/tt0401729/,,"Ham House, Richmond, Surrey, England, UK",(John Carter's mansion),,,
252,/title/tt0401729/,,"Longcross Studios, Chobham Lane, Longcross, Surrey, England, UK",(studio),,,
253,/title/tt0401729/,,"Kayenta, Arizona, USA",,"Kayenta, Navajo County, Arizona, United States of America",36.7218463,-110.2538722
254,/title/tt0401729/,,"Blue Canyon, Hopi Indian Reservation, Arizona, USA",,,,
255,/title/tt0401729/,,"White Pocket, Vermilion Cliffs National Monument, Arizona, USA",,,,
256,/title/tt0401729/,,"Page, Arizona, USA",,"Page, Coconino County, Arizona, 86040-0418, United States of America",36.9148305,-111.4572942
257,/title/tt0401729/,,"Stage 17, Longcross Studios, Chobham Lane, Longcross, Surrey, England, UK",(Sab Than's ship deck; bridge action scenes),,,
258,/title/tt0401729/,,"A Stage, Shepperton Studios, Shepperton, Surrey, England, UK",(Zodangan Palace; interior),,,
259,/title/tt0401729/,,"C Stage, Shepperton Studios, Shepperton, Surrey, England, UK",(Thern Sanctuary),,,
260,/title/tt0401729/,,"H Stage, Shepperton Studios, Shepperton, Surrey, England, UK",(battle arena),,,
261,/title/tt0368891/,,"DAR Constitution Hall - 1776 D St NW, Washington, District of Columbia, USA",(19th century White House),"DAR Constitution Hall, 1776, D Street Northwest, Washington, District of Columbia, 20006, United States of America",38.8939369,-77.04058652378245
262,/title/tt0368891/,,"Philadelphia, Pennsylvania, USA",,"Philadelphia, Philadelphia County, Pennsylvania, United States of America",39.9527237,-75.1635262
263,/title/tt0368891/,,"Knott's Berry Farm - 8039 Beach Boulevard, Buena Park, California, USA",(Independence Hall rooftop sequence),"Knott's Berry Farm, 8039, Beach Boulevard, Buena Park, Orange County, California, 90620, United States of America",33.843750650000004,-118.00056804436363
264,/title/tt0368891/,,"Walt Disney Studios, 500 South Buena Vista Street, Burbank, California, USA",(studio),,,
265,/title/tt0368891/,,"J. Edgar Hoover FBI Building - 10th Street & Pennsylvania Avenue NW, Washington, District of Columbia, USA",(FBI headquarters exteriors),,,
266,/title/tt0368891/,,"New York City, New York, USA",,"New York, United States of America",40.7127281,-74.0060152
267,/title/tt0368891/,,"Strawberry Reservoir, Utah, USA",(Charlotte set),"Strawberry Reservoir, Fs 480 Soldier Creek Campground Road, Wasatch County, Utah, United States of America",40.17439785,-111.1401979473562
268,/title/tt0368891/,,"1030 Buena Vista Street, South Pasadena, California, USA",(Patrick Gates' house),"1030, Buena Vista Street, Raymond Hill, South Pasadena, Los Angeles County, California, 91030, United States of America",34.12082675510204,-118.15651
269,/title/tt0368891/,,"Lincoln Memorial, National Mall, Washington, District of Columbia, USA",,,,
270,/title/tt0368891/,,"South Hill Street, Los Angeles, California, USA",(vans chase after robbery),"South Hill Street, South Park, Downtown, Los Angeles, Los Angeles County, California, 90015-3018, United States of America",34.0360803,-118.2634356
271,/title/tt0368891/,,"Grand Central Market - 317 S. Broadway, Downtown, Los Angeles, California, USA",(Abigail and Riley are chased through market),"Grand Central Market, 315, South Broadway, Historic Core District, Downtown, Los Angeles, Los Angeles County, California, 90013, United States of America",34.050924949999995,-118.2489634996624
272,/title/tt0311289/,,"Red Rock Canyon State Park - Highway 14, Cantil, California, USA",,,,
273,/title/tt0311289/,,"Trona, California, USA",,"Trona, San Bernardino County, California, 93562, United States of America",35.7627322,-117.3728346
274,/title/tt0311289/,,"Newhall, California, USA",,"Newhall, Santa Clarita, Los Angeles County, California, 91321, United States of America",34.3798765,-118.5291917
275,/title/tt0311289/,,"Lake Casitas, Ventura, California, USA",,"Lake Casitas, Haley Ranch Road, Live Oak Acres, Ventura, Ventura County, California, 93022, United States of America",34.39272655,-119.33314732165252
276,/title/tt0311289/,,"Melody Ranch - 24715 Oak Creek Avenue, Newhall, California, USA",,,,
277,/title/tt2231461/,,"San Diego, California, USA",,"San Diego, San Diego County, California, United States of America",32.7174209,-117.1627714
278,/title/tt2231461/,,"New York Street, Warner Brothers Burbank Studios - 4000 Warner Boulevard, Burbank, California, USA",(shot of military on street alongside elevated railway),,,
279,/title/tt0366551/,,"398 Avenue Road, Toronto, Ontario, Canada",(Harold & Kumar's apartment building),"Quick Run Convenience, 398, Avenue Road, Toronto—St. Paul's, Old Toronto, Toronto, Golden Horseshoe, Ontario, M4V 2G9, Canada",43.6823097,-79.3999078
280,/title/tt0366551/,,"Knox College, University of Toronto, Toronto, Ontario, Canada",(as Princeton University),,,
281,/title/tt0366551/,,"Mississauga, Ontario, Canada",,"Mississauga, Peel Region, Golden Horseshoe, Ontario, Canada",43.590338,-79.645729
282,/title/tt0366551/,,"Garden State Parkway Toll Booth, Garden State Parkway, New Jersey, USA",,,,
283,/title/tt0366551/,,"University of Southern California, Los Angeles, California, USA",,"University of Southern California, Flower Street, University Park, Los Angeles, Los Angeles County, California, 90089-0871, United States of America",34.0218833,-118.28586726915088
284,/title/tt0366551/,,USA,,United States,39.7837304,-100.4458825
285,/title/tt0366551/,,"Woodlands Park, Pickering, Ontario, Canada",(cheetah scene),,,
286,/title/tt3450958/,,"Tofino, British Columbia, Canada",,"Tofino, Alberni-Clayoquot Regional District, British Columbia, V0R 2Z0, Canada",49.1529643,-125.9047083
287,/title/tt3450958/,,"Death Valley National Park, California, USA",,"Death Valley National Park, Inyo County, California, 92328, United States of America",36.4914385,-117.10229360771876
288,/title/tt4500922/,,"Vancouver, British Columbia, Canada",,"Vancouver, Metro Vancouver Regional District, British Columbia, Canada",49.2608724,-123.1139529
289,/title/tt1679335/,,"Universal City, California, USA",(DreamWorks),"Universal City, Los Angeles County, California, 91608, United States of America",34.1412926,-118.3584364
290,/title/tt0108941/,,"Pleasant Grove, Utah, USA",,"Pleasant Grove, Utah County, Utah, 84062, United States of America",40.3641184,-111.73854
291,/title/tt0108941/,,"Garden of the Gods, Colorado Springs, Colorado, USA",(having been there),"Garden of the Gods, Colorado Springs, El Paso County, Colorado, 80829, United States of America",38.867769,-104.8910877
292,/title/tt0108941/,,"Salt Lake City, Utah, USA",,"Salt Lake City, Salt Lake County, Utah, United States of America",40.7596198,-111.8867975
293,/title/tt0108941/,,"Cedar Fort, Utah, USA",,"Cedar Fort, Utah County, Utah, 84013, United States of America",40.3271923,-112.1067919
294,/title/tt0108941/,,"Magna, Utah, USA",,"Magna, Salt Lake County, Utah, 84044, United States of America",40.7031629,-112.0816489
295,/title/tt0108941/,,"Boulder, Colorado, USA",,"Boulder, Boulder County, Colorado, United States of America",40.0149856,-105.2705456
296,/title/tt0108941/,,"Pittsburgh, Pennsylvania, USA",,"Pittsburgh, Allegheny County, Pennsylvania, United States of America",40.4416941,-79.9900861
297,/title/tt0108941/,,USA,,United States,39.7837304,-100.4458825
298,/title/tt1051904/,,"Gainesville, Georgia, USA",(Chase Scene),"Gainesville, Hall County, Georgia, 30501, United States of America",34.2978794,-83.8240663
299,/title/tt1051904/,,"Madison, Georgia, USA",,"Madison County, Georgia, United States of America",34.1307533,-83.1817407
300,/title/tt1051904/,,"345 Mell Ave. NE. in Atlanta, Georgia, USA",(R.L. Stine's house),,,
301,/title/tt1051904/,,"Decatur Cemetery - 229 Bell St, Decatur, Georgia, USA",(Cemetery),"Decatur Cemetery, 299, Bell Street, Winnona Park, Oakhurst, Decatur, DeKalb County, Georgia, 30030, United States of America",33.780192400000004,-84.29281961967104
302,/title/tt1051904/,,"DeKalb School of the Arts- 1192 Clarendon Ave, Avondale Estates, Georgia, USA",(High school interior),,,
303,/title/tt0056172/,,"El Jafr, Jordan",(Gasim rescue - camel ride - mudflats),"الجفر, معان, Jordan / الأُرْدُن",30.313333,36.328056
304,/title/tt0056172/,,"Jebel Tubeiq, Jordan",(desert),,,
305,/title/tt0056172/,,"Tabernas, Almería, Andalucía, Spain",,"Tabernas, Almería, Andalucía, España",37.0498879,-2.3913774
306,/title/tt0056172/,,"Imperial Sand Dunes Recreation Area, Glamis, California, USA",(desert),,,
307,/title/tt0056172/,,"Aït Benhaddou, Morocco",(desert),"Aït Ben Haddou ⴰⵢⵜ ⴱⵏ ⵃⴷⴷⵓ آيت بن حدو, caïdat de Amerzgane, cercle d'Amerzgane دائرة أمرزكان, Province de Ouarzazate ⵍⵉⵇⵍⵉⵎ ⵏ ⵡⴰⵔⵣⴰⵣⴰⵜ إقليم ورززات, Drâa-Tafilalet ⴷⴰⵔⵄⴰ-ⵜⴰⴼⵉⵍⴰⵍⵜ درعة تافيلالت, 45100, Maroc",31.0451122,-7.1310323
308,/title/tt0056172/,,"Playa del Algarrobico, Carboneras, Almería, Andalucía, Spain",(town: Aqaba),"Playa del Algarrobico, AL-5107, Plaza Barbara E Beale, Carboneras, Almería, Andalucía, 04140, España",37.03076685,-1.8776409575632353
309,/title/tt0056172/,,"Merthyr Mawr, Bridgend, Wales, UK",,"Merthyr Mawr, Bridgend, Cymru / Wales, CF32 0LS, United Kingdom",51.4850621,-3.6089595
310,/title/tt0056172/,,"Plaza of the Americas, Sevilla, Andalucía, Spain",(buildings of Jerusalem),,,
311,/title/tt0056172/,,"Cabo de Gata, Almería, Andalucía, Spain",(train attack),"Cabo de Gata, AL-3115, La Fabriquilla, Níjar, Almería, Andalucía, España",36.7210296,-2.1932327
312,/title/tt0056172/,,"San José, Almería, Andalucía, Spain",(train attack),"San José, Níjar, Almería, Andalucía, 04118, España",36.7618962,-2.110094
313,/title/tt0056172/,,"Almería, Andalucía, Spain",,"Almería, Andalucía, España",36.8414197,-2.4628135
314,/title/tt0056172/,,"London, England, UK",,"London, Greater London, England, United Kingdom",51.5073219,-0.1276474
315,/title/tt0056172/,,"Shepperton Studios, Shepperton, Surrey, England, UK",(studio),,,
316,/title/tt0056172/,,"Plaza de Pilatos, Sevilla, Andalucía, Spain",(meeting of Allenby and Lawrence),"Plaza de Pilatos, San Bartolomé, Casco Antiguo, Sevilla, Andalucía, 41004, España",37.3898267,-5.9871017
317,/title/tt0056172/,,"Avenida de Isabel la Catolica, Sevilla, Andalucía, Spain",(buildings: Middle East),"Avenida de Isabel la Católica, La Fuente, Pulpí, Almería, Andalucía, 04640, España",37.3931127,-1.7488413
318,/title/tt0120755/,,"Dead Horse Point State Park, Utah, USA",(Rock-climbing scenes),"Dead Horse Point State Park, UT 313, Grand County, Utah, United States of America",38.4708276,-109.7403052
319,/title/tt0120755/,,"Governor Phillip Tower, Sydney, New South Wales, Australia",(Biocyte Pharmaceuticals building),"Governor Phillip Tower, 1, Farrer Place, Sydney, Council of the City of Sydney, New South Wales, 2000, Australia",-33.864037249999996,151.2112887927633
320,/title/tt0120755/,,Australia,,Australia,-24.7761086,134.755
321,/title/tt0120755/,,"Holsworthy Barracks, Randwick, Sydney, New South Wales, Australia",,,,
322,/title/tt0120755/,,"Azusa, California, USA",(Spanish car chase),"Azusa, Los Angeles County, California, United States of America",34.1338751,-117.9056046
323,/title/tt0120755/,,"CentrePoint Tower, Sydney, New South Wales, Australia",,,,
324,/title/tt0120755/,,"Royal Randwick Racecourse, Sydney, New South Wales, Australia",,,,
325,/title/tt0120755/,,"Monument Valley, Arizona, USA",,"Monument Valley Navajo Tribal Park, Navajo County, Arizona, United States of America",36.9820026,-110.1108327
326,/title/tt0120755/,,"Boomerang Mansion, Elizabeth Bay, Sydney, New South Wales, Australia",(Spanish mansion driveway),,,
327,/title/tt0120755/,,"Centennial Park, Sydney, New South Wales, Australia",,"Centennial Park, Sydney, Randwick City Council, New South Wales, 2021, Australia",-33.8977778,151.2338889
328,/title/tt0120755/,,"San Gabriel Mountains, California, USA",(Spanish car chase),,,
329,/title/tt0120755/,,"Los Angeles Center Studios - 450 S. Bixel Street, Downtown, Los Angeles, California, USA",(studio),,,
330,/title/tt0120755/,,"New South Wales, Australia",,"New South Wales, Australia",-31.8759835,147.2869493
331,/title/tt5093026/,,Serbia,,"Србија, Доње Комарице, Град Крагујевац, Шумадијски управни округ, Централна Србија, Србија (Serbia)",44.024322850000004,21.07657433209902
332,/title/tt5093026/,,"Kotor, Montenegro",,"Kotor, Opština Kotor, Crna Gora",42.4248515,18.7710437
333,/title/tt5093026/,,Montenegro,,Crna Gora / Црна Гора,42.9868853,19.5180992
334,/title/tt5093026/,,Malta,,Malta,35.8885993,14.4476911
335,/title/tt3410834/,,"High Museum of Art - 1280 Peachtree Street, Atlanta, Georgia, USA",(Former headquarters of Erudite),"High Museum of Art, 1280, Peachtree Street Northeast, Atlanta, Georgia, 30309, United States of America",33.78945245,-84.38623130831695
336,/title/tt3410834/,,"Chicago Illinois, USA",(City Background),"Chicago, Cook County, Illinois, United States of America",41.8755616,-87.6244212
337,/title/tt0072684/,,"Blenheim Palace, Woodstock, Oxfordshire, England, UK",(water garden),"Blenheim Palace, Grand Bridge, Blenheim, West Oxfordshire, Oxfordshire, South East, England, OX20 1PX, United Kingdom",51.841967249999996,-1.3625986224673587
338,/title/tt0072684/,,"Kells, County Meath, Ireland",(English redcoat army scenes: regiment training),"Kells, The Municipal District of Kells, Leinster, A82 F866, Ireland",53.7274118,-6.8761704
339,/title/tt0072684/,,"The Guildhall, Lavenham, Suffolk, England, UK",(The inn in which Barry is treated after the duel),"The Guildhall Tea Room, Market Place, Lavenham, Babergh, Suffolk, East of England, England, CO10 9QZ, United Kingdom",52.108838,0.7968104
340,/title/tt0072684/,,"Baden-Württemberg, Germany",(multiple exteriors of castles),"Baden-Württemberg, Deutschland",48.6296972,9.1949534
341,/title/tt0072684/,,"Potsdam, Brandenburg, Germany",(only exteriors of Sans-Souci),"Potsdam, Brandenburg, Deutschland",52.4009309,13.0591397
342,/title/tt0072684/,,"Carrick-on-Suir, County Tipperary, Ireland",(Redmond Barry enlists in the army),"Carrick-on-Suir, County Tipperary, Munster, Ireland",52.349167,-7.413056
343,/title/tt0072684/,,"Hechingen, Baden-Württemberg, Germany",(Castle Hohenzollern),"Hechingen, Gemeindeverwaltungsverband Hechingen, Zollernalbkreis, Baden-Württemberg, 72379, Deutschland",48.3525529,8.9642047
344,/title/tt0072684/,,"Ludwigsburg, Baden-Württemberg, Germany",(Ludwigsburg Castle),"Ludwigsburg, Landkreis Ludwigsburg, Baden-Württemberg, Deutschland",48.8953937,9.1895147
345,/title/tt0072684/,,"Sans-Souci, Potsdam, Brandenburg, Germany",(only exteriors),"Potsdam, Brandenburg, Deutschland",52.4009309,13.0591397
346,/title/tt0072684/,,"Compton Acres, Poole, Dorset, England, UK",(Barry sees Lady Lyndon for the first time),,,
347,/title/tt0072684/,,"Somerset Rural Life Museum, Abbey Farm, Glastonbury, Somerset, England, UK",(duel between Barry Lyndon and Bullingdon),,,
348,/title/tt0072684/,,"Coneysthorpe, North Yorkshire, England, UK",,"Coneysthorpe, Ryedale, North Yorkshire, Yorkshire and the Humber, England, United Kingdom",54.1372823,-0.9121691785698809
349,/title/tt0072684/,,"Dublin Castle, Dublin, County Dublin, Ireland",(hotel - casino) (interiors: Balibari's palace),"Dublin Castle, Stephen Street Upper, Royal Exchange A ED, Dublin 2, County Dublin, Leinster, D02 WN47, Ireland",53.342597049999995,-6.267050881169273
350,/title/tt0072684/,,"Petworth House, Petworth, West Sussex, England, UK",(chapel: wedding),"Petworth House, Church Street, Petworth, Chichester, West Sussex, South East, England, GU28 0AD, United Kingdom",50.98820495,-0.6109636167063204
351,/title/tt0072684/,,"Powerscourt, County Wicklow, Ireland",(interiors: Barry given the mission to spy on Balibari),"Powerscourt, The Municipal District of Bray, County Wicklow, Leinster, A98 KN50, Ireland",53.17629015,-6.295062533376603
352,/title/tt0072684/,,"Stourhead Garden, Warminster, Wiltshire, England, UK",(Hackton gardens: Barry reminded by his mother that nothing belongs to him),,,
353,/title/tt0072684/,,"Wilton House, Wilton, Salisbury, Wiltshire, England, UK",(Castle Hackton - interiors),"Wilton, Wiltshire, South West England, England, SP2 0JP, United Kingdom",51.0805315,-1.8607051
354,/title/tt0072684/,,Germany,,Deutschland,51.0834196,10.4234469
355,/title/tt0072684/,,"County Dublin, Ireland",,"County Dublin, Leinster, Ireland",53.40642945,-6.287101473674747
356,/title/tt0072684/,,"County Meath, Ireland",,"Bank of Ireland, R125, Ratoath, The Municipal District of Ratoath, Leinster, A84 EA02, Ireland",53.5069111,-6.4585984
357,/title/tt0072684/,,"County Waterford, Ireland",,"County Waterford, Munster, Ireland",52.1509131,-7.657798180652727
358,/title/tt0072684/,,"Wiltshire, England, UK",,"Wiltshire, Patney, Wiltshire, South West England, England, United Kingdom",51.324162,-1.9032486699002247
359,/title/tt0072684/,,"North Yorkshire, England, UK",,"North Yorkshire, Sharow, Harrogate, North Yorkshire, Yorkshire and the Humber, England, United Kingdom",54.13453275,-1.498628491239545
360,/title/tt0072684/,,UK,,United Kingdom,54.7023545,-3.2765753
361,/title/tt0831387/,,"Vancouver, British Columbia, Canada",,"Vancouver, Metro Vancouver Regional District, British Columbia, Canada",49.2608724,-123.1139529
362,/title/tt0831387/,,"Nanaimo, British Columbia, Canada",,"Nanaimo, Regional District of Nanaimo, British Columbia, Canada",49.1637594,-123.9379719
363,/title/tt0831387/,,"Front Street, New Westminster, British Columbia, Canada",(exterior scenes: decayed Janjira street),"Front Street, McBride Sapperton, New Westminster, Metro Vancouver Regional District, British Columbia, V3L 5P5, Canada",49.2144188,-122.8944969
364,/title/tt0831387/,,"Vancouver Convention and Exhibition Centre, Vancouver, British Columbia, Canada",(as Honolulu airport),,,
365,/title/tt0831387/,,Canada,,Canada,61.0666922,-107.9917071
366,/title/tt0831387/,,"O'ahu, Hawaii, USA",,"Oʻahu, Mililani, Honolulu County, Hawaii, United States of America",21.48349555,-158.03640389298
367,/title/tt0831387/,,"Flamingo Hotel - 3555 Las Vegas Boulevard South, Las Vegas, Nevada, USA",(location),,,
368,/title/tt0831387/,,"USS Missouri Memorial, Pearl Harbor, O'ahu, Hawaii, USA",(USS Saratoga battleship),,,
369,/title/tt0831387/,,"Kapaa Quarry Road, O'ahu, Hawaii, USA",(entrance to the quarry in the Philippines),,,
370,/title/tt0831387/,,"Lewers Street, Honolulu, O'ahu, Hawaii, USA",(tsunami scene),,,
371,/title/tt0831387/,,"Eveleigh Street, Vancouver, British Columbia, Canada",(parachute landing),"Eveleigh Street, Downtown, Vancouver, Metro Vancouver Regional District, British Columbia, V7X, Canada",49.286845,-123.1203123
372,/title/tt0831387/,,"Japanese Canadian Cultural Center - 4111 Moncton Street, Steveston, Richmond, British Columbia, Canada",(Janjira international school),,,
373,/title/tt0831387/,,"1066 West Hastings Street, Vancouver, British Columbia, Canada",(BART metro station),"1066, West Hastings Street, Downtown, Vancouver, Metro Vancouver Regional District, British Columbia, V6E 0C4, Canada",49.2875728,-123.1189417
374,/title/tt0089880/,,"Tecoanapa, Guerrero, Mexico",,"Tecoanapa, Guerrero, 39270, México",16.970650499999998,-99.2831355010266
375,/title/tt0089880/,,"Sierra Madre del Sur de Chiapas, Mexico",,,,
376,/title/tt0374463/,,"Port Douglas, Queensland, Australia",,"Port Douglas, Douglas Shire, Queensland, 4877, Australia",-16.4845983,145.4636294
377,/title/tt0374463/,,"Melbourne, Victoria, Australia",,"Melbourne, City of Melbourne, Victoria, 3000, Australia",-37.8142176,144.9631608
378,/title/tt0374463/,,"Central City Studios, Melbourne, Victoria, Australia",(studio),,,
379,/title/tt0374463/,,"Flinders Street, Melbourne, Victoria, Australia",,"Flinders Street, Melbourne, City of Melbourne, Victoria, 3000, Australia",-37.8179793,144.9671293
380,/title/tt0374463/,,"Rocky Point Island, Queensland, Australia",,"Rocky Point, Wonga Beach, Douglas Shire, Queensland, Australia",-16.3927118,145.4068678
381,/title/tt0100758/,,"Castle Hayne, North Carolina, USA",,"Castle Hayne, New Hanover County, North Carolina, United States of America",34.3548975,-77.90655083435975
382,/title/tt0100758/,,"New York City, New York, USA",,"New York, United States of America",40.7127281,-74.0060152
383,/title/tt0100758/,,"New York, USA",,"New York, United States of America",40.7127281,-74.0060152
384,/title/tt0100758/,,"Roanoke Cement Factory - 6411 Ideal Cement Road, Castle Hayne, North Carolina, USA",,,,
385,/title/tt0120738/,,"Shepperton Studios, Shepperton, Surrey, England, UK",(studio),,,
386,/title/tt1535109/,,Morocco,,Maroc / ⵍⵎⵖⵔⵉⴱ / المغرب,31.1728205,-7.3362482
387,/title/tt1535109/,,"Mediterranean Film Studios, Kalkara, Malta",(studio),,,
388,/title/tt1535109/,,USS Truxtun,,,,
389,/title/tt1535109/,,"Boiler Wharf, Grand Harbour, Senglea, Malta",,,,
390,/title/tt1535109/,,"Naval Station Norfolk, Norfolk, Virginia, USA",,"Naval Station Norfolk, Glenwood Park, Norfolk, Virginia, United States of America",36.9416699,-76.2973379710598
391,/title/tt1535109/,,"Worcester Regional Airport - 375 Airport Drive, Worcester, Massachusetts, USA",(Burlington International Airport),,,
392,/title/tt1535109/,,"Virginia, USA",(NBC12 Richmond News),"Virginia, United States of America",37.1232245,-78.4927721
393,/title/tt1535109/,,"Lexington, Massachusetts, USA",(highway scene),"Lexington, Middlesex County, Massachusetts, United States of America",42.4473175,-71.2245003
394,/title/tt1535109/,,USA,,United States,39.7837304,-100.4458825
395,/title/tt2908446/,,"EUE/Screen Gems Studios Atlanta - 175 Lakewood Way, Atlanta, Georgia, USA",(studio) (studios),,,
396,/title/tt2908446/,,"Peachtree Center, Atlanta, Georgia, USA",,"Peachtree Center, Atlanta, Georgia, United States of America",33.7603436,-84.38680896800203
397,/title/tt2908446/,,"Roscoe Road, Newnan, Georgia, USA",(train scene landscapes),"Roscoe Road, Newnan, Coweta, Georgia, 30263, United States of America",33.396259,-84.804151
398,/title/tt2908446/,,"Serenbe, Chattahoochee Hills, Georgia, USA",(Amity Compound),"Serenbe, Chattahoochee Hills, Georgia, United States of America",33.5254092,-84.7371808
399,/title/tt2908446/,,"Atlanta, Georgia, USA",,"Atlanta, Georgia, United States of America",33.7490987,-84.3901849
400,/title/tt2908446/,,USA,,United States,39.7837304,-100.4458825
401,/title/tt0076984/,,"Santa Clarita, California, USA",,"Santa Clarita, Los Angeles County, California, United States of America",34.3916641,-118.542586
402,/title/tt5848272/,,"New York City, New York, USA",,"New York, United States of America",40.7127281,-74.0060152
403,/title/tt5884052/,,"London, Greater London, England, UK",,"London, Greater London, England, United Kingdom",51.5073219,-0.1276474
404,/title/tt5884052/,,"Shepperton Studios, Studios Road, Shepperton, Surrey, England, UK",,,,
405,/title/tt5884052/,,"The Lot - 1041 N. Formosa Avenue, West Hollywood, California, USA",(Additional photography),,,
406,/title/tt1596343/,,"Rice, California, USA",(Train scene),"Rice, San Bernardino County, California, United States of America",34.0847732,-114.8524242
407,/title/tt1596343/,,"Atlanta, Georgia, USA",,"Atlanta, Georgia, United States of America",33.7490987,-84.3901849
408,/title/tt1596343/,,"Vidal, California, USA",,"Vidal, San Bernardino County, California, United States of America",34.1189042,-114.5102364
409,/title/tt1596343/,,"California, USA",,"California, United States of America",36.7014631,-118.7559974
410,/title/tt0450259/,,"Goba, Mozambique",,"Goba, Maputo, Mozambique",-26.1981982,32.1373858
411,/title/tt0450259/,,Mozambique,,Moçambique,-19.302233,34.9144977
412,/title/tt0450259/,,"Port Edward, South Africa",,"Port Edward, Ugu District Municipality, KwaZulu-Natal, 4295, South Africa",-31.055931,30.222749
413,/title/tt0450259/,,South Africa,,South Africa,-28.8166236,24.991639
414,/title/tt0450259/,,UK,,United Kingdom,54.7023545,-3.2765753
415,/title/tt0082694/,,"Broken Hill, New South Wales, Australia",,"Broken Hill, Broken Hill City Council, New South Wales, 2880, Australia",-31.965,141.4511111
416,/title/tt0082694/,,"Mundi Mundi Road, Mundi Mundi Plains, Broken Hill, New South Wales, Australia",,,,
417,/title/tt0082694/,,"Mundi Mundi Plains, Broken Hill, New South Wales, Australia",,,,
418,/title/tt0082694/,,"Silverton, New South Wales, Australia",,"Silverton, Unincorporated Area, New South Wales, 2880, Australia",-31.8869094,141.2275456
419,/title/tt0082694/,,"New South Wales, Australia",,"New South Wales, Australia",-31.8759835,147.2869493
420,/title/tt0071853/,,"Bodiam Castle, Bodiam, East Sussex, England, UK","(single exterior shot of the Swamp King castle during ""Tale of Sir Lancelot"")","Bodiam Castle, Peters Green Road, Bodiam, Rother, East Sussex, South East, England, TN32 5UG, United Kingdom",51.00226309999999,0.5432197093877548
421,/title/tt0071853/,,"Doune Castle, Doune, Stirling, Scotland, UK",(Arthur begins his quest for the Holy Grail),"Doune Castle, Castle Hill Court, Buchany, Doune, Stirling, Scotland, FK16 6BT, United Kingdom",56.18509345,-4.050469490870636
422,/title/tt0071853/,,"Loch Tay, Stirling, Scotland, UK",(Cave of Caerbannog),"Loch Tay Highland Lodges, A827, Stirling, Scotland, FK21 8TX, United Kingdom",56.494621699999996,-4.251304749375077
423,/title/tt0071853/,,"Mt. Buffalo National Park, Victoria, Australia",(rocky still shot at start of 'The Tale of Sir Robin),"Mount Buffalo National Park, Mount Buffalo, Alpine Shire, Victoria, Australia",-36.69749745,146.7726160047008
424,/title/tt0071853/,,"Loch Laich, Appin, Argyll and Bute, Scotland, UK",(Castle of Aaaargh),,,
425,/title/tt0071853/,,"Arnhall Castle, Arnhall, Aberdeenshire, Scotland, UK",(Historian talking to camera),,,
426,/title/tt0071853/,,"Sherriff Muir, Stirling, Scotland, UK",,,,
427,/title/tt0071853/,,"Twickenham Film Studios, St Margarets, Twickenham, Middlesex, England, UK",(studio),,,
428,/title/tt0071853/,,"Highland, Scotland, UK",,"Highland, Scotland, United Kingdom",57.5066357,-5.0038367
429,/title/tt0071853/,,"Doune, Stirling, Scotland, UK",,"Doune, Stirling, Scotland, FK16 6AB, United Kingdom",56.1905801,-4.05594
430,/title/tt0071853/,,"London, England, UK",,"London, Greater London, England, United Kingdom",51.5073219,-0.1276474
431,/title/tt0097737/,,"Mediterranean Film Studios, Kalkara, Malta",(studio),,,
432,/title/tt0097737/,,"Cinecittà Studios, Cinecittà, Rome, Lazio, Italy",(studio),,,
433,/title/tt0091203/,,"Glen Coe, Highland, Scotland, UK",(Kurgan and Connor first meet in battle),"Glen Coe, A82, Caolasnacon, Highland, Scotland, PH49 4HX, United Kingdom",56.6669243,-5.0228812
434,/title/tt0091203/,,"Loch Shiel, Highland, Scotland, UK",,"Loch Shiel, A87, Shiel Bridge, Highland, Scotland, IV40 8HU, United Kingdom",57.2089633,-5.405715248744751
435,/title/tt0091203/,,"Meadowlands Arena, Meadowlands Sports Complex - 50 State Highway 120, East Rutherford, New Jersey, USA","(AKA, Continental Airlines Arena -- doubled as Madison Square Garden for the wrestling scenes. You can see a NJ Nets banner in the rafters during the wrestling match.)",,,
436,/title/tt0091203/,,"The Study, Glen Coe, Highland, Scotland, UK",(tower and cottage),,,
437,/title/tt0091203/,,"London, England, UK",(underground garage fight scenes),"London, Greater London, England, United Kingdom",51.5073219,-0.1276474
438,/title/tt0091203/,,"Greenwich, London, England, UK",(scene where McCloud saves young Rachel from the Nazi),"Greenwich, Greater London, England, SE10 9HF, United Kingdom",51.4820845,-0.0045417
439,/title/tt0091203/,,"Slioch, Highland, Scotland, UK",,"Slioch, Highland, Scotland, United Kingdom",57.6671583,-5.3470726
440,/title/tt0091203/,,"Central Park, Manhattan, New York City, New York, USA",,"Central Park, Manhattan, New York County, New York, United States of America",40.7827725,-73.9653627406542
441,/title/tt0091203/,,"New York City, New York, USA",,"New York, United States of America",40.7127281,-74.0060152
442,/title/tt0082348/,,"County Kerry, Ireland",,"County Kerry, Munster, Ireland",52.14533445,-9.517401092833236
443,/title/tt0082348/,,"Roundwood, County Wicklow, Ireland",,"Roundwood, Togher, County Wicklow, Leinster, Ireland",53.0634659,-6.2247419
444,/title/tt0082348/,,"Rock of Cashel, County Tipperary, Ireland",(Shown in Silhouette),"Rock of Cashel, Tipperary Heritage Way, St. Patricksrock, Cashel Urban, The Municipal District of Cahir — Cashel, County Tipperary, Munster, Ireland",52.5201977,-7.890575165703573
445,/title/tt0120363/,,"Walt Disney Feature Animation - 500 S. Buena Vista Street, Burbank, California, USA",,,,
446,/title/tt0120363/,,"New York City, New York, USA",,"New York, United States of America",40.7127281,-74.0060152
447,/title/tt0317919/,,"Royal Palace, Caserta, Campania, Italy",(as Vatican Palace),"Domizia Palace Hotel, SP272, Sessa Aurunca, Caserta, Campania, Italia",41.19730905,13.799931644534814
448,/title/tt0317919/,,"Dock Street, Richmond, Virginia, USA",(scene where Ethan is driving black Mercedes CLK and swerves to avoid oncoming truck),"Dock Street, Chimborazo, Shockoe Bottom, Richmond, Richmond City, Virginia, 23219:23223, United States of America",37.5257079,-77.4199209
449,/title/tt0317919/,,"Tiber River, Rome, Lazio, Italy",,"Tiber, 48, Via Francesco Marconi, Torrevecchia, Quartiere XXVII Primavalle, Roma, Roma Capitale, Lazio, 00168, Italia",41.925019,12.42322
450,/title/tt0317919/,,"Shanghai, China",,"上海市, 黄浦区, China 中国",31.2322758,121.4692071
451,/title/tt0317919/,,"Palm Springs, California, USA",,"Palm Springs, Riverside County, California, United States of America",33.8246269,-116.540303
452,/title/tt0317919/,,"Ontario International Airport - 2900 E. Airport Drive, Ontario, California, USA",,,,
453,/title/tt0317919/,,"Downtown, Los Angeles, California, USA",,"Downtown, Los Angeles, Los Angeles County, California, United States of America",34.0428494,-118.2476732
454,/title/tt0317919/,,"Paramount Studios - 5555 Melrose Avenue, Hollywood, Los Angeles, California, USA",(studio),,,
455,/title/tt0317919/,,Italy,,Italia,42.6384261,12.674297
456,/title/tt0317919/,,"Rosslyn, Arlington, Virginia, USA",,"Rosslyn, North Lynn Street, Rosslyn, Arlington, Arlington County, Virginia, 22209, United States of America",38.8959791,-77.0709087
457,/title/tt0317919/,,"North Palm Springs, California, USA",(wind turbines),"North Palm Springs, Riverside County, California, 92258, United States of America",33.9227924,-116.5430685
458,/title/tt0317919/,,"Via della Pilotta, Rome, Lazio, Italy",(Zhen Lei entering Vatican),"Via della Pilotta, Rione II Trevi, Municipio Roma I, Roma, Roma Capitale, Lazio, 00187, Italia",41.8977324,12.4848608
459,/title/tt0317919/,,China,,中国,35.000074,104.999927
460,/title/tt0055928/,,"D Stage, Pinewood Studios, Iver Heath, Buckinghamshire, England, UK",(studio) (M's office),,,
461,/title/tt0055928/,,"2171 Magenta Drive, Jamaica",(mountain home of Miss Taro),,,
462,/title/tt0055928/,,"North Shore, Jamaica",(Crab Key),"N, Education Lane, Cremorne, Lower North Shore, North Sydney Council, New South Wales, 2090, Australia",-33.83252165,151.2270627507091
463,/title/tt0055928/,,"Port Royal Road, Jamaica",(James Bond drives to the mountain home of Miss Taro),"Port Royal, Saint Andrew, Surrey County, KINGSTON 1, Jamaika",17.9360762,-76.8417961
464,/title/tt0055928/,,"Afro-Chinese Section, Kingston, Jamaica",(Three Blind Mice walking),,,
465,/title/tt0055928/,,"Falmouth, Jamaica",(swamp scenes - Bond and Honey are captured by the dragon tank),"Falmouth, Trelawny, Cornwall County, Jamaika",18.4929078,-77.6574376
466,/title/tt0055928/,,"Kaiser Terminal, Ocho Rios, St. Ann, Jamaica",(Bauxite mine of Dr. No at Crab Key),,,
467,/title/tt0055928/,,"Morgan's Harbour, Kingston, Jamaica",(Quarrel's Residence - Bond visits Quarrel - Bond and Quarrel at Puss-Feller's place - Bond follows Quarrel),,,
468,/title/tt0055928/,,"Roaring River, Jamaica",,"Roaring River, Trelawny, Cornwall County, Jamaika",18.3890094,-77.7480206
469,/title/tt0055928/,,"Blue Mountain, Jamaica",,"Blue Mountain, Porus, Manchester, Middlesex County, Jamaika",18.0663515,-77.4341512
470,/title/tt0055928/,,"Cornwall, Jamaica",,"Cornwall, Carisbrook, Saint Elizabeth, Cornwall County, Jamaika",18.1202598,-77.7630329
471,/title/tt0055928/,,"Foothills, Blue Mountain, Jamaica",(three blind mice car chase with James Bond - Interiors of the mountain home of Miss Taro),,,
472,/title/tt0055928/,,"Houses of Parliament, Westminster, London, England, UK",,"Palace of Westminster, The Terrace, Westminster, Millbank, City of Westminster, London, Greater London, England, SW1A 0AA, United Kingdom",51.499425200000005,-0.12444777279476393
473,/title/tt0055928/,,"King's House, New Kingston, Kingston, Jamaica",(Government House - Bond meets the Colonial Secretary - Residence of the Governor General),"King's House, Red Gal Ring, Saint Andrew, Surrey County, 6, Jamaika",18.0211194,-76.7834506
474,/title/tt0055928/,,"Kinsale Street, Kingston, Jamaica",(John Strangway's Residence),,,
475,/title/tt0055928/,,"Magenta Drive, Jamaica",(James Bond drives to the mountain home of Miss Taro),,,
476,/title/tt0055928/,,"Morgan's Harbour Hotel, Morgan's Harbour, Kingston, Jamaica",(Bond looks for Quarrel),,,
477,/title/tt0055928/,,"Norman Manley International Airport, Kingston, Jamaica",(Palisadoes International Airport - James Bond arrives in Jamaica - Felix Leiter follows Bond),"Norman Manley International Airport, Norman Manley Highway, Saint Andrew, Surrey County, KINGSTON CSO, Jamaika",17.93556065,-76.78098090118962
478,/title/tt0055928/,,"Oncaros, Jamaica",,,,
479,/title/tt0055928/,,"Palisadoes, Jamaica",,"Palisadoes Road, Harbour View, Saint Andrew, Surrey County, KINGSTON 17, Jamaika",17.9391301,-76.7669668
480,/title/tt0055928/,,"Rolling River, Jamaica",,"Rolling Fork Wildlife Management Area, Herman & Esther Drive, Ginseng, Larue County, Kentucky, United States of America",37.5271622,-85.55110194079501
481,/title/tt0055928/,,"Scotler's Wharf, Harbour Street No 2, St. Ann's Bay, Jamaica",(Professor Dent's boat trip to Crab Key),,,
482,/title/tt0055928/,,"Trinidad, Trinidad and Tobago",,"Trinidad, Couva-Tabaquite-Talparo, Trinidad and Tobago",10.443024300000001,-61.26130538878063
483,/title/tt0055928/,,"Victoria Market, Kingston, Jamaica",(Three Blind Mice walking),"The Victoria, 117, Park Street, Kingscourt, Kingston, Eastern Ontario, Ontario, K7L 1G3, Canada",44.238012,-76.50771681666666
484,/title/tt0055928/,,"Big Ben, Houses of Parliament, Westminster, London, England, UK",,,,
485,/title/tt0055928/,,"River Thames, London, England, UK",,"River Thames, London Borough of Hounslow, London, Greater London, England, W4 3PB, United Kingdom",51.4852382,-0.2809991
486,/title/tt1628841/,,"West Wendover, Nevada, USA",,"West Wendover, Elko County, Nevada, United States of America",40.7426699,-114.0720873
487,/title/tt1628841/,,"Tower Bridge, London, England, UK",,"Tower Bridge, Wapping, London Borough of Tower Hamlets, London, Greater London, England, SE1 2LY, United Kingdom",51.5054985,-0.0753581
488,/title/tt1628841/,,"Bonneville Salt Flats, Utah, USA",(finale battle),"Bonneville Salt Flats, Dwight D. Eisenhower Highway, Wendover, Tooele County, Utah, 84083, United States of America",40.740006,-113.6815662
489,/title/tt1628841/,,"Utah and Nevada Border, Nevada, USA",,,,
490,/title/tt1628841/,,"New Mexico, USA",,"New Mexico, United States of America",34.5708167,-105.993007
491,/title/tt1628841/,,"Utah and Nevada Border, Utah, USA",,,,
492,/title/tt1628841/,,"Dubai, United Arab Emirates",,"دبي, تلال الإمارات, دبي, United Arab Emirates",25.0750095,55.18876088183319
493,/title/tt1628841/,,Singapore,,"Singapore, Central, Singapore",1.3408630000000001,103.83039182212079
494,/title/tt1628841/,,"Dubai, UAE",,"دبي, تلال الإمارات, دبي, United Arab Emirates",25.0750095,55.18876088183319
495,/title/tt0454876/,,"Montréal, Québec, Canada",,"Montréal, Agglomération de Montréal, Montréal (06), Québec, Canada",45.4972159,-73.6103642
496,/title/tt0454876/,,"Taichung City, Taiwan",,"臺中市, 西屯區, 臺中市, 40701, Taiwan",24.163162,120.6478282
497,/title/tt0454876/,,"Pondicherry, India",,"Puducherry, Puducherry Taluk, Puducherry district, Puducherry, 605001, India",11.9340568,79.8306447
498,/title/tt0454876/,,"Kenting, Taiwan",,"墾丁, 墾丁里, 屏東縣, 臺灣省, 94644, Taiwan",21.945278,120.800278
499,/title/tt0454876/,,"Pondicherry Old Pier, Pondicherry, India",(Bidding farewell),,,
500,/title/tt0186566/,,"March Air Reserve Base, California, USA",(SR-71),"March Air Reserve Base, Cactus Avenue, Moreno Valley, Riverside County, California, 92518, United States of America",33.88451835,-117.25621930598837
501,/title/tt0186566/,,"Kennedy Space Center, Titusville, Florida, USA",,,,
502,/title/tt0186566/,,"Agua Dulce, California, USA",(small airport and roadside cafe),"Agua Dulce, Oak Hills, Castroville, Monterey County, California, 95012, United States of America",36.773557,-121.737165
503,/title/tt0186566/,,"Outpost Tavern, Webster, Texas, USA",(bar fight scene. Was an frequent hangout for astronauts before closing in 2009),,,
504,/title/tt0186566/,,"El Mirage Dry Lake, California, USA",,"El Mirage Dry Lake, Alegre Lane, San Bernardino County, California, United States of America",34.642436599999996,-117.59821798766575
505,/title/tt0186566/,,"Piru United Methodist Church - 3875 Center Street, Piru, California, USA",(Tank Sullivan's parish),"Piru United Methodist Church, Center Street, Piru, Ventura County, California, 93040, United States of America",34.4155521,-118.7962047
506,/title/tt0186566/,,"Stage 22, Warner Brothers Burbank Studios - 4000 Warner Boulevard, Burbank, California, USA",,,,
507,/title/tt0186566/,,"Stage 29, Warner Brothers Burbank Studios - 4000 Warner Boulevard, Burbank, California, USA",,,,
508,/title/tt0186566/,,"Johnson Space Center - 2101 NASA Rd., Houston, Texas, USA",(location),,,
509,/title/tt0186566/,,"Neutral Buoyancy Laboratory, Sonny Carter Training Facility, Johnson Space Center - 2101 NASA Rd., Houston, Texas, USA",(crew training for spacewalks),,,
510,/title/tt0186566/,,"California, USA",,"California, United States of America",36.7014631,-118.7559974
511,/title/tt0186566/,,USA,,United States,39.7837304,-100.4458825
512,/title/tt8755226/,,"Cottonwood Mall, Albuquerque, New Mexico, USA",,"Cottonwood Mall, Cottonwood Loop Northwest, Lee Acres, Albuquerque, Bernalillo County, New Mexico, 87114, United States of America",35.19818,-106.65671
513,/title/tt0094535/,,"Shepperton Studios, Shepperton, Surrey, England, UK",(studio) (studio: series 4-10),,,
514,/title/tt5827790/,,"Usera, Madrid, Spain",(Planeta K - Jorge Elias's comic-book shop),"Usera, Madrid, Área metropolitana de Madrid y Corredor del Henares, Comunidad de Madrid, 28001, España",40.383894,-3.7064459
515,/title/tt0082096/,,"La Pallice, La Rochelle, Charente-Maritime, France",,"La Pallice, La Rochelle, Charente-Maritime, Nouvelle-Aquitaine, France métropolitaine, 17000, France",46.1639782,-1.2165115
516,/title/tt0082096/,,"Bavaria Studios, Bavariafilmplatz 7, Geiselgasteig, Grünwald, Bavaria, Germany",(studio),"Bavaria Studios, 7, Bavariafilmplatz, Geiselgasteig, Grünwald, Landkreis München, Bayern, 82031, Deutschland",48.0643519,11.5547475
517,/title/tt0245686/,,"Dead Horse Point State Park, Utah, USA",(scene where young Joe is 'left behind' by his parents at the Grand Canyon),"Dead Horse Point State Park, UT 313, Grand County, Utah, United States of America",38.4708276,-109.7403052
518,/title/tt0245686/,,"California, USA","(replica of Twin Arrows, Arizona)","California, United States of America",36.7014631,-118.7559974
519,/title/tt0245686/,,"Fletcher Oil Refinery - 24721 Main Street, Carson, California, USA",(Joe's Parent's Trailer scene),,,
520,/title/tt0245686/,,"Los Angeles, California, USA",,"Los Angeles, Los Angeles County, California, United States of America",34.0536909,-118.2427666
521,/title/tt0870154/,,"Hawaii, USA",,"Hawaii, United States of America",19.58726775,-155.42688965312746
522,/title/tt0870154/,,"Georgia, USA",,"Georgia, United States of America",32.3293809,-83.1137366
523,/title/tt3606752/,,"Pixar Animation Studios - 1200 Park Avenue, Emeryville, California, USA",,"Pixar Animation Studios, 1200, Park Avenue, Longfellow, Emeryville, Alameda County, California, 94608, United States of America",37.832671399999995,-122.28369454930086
524,/title/tt0085995/,,"Saddleback Inn, 12500 Firestone Blvd, Norwalk, California, USA",(The motel where Clark goes skinny dipping),,,
525,/title/tt0085995/,,"Schnebly Hill Road Overlook, Sedona, Arizona, USA",(Aunt Edna's death scene),,,
526,/title/tt0085995/,,"Star Ford - 900 S. Brand Boulevard, Glendale, California, USA",(car dealership scene),,,
527,/title/tt0085995/,,"1510 Colorado St, Glendale, California, USA",(The Town House Motel - St. Louis) (demolished),"Colorado Street, Glendale, Los Angeles County, California, 91210, United States of America",34.142594,-118.2550778
528,/title/tt0085995/,,"US-50 Hwy, Pueblo, Colorado, USA",,"US 50, Fort Reynolds, Pueblo County, Colorado, 81022, United States of America",38.2296659,-104.2944567
529,/title/tt0085995/,,"Death Valley National Park, California, USA",(Clark in the desert scene),"Death Valley National Park, Inyo County, California, 92328, United States of America",36.4914385,-117.10229360771876
530,/title/tt0085995/,,"Santa Clarita, California, USA",,"Santa Clarita, Los Angeles County, California, United States of America",34.3916641,-118.542586
531,/title/tt0085995/,,"Shaw Creek Rest Area - 24863 US-160 Hwy, South Fork, Colorado, USA",,,,
532,/title/tt0085995/,,"Alamosa, Colorado, USA",(camp scenes),"Alamosa County, Colorado, United States of America",37.5780995,-105.7890452
533,/title/tt0085995/,,"Pueblo, Colorado, USA",,"Pueblo, Pueblo County, Colorado, United States of America",38.2544472,-104.609141
534,/title/tt0085995/,,"The Wolf Creek overlook, Pagosa Springs, Colorado, USA",(Griswold family crossing into Colorado),,,
535,/title/tt0085995/,,"Coronado Motel - 2130 Lake Ave, Pueblo, Colorado, USA",,,,
536,/title/tt0085995/,,"County Rd 124, Hesperus, Colorado, USA",(road scenes),,,
537,/title/tt0085995/,,"Stage 20, Warner Brothers Burbank Studios - 4000 Warner Boulevard, Burbank, California, USA",(interiors: Griswald house),,,
538,/title/tt0085995/,,"Beaver St, Flagstaff, Arizona, USA",(street scenes),"Dry Beaver Creek, Yavapai County, Arizona, United States of America",34.7614264,-111.7203542
539,/title/tt0085995/,,"Los Angeles, California, USA",,"Los Angeles, Los Angeles County, California, United States of America",34.0536909,-118.2427666
540,/title/tt0085995/,,"St. Louis, Missouri, USA",(exterior shots only),"Saint Louis, City of Saint Louis, Missouri, 63102-1102, United States of America",38.6264178,-90.1998378
541,/title/tt0085995/,,"Brownstone Street, Warner Brothers Burbank Studios - 4000 Warner Boulevard, Burbank, California, USA",,,,
542,/title/tt0085995/,,"Hennesy Street, Warner Brothers Burbank Studios - 4000 Warner Boulevard, Burbank, California, USA",,,,
543,/title/tt0085995/,,"Blondie Street, Columbia/Warner Bros. Ranch - 411 North Hollywood Way, Burbank, California, USA",,,,
544,/title/tt0085995/,,"US-160 Hwy, Kayenta, Arizona, USA",(road scenes),"US 160, Kayenta, Navajo County, Arizona, United States of America",36.7074795,-110.2489577
545,/title/tt0085995/,,"California, USA",,"California, United States of America",36.7014631,-118.7559974
546,/title/tt0085995/,,USA,,United States,39.7837304,-100.4458825
547,/title/tt0367882/,,"Yale University, New Haven, Connecticut, USA",(Marshall College),"Yale University Art Gallery, 1111, Chapel Street, Downtown, New Haven, New Haven County, Connecticut, 06515, United States of America",41.3084354,-72.93087953034963
548,/title/tt0367882/,,"New Haven, Connecticut, USA",(Chapel Street & The Green),"New Haven, New Haven County, Connecticut, United States of America",41.3082138,-72.9250518
549,/title/tt0367882/,,"Ghost Ranch, Abiquiu, New Mexico, USA",,,,
550,/title/tt0367882/,,"Hilo, Hawaii, USA",,"Hilo CDP, Hawaiʻi County, Hawaii, United States of America",19.7073734,-155.0815803
551,/title/tt0367882/,,"W.H. Shipman Estate, Kea'au, Hawaii, USA",,,,
552,/title/tt0367882/,,"University of the Pacific, Stockton, California, USA",(school),"University of the Pacific, 3601, Pacific Avenue, Lincoln Village, Stockton, San Joaquin County, California, 95211, United States of America",37.98042375,-121.31284719832666
553,/title/tt0367882/,,"Dos Palos, California, USA",,"Dos Palos, Merced County, California, United States of America",36.9860582,-120.6265722
554,/title/tt0367882/,,"First Christian Church of North Hollywood - 4390 Colfax Avenue, Studio City, Los Angeles, California, USA",,,,
555,/title/tt0367882/,,"Chihuahuan Desert, New Mexico, USA",,"Chihuahuan Desert, Dunes Drive, White Sands Visitor's Center, Otero County, New Mexico, United States of America",32.7874353,-106.1865471
556,/title/tt0367882/,,"Falls Lake, Backlot, Universal Studios - 100 Universal City Plaza, Universal City, California, USA",,,,
557,/title/tt0367882/,,"Mexican Street, Backlot, Universal Studios - 100 Universal City Plaza, Universal City, California, USA",,,,
558,/title/tt0367882/,,"Stage 29, Universal Studios - 100 Universal City Plaza, Universal City, California, USA",,,,
559,/title/tt0367882/,,"Stage 27, Universal Studios - 100 Universal City Plaza, Universal City, California, USA",(studio),,,
560,/title/tt0093507/,,"Malibu Creek State Park - 1925 Las Virgenes Road, Calabasas, California, USA",,,,
561,/title/tt0093507/,,"Los Angeles, California, USA",,"Los Angeles, Los Angeles County, California, United States of America",34.0536909,-118.2427666
562,/title/tt0093507/,,"Culver City, California, USA",,"Culver City, Los Angeles County, California, United States of America",34.0211224,-118.3964665
563,/title/tt6663582/,,Hungary,,Magyarország,47.1817585,19.5060937
564,/title/tt6663582/,,"Prague, Czech Republic",(location),"Praha, okres Hlavní město Praha, Hlavní město Praha, Praha, Česká republika",50.0874654,14.4212535
565,/title/tt6663582/,,Czech Republic,,Česko,49.8167003,15.4749544
566,/title/tt6663582/,,"Berlin, Germany",(location),"Berlin, 10117, Deutschland",52.5170365,13.3888599
567,/title/tt6663582/,,"Szatyor Bár, 1111, Bartók Béla út 36, Budapest, Hungary",(Audrey and Morgan dye their hair there),"Szatyor Bár és Galéria, 36, Bartók Béla út, Lágymányos, Budapest, Közép-Magyarország, 1111, Magyarország",47.47916,19.050882
568,/title/tt6663582/,,Netherlands,,Nederland,52.5001698,5.7480821
569,/title/tt6663582/,,"Bálna Shopping Centre, Budapest, Hungary",(Nadedja drives off with the Ferrari in Berlin),"Bálna, Közraktár utca, Belső-Ferencváros, Budapest, Közép-Magyarország, 1093, Magyarország",47.4836683,19.06082434442337
570,/title/tt6663582/,,"Premier Outlet, Biatorbágy, Hungary",(Audrey walks with Sebastian to the surveillance van in LA),"Premier Outlet, 4, Budaörsi utca, Tópark, Biatorbágy, Budakeszi járás, Pest megye, Közép-Magyarország, 2051, Magyarország",47.46525565,18.88698061855187
571,/title/tt6663582/,,"Georgia, USA",,"Georgia, United States of America",32.3293809,-83.1137366
572,/title/tt2719848/,,"Tenzing-Hillary Airport, Lukla, Nepal",,"Tenzing-Hillary Airport, Lukla to Namche kun, Chaurikharka, Khumbupasanglahmu, सोलुखुम्बु, प्रदेश नं. १, Nepal",27.686511799999998,86.72897062499881
573,/title/tt2719848/,,"Tribhuvan International Airport, Kathmandu, Nepal",,"Tribhuvan International Airport, Jana Marg, Bhimsen Gola, Gairi Gaun, काठमाडौं, वाग्मती प्रदेश, 533, Nepal",27.694075249999997,85.35833594002071
574,/title/tt2719848/,,"Namche Bazaar, Nepal",,"Namche Bazar, Khumbupasanglahmu, सोलुखुम्बु, प्रदेश नं. १, 56002, Nepal",27.8041662,86.7097956
575,/title/tt2719848/,,"Cinecittà Studios, Cinecittà, Rome, Lazio, Italy",,,,
576,/title/tt2719848/,,"Surrey, England, UK",(as Christchurch International Airport),"Surrey, Mickleham, Mole Valley, Surrey, South East, England, United Kingdom",51.2715316,-0.3414523511290909
577,/title/tt3717490/,,"Vancouver, British Columbia, Canada",,"Vancouver, Metro Vancouver Regional District, British Columbia, Canada",49.2608724,-123.1139529
578,/title/tt3717490/,,"3580 Moncton Street, Richmond, British Columbia, Canada",(Krispy Kreme),"Nikaido, 3580, Moncton Street, Steveston, Richmond, Metro Vancouver Regional District, British Columbia, V7E 3A7, Canada",49.1250852,-123.1839465
579,/title/tt0117705/,,"1002 Highland Street, South Pasadena, California, USA",(Michael's house),"1002, Highland Street, Raymond Hill, South Pasadena, Los Angeles County, California, 91030, United States of America",34.12195904081632,-118.15691283673469
580,/title/tt0117705/,,"New York City, New York, USA",,"New York, United States of America",40.7127281,-74.0060152
581,/title/tt0117705/,,"Inglewood, California, USA",,"Inglewood, Los Angeles County, California, United States of America",33.9562003,-118.353132
582,/title/tt0117705/,,"Big Bear Lake, Big Bear Valley, San Bernardino National Forest, California, USA",,,,
583,/title/tt0117705/,,"John Marshall High School - 3939 Tracy Street, Los Feliz, Los Angeles, California, USA",,,,
584,/title/tt0117705/,,"Long Beach Arena - 300 E. Ocean Boulevard, Long Beach, California, USA",,,,
585,/title/tt0117705/,,"Stage 12, Warner Brothers Burbank Studios - 4000 Warner Boulevard, Burbank, California, USA",,,,
586,/title/tt0117705/,,"Stage 22, Warner Brothers Burbank Studios - 4000 Warner Boulevard, Burbank, California, USA",,,,
587,/title/tt2109248/,,"Detroit, Michigan, USA",,"Detroit, Wayne County, Michigan, United States of America",42.3315509,-83.0466403
588,/title/tt2109248/,,"Hong Kong, China",,"香港島 Hong Kong Island, 香港 Hong Kong, China 中国",22.2793278,114.1628131
589,/title/tt2109248/,,"Pontiac, Michigan, USA",,"Pontiac, Oakland County, Michigan, United States of America",42.6389216,-83.2910468
590,/title/tt2109248/,,"Lockhart, Texas, USA",,"Lockhart, Caldwell County, Texas, 78644, United States of America",29.8832105,-97.6736292
591,/title/tt2109248/,,"Elgin, Texas, USA",,"Elgin, Bastrop County, Texas, United States of America",30.349351,-97.3705762
592,/title/tt2109248/,,Iceland,(The age of the dinosaures),Ísland,64.9841821,-18.1059013
593,/title/tt2109248/,,"Moab, Utah, USA",(Potash Road),"Moab, Grand County, Utah, United States of America",38.5738096,-109.5462146
594,/title/tt2109248/,,"Washington, USA","(Reactor Building @ Satsop Business Park, Elma, WA)","Washington, District of Columbia, 20230, United States of America",38.8949924,-77.0365581
595,/title/tt2109248/,,"Beijing, China",,"北京市, 通州区, 北京市, China 中国",39.9020668,116.718583
596,/title/tt2109248/,,"U.S. Steel South Works Plant - 8401 South Green Bay Avenue, Chicago, Illinois, USA",(SUV driving in reverse scene),,,
597,/title/tt2109248/,,"Illinois Railway Museum - 7000 Olson Rd., Union, Illinois, USA",(Old train scenes),,,
598,/title/tt2109248/,,"St. Boniface Church, Chicago, Illinois, USA",(Yeager's lab in Chicago),"St. Boniface Church (Abandoned), 919-921, North Noble Street, West Town, Chicago, Cook County, Illinois, 60642, United States of America",41.89827665,-87.6622026105133
599,/title/tt2109248/,,"Wan Chai, Hong Kong",,"灣仔 Wan Chai, 灣仔區 Wan Chai District, 香港島 Hong Kong Island, 香港 Hong Kong, China 中国",22.2790146,114.1724833
600,/title/tt2109248/,,"To Kwa Wan, Kowloon, Hong Kong",,"土瓜灣 To Kwa Wan, 九龍 Kowloon, 九龍城區 Kowloon City District, 香港 Hong Kong, China 中国",22.3167582,114.1895402
601,/title/tt2109248/,,"Stonecutters Bridge, Kowloon, Hong Kong",,"昂船洲大橋 Stonecutters Bridge, 青沙公路 Tsing Sha Highway, 荔枝角 Lai Chi Kok, 深水埗區 Sham Shui Po District, 九龍 Kowloon, 葵青區 Kwai Tsing District, 新界 New Territories, 香港 Hong Kong, China 中国",22.325763000000002,114.11831090995743
602,/title/tt8096832/,,"Atlanta, Georgia, USA",,"Atlanta, Georgia, United States of America",33.7490987,-84.3901849
603,/title/tt0060009/,,"Desilu Studios - 9336 W. Washington Blvd., Culver City, California, USA",(season 1),,,
604,/title/tt0111301/,,"Bangkok, Thailand",(Shaloon City scenes),"กรุงเทพมหานคร, เขตพระนคร, กรุงเทพมหานคร, 10200, ประเทศไทย",13.7542529,100.493087
605,/title/tt0111301/,,"Vancouver, British Columbia, Canada",,"Vancouver, Metro Vancouver Regional District, British Columbia, Canada",49.2608724,-123.1139529
606,/title/tt0111301/,,"Warner Roadshow Studios, Gold Coast, Queensland, Australia",(studio),,,
607,/title/tt0111301/,,Thailand,,ประเทศไทย,14.8971921,100.83273
608,/title/tt0096754/,,"Earl Owensby Studios - 1 Motion Picture Boulevard, Shelby, North Carolina, USA",(studio),,,
609,/title/tt0096754/,,"Bonne Terre Mine, Bonne Terre, Missouri, USA",(underwater scenes),,,
610,/title/tt0096754/,,"Imperial County, California, USA",,"Imperial County, California, United States of America",33.0305487,-115.3595666
611,/title/tt0096754/,,"Los Angeles, California, USA",,"Los Angeles, Los Angeles County, California, United States of America",34.0536909,-118.2427666
612,/title/tt0145660/,,"Hollywood, Los Angeles, California, USA",,"Hollywood, Los Angeles, Los Angeles County, California, 90028-8127, United States of America",34.0980031,-118.329523
613,/title/tt0145660/,,"San Marcos Pass, California, USA",,"San Marcos, San Diego County, California, United States of America",33.1433723,-117.1661449
614,/title/tt9376612/,,"Los Angeles, California, USA",,"Los Angeles, Los Angeles County, California, United States of America",34.0536909,-118.2427666
615,/title/tt9376612/,,"San Francisco, California, USA",(second unit stunts),"San Francisco, San Francisco City and County, California, United States of America",37.7790262,-122.4199061
616,/title/tt3861390/,,"Pinewood Studios, Iver Heath, Buckinghamshire, England, UK",,"Pinewood Studios, Pinewood Green, Iver, Iver Heath, Buckinghamshire, South East, England, SL0 0QJ, United Kingdom",51.54831515,-0.5346765566753087
617,/title/tt1408101/,,"Crystal Cathedral - 12141 Lewis Street, Garden Grove, California, USA",,,,
618,/title/tt1408101/,,"Greystone Park & Mansion - 905 Loma Vista Drive, Beverly Hills, California, USA",(London Hospital),,,
619,/title/tt1408101/,,"Reynisfjara, Iceland",(planet where torpedo is checked for safety),"Reynisfjara, Reynishverfisvegur, Reynir, Garðar, Vík, Mýrdalshreppur, Suðurland, 871, Ísland",63.4024915,-19.0442177
620,/title/tt1408101/,,"Sony Pictures Studios - 10202 W. Washington Blvd., Culver City, California, USA",(studio),,,
621,/title/tt1408101/,,"Spring Street Towers - 650 S. Spring Street, Downtown, Los Angeles, California, USA",(exteriors: Starfleet Archives in London),,,
622,/title/tt1408101/,,"Spruce Goose Hangar - 16 S Campus Center Dr, Los Angeles, California, USA",(Landing deck in Marcus' spaceship),"Spruce Goose Hangar, Campus Center Drive, Playa Vista, Los Angeles, Los Angeles County, California, 90094, United States of America",33.9775332,-118.408156645471
623,/title/tt1408101/,,"Century City, Los Angeles, California, USA",(Spacecraft crashing in San Francisco),"Century City, Los Angeles, Los Angeles County, California, 90067, United States of America",34.0574263,-118.4147267
624,/title/tt1408101/,,"San Francisco, California, USA",(B-roll),"San Francisco, San Francisco City and County, California, United States of America",37.7790262,-122.4199061
625,/title/tt1583421/,,"Michoud Assembly Facility - 13800 Old Gentilly Road, New Orleans, Louisiana, USA",,,,
626,/title/tt1583421/,,"Greenwood Plantation - 6838 Highland Road, St. Francisville, Louisiana, USA",(street scenes),,,
627,/title/tt1583421/,,"Washington, District of Columbia, USA",(credits at the end of the film),"Washington, District of Columbia, 20230, United States of America",38.8949924,-77.0365581
628,/title/tt1583421/,,"Louisiana, USA",,"Louisiana, United States of America",30.8703881,-92.007126
629,/title/tt1583421/,,"British Columbia, Canada",(credits at the end of the film),"British Columbia, Canada",55.001251,-125.002441
630,/title/tt2692250/,,"British Museum, Great Russell Street, Bloomsbury, London, England, UK",,"British Museum, Great Russell Street, St Giles, Bloomsbury, London Borough of Camden, London, Greater London, England, WC1B 3DG, United Kingdom",51.51929365,-0.12801772178494725
631,/title/tt2692250/,,"Vancouver, British Columbia, Canada",(studio) (Vancouver Film Studios) (University of British Columbia),"Vancouver, Metro Vancouver Regional District, British Columbia, Canada",49.2608724,-123.1139529
632,/title/tt0305357/,,"Hollywood Hills, Los Angeles, California, USA",,"Hollywood Hills, Los Angeles, Los Angeles County, California, United States of America",34.1311792,-118.3355474
633,/title/tt0305357/,,"Greystone Park & Mansion - 905 Loma Vista Drive, Beverly Hills, California, USA",,,,
634,/title/tt0305357/,,"Hollywood Boulevard, Hollywood, Los Angeles, California, USA",,"Hollywood Boulevard, Whitley Heights Historic District, Hollywood, Los Angeles, Los Angeles County, California, 90028, United States of America",34.1015833,-118.3324947
635,/title/tt0305357/,,"Hyatt Regency Century Plaza - 2025 Avenue of the Stars, Los Angeles, California, USA",(Alex's rodeo segment),"Hyatt Regency Century Plaza, 2025, Avenue of the Stars, Century City, Los Angeles, Los Angeles County, California, 90067, United States of America",34.057448050000005,-118.41578217976836
636,/title/tt0305357/,,"Los Angeles, California, USA",,"Los Angeles, Los Angeles County, California, United States of America",34.0536909,-118.2427666
637,/title/tt0305357/,,"Century City, Los Angeles, California, USA",,"Century City, Los Angeles, Los Angeles County, California, 90067, United States of America",34.0574263,-118.4147267
638,/title/tt0305357/,,"Holmby Hills, Los Angeles, California, USA",,,,
639,/title/tt0349683/,,"Powerscourt, County Wicklow, Ireland",,"Powerscourt, The Municipal District of Bray, County Wicklow, Leinster, A98 KN50, Ireland",53.17629015,-6.295062533376603
640,/title/tt0349683/,,"Glenmalure, County Wicklow, Ireland",,"Glenmalure, Knockrath, County Wicklow, Leinster, Ireland",52.9576993,-6.3539662
641,/title/tt0349683/,,"Stonehenge, Salisbury Plain, Wiltshire, England, UK",,,,
642,/title/tt0349683/,,"Dublin, County Dublin, Ireland",,"Dublin, County Dublin, Leinster, Ireland",53.3497645,-6.2602732
643,/title/tt0349683/,,"Ballymore Eustace, County Kildare, Ireland",(Hadrians Wall / Fortress),"Ballymore Eustace, County Kildare, Leinster, 0000, Ireland",53.1334772,-6.6152013
644,/title/tt1192628/,,"Chicago Illinois, USA",,"Chicago, Cook County, Illinois, United States of America",41.8755616,-87.6244212
645,/title/tt0473075/,,"Ouarzazate, Morocco",(city scenes at the Kasbah Taourirt),"Ouarzazate ⵡⴰⵔⵣⴰⵣⴰⵜ ورزازات, Pachalik d'Ouarzazate, Province de Ouarzazate ⵍⵉⵇⵍⵉⵎ ⵏ ⵡⴰⵔⵣⴰⵣⴰⵜ إقليم ورززات, Drâa-Tafilalet ⴷⴰⵔⵄⴰ-ⵜⴰⴼⵉⵍⴰⵍⵜ درعة تافيلالت, 45005, Maroc",30.920193,-6.910923
646,/title/tt0473075/,,"Aït Benhaddou, Morocco",(marketplace),"Aït Ben Haddou ⴰⵢⵜ ⴱⵏ ⵃⴷⴷⵓ آيت بن حدو, caïdat de Amerzgane, cercle d'Amerzgane دائرة أمرزكان, Province de Ouarzazate ⵍⵉⵇⵍⵉⵎ ⵏ ⵡⴰⵔⵣⴰⵣⴰⵜ إقليم ورززات, Drâa-Tafilalet ⴷⴰⵔⵄⴰ-ⵜⴰⴼⵉⵍⴰⵍⵜ درعة تافيلالت, 45100, Maroc",31.0451122,-7.1310323
647,/title/tt0473075/,,"Tameslouht, Marrakech, Morocco",(Alamut),"Tameslouht ⵜⴰⵎⵚⵍⵓⵃⵜ تمصلوحت, caïdat de Tameslouhte, Cercle de Tahannaout دائرة تحناوت, Province d'Al Haouz ⵍⵉⵇⵍⵉⵎ ⵏ ⵍⵃⵓⵣ إقليم الحوز, Marrakech-Safi ⵎⵕⵕⴰⴽⵛ-ⴰⵙⴼⵉ مراكش-أسفي, 42312, Maroc",31.495084,-8.098377
648,/title/tt0473075/,,"Merzouga, Erfoud, Morocco",(desert scenes),,,
649,/title/tt0473075/,,"Pinewood Studios, Iver Heath, Buckinghamshire, England, UK",(studio),"Pinewood Studios, Pinewood Green, Iver, Iver Heath, Buckinghamshire, South East, England, SL0 0QJ, United Kingdom",51.54831515,-0.5346765566753087
650,/title/tt0084967/,,"Six Points Texas, Backlot, Universal Studios - 100 Universal City Plaza, Universal City, California, USA",,,,
651,/title/tt0084967/,,"Los Angeles, California, USA",,"Los Angeles, Los Angeles County, California, United States of America",34.0536909,-118.2427666
652,/title/tt0425061/,,"Harrington, Québec, Canada",,"Harrington, Argenteuil, Laurentides, Québec, Canada",45.8432991,-74.5585055
653,/title/tt0425061/,,"Moskva River, Russia",,"Москва, Западный административный округ, Москва, Центральный федеральный округ, 143059, Россия",55.7098009,37.0536908
654,/title/tt0425061/,,"Smithsonian Institution, Washington, District of Columbia, USA",,"National Museum of Natural History, Smithsonian Pollinator Garden Path, Penn Quarter, Washington, District of Columbia, 20560, United States of America",38.8913369,-77.02597980275456
655,/title/tt0425061/,,"Olympic Stadium, Montréal, Québec, Canada",,"Stade olympique, 4545, Avenue Pierre-De Coubertin, Maisonneuve, Montréal, Agglomération de Montréal, Montréal (06), Québec, H1V 3N7, Canada",45.55779835,-73.55164580516643
656,/title/tt0425061/,,"Long Beach, California, USA",,"Long Beach, Los Angeles County, California, United States of America",33.7690164,-118.1916048
657,/title/tt0425061/,,"Los Angeles, California, USA",,"Los Angeles, Los Angeles County, California, United States of America",34.0536909,-118.2427666
658,/title/tt1241317/,,"Vancouver, British Columbia, Canada",,"Vancouver, Metro Vancouver Regional District, British Columbia, Canada",49.2608724,-123.1139529
659,/title/tt0120347/,,"Außenalster, Harvestehude, Hamburg, Germany",(Lake) (Exterior of Hotel that James Bond stays at in Hamburg),,,
660,/title/tt0120347/,,"IBM Building, New Square, Bedfont Lakes, Feltham, Middlesex, England, UK",(Cocktail Party),,,
661,/title/tt0120347/,,"Harmsworth Quays Printers Ltd, Surrey Quays Road, Surrey Quays, Rotherhithe, London, England, UK",(Hamburg Printing Facility),,,
662,/title/tt0120347/,,"High Altitude Airstrip, Courchevel, Pyrenees Mountains, Hautes-Pyrénées, France",(Arms bazaar opening sequence),,,
663,/title/tt0120347/,,"James Bond Island, Phang Nga Bay, Thailand",(aka Koh-Ping-Gan Island) (aka Khao Phing Kan Island),"Ko Tapu, จังหวัดพังงา, ประเทศไทย",8.275422,98.50057749043717
664,/title/tt0120347/,,"Fuhlsbüttel Airport, Hamburg, Germany",(James Bond arrives in Hamburg),"Hamburg Airport Helmut Schmidt, Krähenweg, Niendorf, Eimsbüttel, Hamburg, 22455, Deutschland",53.63636215,9.994550134684175
665,/title/tt0120347/,,"Mönckebergstraße, Hamburg, Germany",(James Bond exits the Hamburg printing facility - jump of car over street),"Mönckebergstraße, Altstadt, Hamburg-Mitte, Hamburg, 20095, Deutschland",53.5512809,10.0019001
666,/title/tt0120347/,,"Fox Baja Studios, Rosarito, Baja California Norte, Mexico",(studio) (water tank) (Stealth Ship; Sea Landing; Exteriors of the UK Fleet),,,
